     2.11           OBSERVATION DATA    M (MIXED)           RINEX VERSION / TYPE
RTKCONV 2.4.2       A. Blais            20150307 150801 UTC PGM / RUN BY / DATE 
log: C:\Users\blais\Downloads\COM44_150205_094639.ubx       COMMENT             
format: u-blox                                              COMMENT             
Antenne sur le toit du bâtiment F                           COMMENT             
ENA2                                                        MARKER NAME         
                                                            MARKER NUMBER       
A. Blais            ENAC                                    OBSERVER / AGENCY   
u-blox              AEK-4T                                  REC # / TYPE / VERS 
                                                            ANT # / TYPE        
  4627537.2739   119698.4035  4373317.5742                  APPROX POSITION XYZ 
        0.0000        0.0000        0.0000                  ANTENNA: DELTA H/E/N
     1     1                                                WAVELENGTH FACT L1/2
     4    C1    L1    D1    S1                              # / TYPES OF OBSERV 
  2015     2     5     9    47   20.9990000     GPS         TIME OF FIRST OBS   
  2015     2     5    10    52   10.0010000     GPS         TIME OF LAST OBS    
                                                            END OF HEADER       
 15  2  5  9 47 20.9990000  0 14G23G 3G20G 9G17G 1G 6S20G 4S26G11G32
                                G10G31
  20043166.874   105327522.609        3506.825          50.000  
  20597742.958   108241840.085        1574.048          47.000  
  20355351.843   106968089.425        4830.709          47.000  
  20721078.262   108889977.210        5451.688          49.000  
  21754787.384   114322130.635        1366.306          45.000  
  22301282.221   117194002.670          34.506          43.000  
  21595850.479   113486969.856        5887.357          45.000  
  37526826.447   197204776.460        3163.544          40.000  
  25160246.194   132217985.6992       -486.354          35.000  
  37902005.613   199176384.635        3231.056          36.000  
  24626652.770   112084265.763        -677.523          37.000  
  24171933.709   104968468.469         203.591          34.000  
  22916543.326    90494244.445        6227.828          39.000  
  24030895.484    85322278.712        1170.470          33.000  
 15  2  5  9 47 21.9990000  0 14G23G 3G20G 9G17G 1G 6S20G 4S26G11G32
                                G10G31
  20042500.031   105324016.617        3505.580          51.000  
  20597443.337   108240266.161        1574.092          47.000  
  20354432.426   106963259.236        4830.339          47.000  
  20720040.829   108884526.298        5450.274          49.000  
  21754527.480   114320765.277        1365.520          45.000  
  22301275.851   117193968.295          33.994          43.000  
  21594730.472   113481083.345        5886.415          45.000  
  37526224.275   197201612.663        3165.244          40.000  
  25160338.681   132218472.1412       -485.037          35.000  
  37901390.581   199173151.338        3233.090          36.000  
  24626782.425   112084943.765        -677.960          37.000  
  24171894.446   104968263.334         205.048          34.000  
  22915358.334    90488016.493        6228.007          39.000  
  24030673.098    85321109.189        1169.329          33.000  
 15  2  5  9 47 22.9990000  0 14G23G 3G20G 9G17G 1G 6S20G 4S26G11G32
                                G10G31
  20041832.909   105320510.895        3505.580          51.000  
  20597143.944   108238692.243        1573.398          47.000  
  20353513.358   106958429.080        4830.217          47.000  
  20719003.274   108879075.596        5450.759          49.000  
  21754267.838   114319400.178        1364.946          45.000  
  22301269.412   117193933.959          33.407          43.000  
  21593610.290   113475196.899        5886.308          45.000  
  37525622.313   197198448.650        3166.324          40.000  
  25160431.516   132218958.3732       -485.498          35.000  
  37900775.042   199169917.600        3233.307          36.000  
  24626911.993   112085621.514        -677.251          37.000  
  24171855.653   104968057.972         202.943          34.000  
  22914173.446    90481788.404        6227.428          39.000  
  24030450.938    85319939.947        1168.126          33.000  
 15  2  5  9 47 23.9990000  0 14G23G 3G20G 9G17G 1G 6S20G 4S26G11G32
                                G10G31
  20041165.856   105317006.055        3504.366          51.000  
  20596844.516   108237118.915        1573.801          47.000  
  20352594.114   106953599.552        4828.823          47.000  
  20717966.103   108873625.710        5450.147          49.000  
  21754008.527   114318035.955        1364.094          45.000  
  22301262.886   117193900.235          33.478          43.000  
  21592490.509   113469311.098        5885.843          45.000  
  37525020.244   197195284.792        3161.609          40.000  
  25160523.792   132219444.9962       -486.987          35.000  
  37900159.835   199166683.994        3234.433          36.000  
  24627042.014   112086299.626        -679.088          37.000  
  24171816.321   104967852.919         204.727          34.000  
  22912988.280    90475560.789        6227.003          39.000  
  24030228.657    85318771.548        1165.716          32.000  
 15  2  5  9 47 24.9990000  0 14G23G 3G20G 9G17G 1G 6S20G 4S26G11G32
                                G10G31
  20040498.822   105313501.627        3503.858          50.000  
  20596545.105   108235545.746        1573.076          47.000  
  20351675.186   106948770.222        4829.125          47.000  
  20716929.245   108868176.154        5449.530          49.000  
  21753748.815   114316672.128        1363.559          45.000  
  22301256.726   117193866.676          33.948          43.000  
  21591370.449   113463425.495        5885.727          45.000  
  37524417.933   197192120.829        3164.596          40.000  
  25160616.330   132219931.4482       -488.235          35.000  
  37899544.436   199163450.2503       3235.199          35.000  
  24627171.006   112086977.623        -677.997          37.000  
  24171777.512   104967647.784         205.084          34.000  
  22911803.340    90469333.212        6227.790          39.000  
  24030006.446    85317603.485        1167.327          32.000  
 15  2  5  9 47 25.9990000  0 14G23G 3G20G 9G17G 1G 6S20G 4S26G11G32
                                G10G31
  20039832.363   105309997.629        3503.640          50.000  
  20596245.641   108233972.742        1572.694          47.000  
  20350756.135   106943941.085        4828.676          47.000  
  20715892.510   108862726.972        5448.725          49.000  
  21753489.138   114315308.742        1363.101          45.000  
  22301250.356   117193833.304          33.367          43.000  
  21590250.529   113457540.117        5884.769          45.000  
  37523815.954   197188957.098        3166.645          40.000  
  25160708.957   132220417.8512       -485.328          35.000  
  37898929.018   199160216.7112       3233.576          35.000  
  24627299.928   112087655.532        -678.209          37.000  
  24171738.389   104967442.577         204.434          34.000  
  22910618.715    90463105.679        6227.877          39.000  
  24029784.182    85316435.907        1166.340          32.000  
 15  2  5  9 47 26.9990000  0 14G23G 3G20G 9G17G 1G 6S20G 4S26G11G32
                                G10G31
  20039165.258   105306493.946        3503.333          50.000  
  20595946.213   108232399.761        1572.235          47.000  
  20349837.032   106939112.009        4829.022          47.000  
  20714855.356   108857278.022        5448.698          49.000  
  21753229.549   114313945.659        1362.420          45.000  
  22301244.039   117193799.965          33.297          43.000  
  21589130.434   113451654.806        5884.890          45.000  
  37523213.816   197185792.992        3164.509          40.000  
  25160801.024   132220904.0612       -485.086          35.000  
  37898313.444   199156982.8402       3232.148          36.000  
  24627429.183   112088333.215        -677.280          37.000  
  24171699.964   104967237.127         205.388          34.000  
  22909433.391    90456878.047        6227.315          39.000  
  24029561.413    85315268.621        1165.671          32.000  
 15  2  5  9 47 27.9990000  0 14G23G 3G20G 9G17G 1G 6S20G 4S26G11G32
                                G10G31
  20038498.922   105302990.736        3503.402          50.000  
  20595647.186   108230826.999        1573.443          47.000  
  20348918.261   106934283.191        4829.286          47.000  
  20713818.517   108851829.484        5449.079          49.000  
  21752970.274   114312583.044        1362.890          45.000  
  22301237.810   117193766.869          33.741          43.000  
  21588010.148   113445769.793        5885.740          45.000  
  37522611.574   197182628.500        3164.761          41.000  
  25160893.510   132221390.2502       -485.644          35.000  
  37897698.150   199153748.6232       3233.289          36.000  
  24627557.878   112089010.865        -677.558          37.000  
  24171660.998   104967031.628         207.075          34.000  
  22908248.591    90450650.514        6226.518          39.000  
  24029339.446    85314101.786        1166.943          33.000  
 15  2  5  9 47 28.9990000  0 14G23G 3G20G 9G17G 1G 6S20G 4S26G11G32
                                G10G31
  20037832.270   105299488.291        3501.393          50.000  
  20595347.949   108229254.717        1571.492          47.000  
  20347999.594   106929454.897        4827.927          47.000  
  20712781.694   108846381.636        5447.298          49.000  
  21752710.980   114311221.172        1361.710          45.000  
  22301231.789   117193734.284          31.968          43.000  
  21586890.821   113439885.292        5883.552          45.000  
  37522009.541   197179464.367        3162.775          40.000  
  25160985.734   132221876.6692       -486.353          34.000  
  37897082.750   199150514.6983       3232.065          36.000  
  24627686.346   112089688.724        -678.598          37.000  
  24171621.577   104966826.382         205.803          35.000  
  22907063.843    90444423.351        6226.713          39.000  
  24029117.654    85312935.745        1166.583          33.000  
 15  2  5  9 47 29.9990000  0 14G23G 3G20G 9G17G 1G 6S20G 4S26G11G32
                                G10G31
  20037165.864   105295986.535        3501.181          50.000  
  20595048.975   108227682.860        1571.425          47.000  
  20347080.456   106924627.060        4827.673          47.000  
  20711745.203   108840934.404        5446.856          49.000  
  21752452.315   114309859.990        1360.720          45.000  
  22301225.594   117193702.124          32.036          43.000  
  21585771.302   113434001.270        5884.151          45.000  
  37521407.491   197176300.591        3164.100          40.000  
  25161078.517   132222363.2702       -487.555          34.000  
  37896467.195   199147281.026        3237.185          36.000  
  24627815.652   112090366.765        -678.777          37.000  
  24171582.611   104966621.247         205.819          35.000  
  22905878.537    90438196.495        6226.549          39.000  
  24028896.158    85311770.293        1166.180          32.000  
 15  2  5  9 47 30.9990000  0 14G23G 3G20G 9G17G 1G 6S20G 4S26G11G32
                                G10G31
  20036499.336   105292484.983        3501.336          51.000  
  20594749.738   108226110.925        1571.963          47.000  
  20346161.685   106919799.179        4827.739          47.000  
  20710708.695   108835487.310        5447.019          49.000  
  21752193.476   114308499.005        1360.393          45.000  
  22301219.539   117193669.909          32.376          43.000  
  21584651.556   113428117.225        5883.656          45.000  
  37520805.685   197173136.529        3163.711          40.000  
  25161170.829   132222850.041        -486.565          34.000  
  37895851.463   199144047.238        3233.373          37.000  
  24627944.487   112091044.447        -678.240          37.000  
  24171543.365   104966415.808         204.527          34.000  
  22904693.702    90431969.409        6226.228          39.000  
  24028674.715    85310605.078        1165.387          32.000  
 15  2  5  9 47 31.9990000  0 14G23G 3G20G 9G17G 1G 6S20G 4S26G11G32
                                G10G31
  20035833.174   105288983.817        3501.608          51.000  
  20594450.642   108224539.111        1572.756          47.000  
  20345242.931   106914971.446        4828.360          47.000  
  20709672.362   108830040.525        5447.734          49.000  
  21751934.480   114307138.390        1361.164          45.000  
  22301213.606   117193637.821          32.589          43.000  
  21583532.230   113422233.363        5884.452          45.000  
  37520203.374   197169972.125        3164.933          41.000  
  25161263.438   132223335.7403       -484.906          34.000  
  37895236.377   199140813.544        3233.058          36.000  
  24628074.108   112091722.048        -677.575          37.000  
  24171504.417   104966210.287         205.904          34.000  
  22903508.449    90425742.344        6227.690          39.000  
  24028452.661    85309440.221        1165.459          32.000  
 15  2  5  9 47 32.9990000  0 14G23G 3G20G 9G17G 1G 6S20G 4S26G11G32
                                G10G31
  20035167.011   105285483.306        3499.482          50.000  
  20594151.510   108222967.677        1570.499          47.000  
  20344324.002   106910144.149        4826.498          47.000  
  20708635.993   108824594.340        5445.603          49.000  
  21751675.780   114305778.419        1359.075          45.000  
  22301207.515   117193606.140          30.277          43.000  
  21582412.763   113416349.942        5882.098          45.000  
  37519601.358   197166807.810        3163.503          40.000  
  25161356.376   132223822.0822       -488.044          34.000  
  37894620.664   199137579.647        3232.689          36.000  
  24628202.419   112092399.742        -677.222          37.000  
  24171465.223   104966004.815         204.315          34.000  
  22902323.648    90419515.544        6225.466          39.000  
  24028231.374    85308275.992        1163.499          32.000  
 15  2  5  9 47 33.9990000  0 14G23G 3G20G 9G17G 1G 6S20G 4S26G11G32
                                G10G31
  20034501.040   105281983.351        3499.005          51.000  
  20593852.552   108221396.519        1570.145          47.000  
  20343405.527   106905317.149        4826.285          47.000  
  20707599.834   108819148.623        5445.035          49.000  
  21751417.098   114304418.993        1358.673          45.000  
  22301201.442   117193574.746          30.684          43.000  
  21581292.913   113410466.845        5882.960          45.000  
  37518999.257   197163643.533        3165.343          40.000  
  25161448.583   132224308.4572       -488.050          34.000  
  37894005.195   199134345.259        3233.730          36.000  
  24628330.713   112093077.452        -678.366          37.000  
  24171426.082   104965799.399         204.469          34.000  
  22901138.482    90413288.887        6226.503          39.000  
  24028009.564    85307112.314        1163.616          32.000  
 15  2  5  9 47 34.9990000  0 14G23G 3G20G 9G17G 1G 6S20G 4S26G11G32
                                G10G31
  20033835.349   105278484.052        3498.725          50.000  
  20593553.700   108219825.746        1570.370          47.000  
  20342486.738   106900490.579        4825.679          47.000  
  20706563.849   108813703.501        5444.840          49.000  
  21751158.363   114303060.229        1358.555          45.000  
  22301195.230   117193543.753          30.112          43.000  
  21580173.620   113404584.189        5882.050          44.000  
  37518397.293   197160479.482        3163.083          40.000  
  25161541.053   132224794.9482       -486.457          33.000  
  37893389.604   199131111.273        3234.785          37.000  
  24628459.757   112093755.306        -678.969          37.000  
  24171386.941   104965594.093         203.103          34.000  
  22899953.211    90407062.533        6225.273          39.000  
  24027787.788    85305949.296        1159.428          32.000  
 15  2  5  9 47 35.9990000  0 14G23G 3G20G 9G17G 1G 6S20G 4S26G11G32
                                G10G31
  20033169.274   105274985.519        3498.025          51.000  
  20593254.795   108218255.469        1570.202          47.000  
  20341568.752   106895664.543        4825.841          47.000  
  20705527.934   108808259.079        5444.291          49.000  
  21750899.821   114301702.225        1357.971          45.000  
  22301189.262   117193513.290          30.633          43.000  
  21579053.892   113398702.089        5881.808          44.000  
  37517795.400   197157315.475        3162.917          40.000  
  25161633.644   132225281.7372       -485.508          33.000  
  37892774.344   199127877.694        3235.009          36.000  
  24628588.296   112094433.380        -677.471          37.000  
  24171348.079   104965389.067         203.060          34.000  
  22898768.708    90400836.504        6226.065          39.000  
  24027566.991    85304786.973        1162.355          33.000  
 15  2  5  9 47 36.9990000  0 14G23G 3G20G 9G17G 1G 6S20G 4S26G11G32
                                G10G31
  20032503.723   105271487.332        3497.874          50.000  
  20592956.012   108216685.280        1570.219          47.000  
  20340650.765   106890838.629        4825.739          47.000  
  20704491.862   108802814.926        5443.627          49.000  
  21750641.540   114300344.540        1357.312          45.000  
  22301183.748   117193482.904          29.989          43.000  
  21577934.146   113392820.111        5881.236          45.000  
  37517193.072   197154151.347        3165.561          40.000  
  25161726.077   132225768.3932       -486.021          33.000  
  37892158.892   199124644.100        3233.252          37.000  
  24628717.566   112095111.288        -678.741          37.000  
  24171308.887   104965183.822         205.092          34.000  
  22897584.030    90394610.459        6226.367          39.000  
  24027346.247    85303625.069        1163.980          33.000  
 15  2  5  9 47 37.9990000  0 14G23G 3G20G 9G17G 1G 6S20G 4S26G11G32
                                G10G31
  20031838.084   105267989.554        3498.042          50.000  
  20592657.230   108215115.207        1570.395          47.000  
  20339732.430   106886012.874        4825.811          47.000  
  20703456.157   108797371.110        5443.646          49.000  
  21750383.242   114298987.273        1357.269          45.000  
  22301178.146   117193452.677          30.789          43.000  
  21576815.117   113386938.336        5882.507          44.000  
  37516591.040   197150987.230        3165.555          40.000  
  25161818.651   132226254.9013       -484.033          33.000  
  37891543.179   199121410.141        3235.397          36.000  
  24628846.332   112095789.076        -677.245          36.000  
  24171269.939   104964978.449         207.350          34.000  
  22896399.335    90388384.424        6226.358          39.000  
  24027125.413    85302463.473        1160.572          32.000  
 15  2  5  9 47 38.9990000  0 14G23G 3G20G 9G17G 1G 6S20G 4S26G11G32
                                G10G31
  20031172.794   105264492.370        3496.403          50.000  
  20592358.569   108213545.475        1568.697          47.000  
  20338814.217   106881187.488        4824.674          47.000  
  20702420.015   108791927.828        5442.323          49.000  
  21750124.995   114297630.591        1355.495          45.000  
  22301172.492   117193422.792          29.550          43.000  
  21575695.859   113381056.925        5881.058          45.000  
  37515988.850   197147823.047        3164.797          40.000  
  25161911.346   132226741.5632       -487.268          33.000  
  37890927.692   199118176.006        3232.878          37.000  
  24628975.132   112096466.918        -678.802          37.000  
  24171231.076   104964773.170         205.476          34.000  
  22895213.924    90382158.588        6225.650          39.000  
  24026904.458    85301302.472        1161.621          33.000  
 15  2  5  9 47 39.9990000  0 14G23G 3G20G 9G17G 1G 6S20G 4S26G11G32
                                G10G31
  20030507.243   105260995.737        3497.235          50.000  
  20592059.944   108211975.997        1569.755          47.000  
  20337895.987   106876362.416        4825.345          47.000  
  20701384.170   108786485.014        5442.679          49.000  
  21749867.169   114296274.437        1356.054          45.000  
  22301167.344   117193393.193          29.397          43.000  
  21574577.021   113375175.856        5881.409          45.000  
  37515386.713   197144659.007        3165.220          40.000  
  25162004.094   132227228.1532       -486.419          33.000  
  37890312.624   199114942.191        3233.106          36.000  
  24629104.055   112097144.805        -677.072          36.000  
  24171191.709   104964567.930         207.541          33.000  
  22894029.368    90375932.917        6225.600          39.000  
  24026683.993    85300142.021        1161.940          33.000  
 15  2  5  9 47 40.9990000  0 14G23G 3G20G 9G17G 1G 6S20G 4S26G11G32
                                G10G31
  20029841.814   105257499.368        3496.174          50.000  
  20591761.248   108210406.530        1569.592          47.000  
  20336977.791   106871537.372        4824.755          47.000  
  20700348.796   108781042.398        5442.341          49.000  
  21749609.377   114294918.548        1356.054          45.000  
  22301161.656   117193363.611          29.832          43.000  
  21573458.008   113369294.830        5880.916          44.000  
  37514784.645   197141494.604        3164.806          40.000  
  25162096.633   132227714.6003       -486.218          33.000  
  37889696.944   199111708.233        3229.239          37.000  
  24629232.890   112097822.394        -676.771          36.000  
  24171152.690   104964362.376         206.974          33.000  
  22892843.940    90369707.092        6225.640          38.000  
  24026463.560    85298981.791        1158.076          33.000  
 15  2  5  9 47 41.9990000  0 14G23G 3G20G 9G17G 1G 6S20G 4S26G11G32
                                G10G31
  20029176.507   105254003.357        3496.069          50.000  
  20591462.518   108208837.140        1569.547          47.000  
  20336059.945   106866712.454        4825.329          47.000  
  20699312.899   108775600.074        5442.198          49.000  
  21749351.462   114293563.012        1355.829          45.000  
  22301155.635   117193334.123          28.667          43.000  
  21572338.804   113363413.953        5881.067          44.000  
  37514182.473   197138329.914        3165.620          40.000  
  25162188.788   132228200.9092       -483.438          33.000  
  37889081.547   199108473.586        3235.790          36.000  
  24629361.881   112098499.835        -677.876          36.000  
  24171113.532   104964156.684         206.869          34.000  
  22891659.122    90363481.255        6225.256          39.000  
  24026243.321    85297821.886        1158.337          33.000  
 15  2  5  9 47 42.9990000  0 14G23G 3G20G 9G17G 1G 6S20G 4S26G11G32
                                G10G31
  20028511.426   105250507.920        3495.537          50.000  
  20591164.224   108207268.047        1569.480          47.000  
  20335141.923   106861887.862        4825.092          47.000  
  20698277.822   108770158.247        5442.363          50.000  
  21749093.548   114292208.026        1355.586          45.000  
  22301150.034   117193304.943          29.675          43.000  
  21571219.739   113357533.418        5881.121          45.000  
  37513580.267   197135165.246        3166.598          40.000  
  25162281.361   132228687.1463       -486.554          33.000  
  37888466.200   199105239.093        3235.442          37.000  
  24629490.402   112099177.303        -676.904          36.000  
  24171074.199   104963951.009         206.339          34.000  
  22890474.567    90357255.584        6226.248          39.000  
  24026022.751    85296662.620        1159.596          33.000  
 15  2  5  9 47 43.9990000  0 14G23G 3G20G 9G17G 1G 6S20G 4S26G11G32
                                G10G31
  20027846.398   105247013.071        3494.290          50.000  
  20590865.702   108205699.285        1567.820          47.000  
  20334223.919   106857063.644        4823.680          47.000  
  20697242.308   108764716.953        5440.824          49.000  
  21748835.947   114290853.624        1353.672          45.000  
  22301144.362   117193276.126          28.102          43.000  
  21570100.726   113351653.263        5879.153          44.000  
  37512978.128   197132000.760        3163.778          40.000  
  25162374.563   132229173.5272       -484.345          33.000  
  37887850.957   199102004.8153       3232.633          36.000  
  24629619.744   112099854.859        -676.498          36.000  
  24171034.902   104963745.405         207.199          34.000  
  22889290.272    90351030.134        6224.712          39.000  
  24025802.720    85295503.900        1157.633          33.000  
 15  2  5  9 47 44.9990000  0 14G23G 3G20G 9G17G 1G 6S20G 4S26G11G32
                                G10G31
  20027181.370   105243519.220        3494.253          51.000  
  20590567.304   108204131.228        1567.566          47.000  
  20333306.247   106852240.169        4823.453          47.000  
  20696207.038   108759276.568        5439.763          50.000  
  21748578.416   114289500.214        1352.956          45.000  
  22301139.005   117193248.026          28.145          43.000  
  21568981.591   113345773.885        5878.737          44.000  
  37512376.043   197128836.797        3163.277          40.000  
  25162467.153   132229660.4262       -485.988          33.000  
  37887235.506   199098771.0172       3236.213          36.000  
  24629749.258   112100532.856        -678.533          36.000  
  24170995.865   104963540.275         205.554          34.000  
  22888105.717    90344805.278        6224.436          39.000  
  24025583.039    85294346.099        1157.376          33.000  
 15  2  5  9 47 45.9990000  0 14G23G 3G20G 9G17G 1G 6S20G 4S26G11G32
                                G10G31
  20026516.779   105240025.534        3494.289          50.000  
  20590268.800   108202563.077        1568.371          47.000  
  20332388.209   106847416.618        4824.310          47.000  
  20695171.804   108753836.283        5440.719          50.000  
  21748320.730   114288146.958        1354.274          45.000  
  22301133.787   117193219.821          28.899          43.000  
  21567862.945   113339894.451        5879.669          44.000  
  37511774.203   197125672.311        3163.844          40.000  
  25162559.657   132230146.9612       -486.185          33.000  
  37886619.966   199095536.888        3232.223          36.000  
  24629878.146   112101210.517        -678.205          36.000  
  24170956.760   104963334.809         207.552          34.000  
  22886921.196    90338580.180        6226.063          39.000  
  24025363.149    85293188.508        1157.846          33.000  
 15  2  5  9 47 46.9990000  0 14G23G 3G20G 9G17G 1G 6S20G 4S26G11G32
                                G10G31
  20025851.838   105236532.129        3493.227          50.000  
  20589970.332   108200994.932        1567.844          47.000  
  20331470.118   106842593.122        4823.329          47.000  
  20694136.709   108748396.212        5439.532          50.000  
  21748063.583   114286793.966        1352.462          45.000  
  22301128.622   117193191.687          28.059          43.000  
  21566744.124   113334015.078        5879.188          44.000  
  37511171.997   197122507.703        3165.505          40.000  
  25162652.229   132230633.2872       -488.233          33.000  
  37886003.940   199092302.406        3236.162          37.000  
  24630006.737   112101887.902        -677.564          37.000  
  24170917.653   104963129.078         204.569          34.000  
  22885736.379    90332354.994        6225.610          39.000  
  24025142.997    85292031.109        1156.525          34.000  
 15  2  5  9 47 47.9990000  0 14G23G 3G20G 9G17G 1G 6S20G 4S26G11G32
                                G10G31
  20025187.211   105233039.528        3492.210          50.000  
  20589672.037   108199427.316        1567.094          47.000  
  20330552.096   106837770.187        4822.425          47.000  
  20693101.301   108742956.879        5439.098          49.000  
  21747805.982   114285441.784        1351.437          45.000  
  22301123.264   117193164.055          26.486          43.000  
  21565625.495   113328136.311        5878.094          44.000  
  37510570.033   197119343.377        3163.239          40.000  
  25162744.943   132231119.8552       -486.711          33.000  
  37885388.905   199089067.946        3232.978          36.000  
  24630135.885   112102565.579        -679.530          36.000  
  24170878.198   104962923.590         206.527          34.000  
  22884551.997    90326130.193        6224.787          39.000  
  24024922.828    85290874.586        1157.519          34.000  
 15  2  5  9 47 48.9990000  0 14G23G 3G20G 9G17G 1G 6S20G 4S26G11G32
                                G10G31
  20024522.899   105229547.528        3492.190          50.000  
  20589373.953   108197860.013        1568.274          47.000  
  20329634.477   106832947.610        4823.330          47.000  
  20692066.416   108737518.065        5439.579          49.000  
  21747548.644   114284090.180        1351.702          45.000  
  22301118.064   117193136.781          27.776          43.000  
  21564506.692   113322257.908        5879.164          44.000  
  37509967.775   197116179.183        3166.134          40.000  
  25162837.499   132231606.5773       -485.733          33.000  
  37884773.611   199085833.834        3234.347          35.000  
  24630265.384   112103243.312        -676.850          36.000  
  24170839.040   104962718.201         206.089          34.000  
  22883367.634    90319905.618        6224.985          39.000  
  24024703.251    85289718.565        1156.836          33.000  
 15  2  5  9 47 49.9990000  0 14G23G 3G20G 9G17G 1G 6S20G 4S26G11G32
                                G10G31
  20023858.202   105226055.555        3491.834          50.000  
  20589075.450   108196292.485        1567.630          47.000  
  20328716.822   106828124.836        4823.162          47.000  
  20691031.234   108732079.206        5439.049          49.000  
  21747291.079   114282738.599        1351.780          45.000  
  22301112.794   117193109.287          28.357          43.000  
  21563387.592   113316379.323        5878.597          44.000  
  37509365.463   197113014.371        3166.817          40.000  
  25162930.176   132232092.7763       -489.197          33.000  
  37884157.968   199082599.358        3235.083          35.000  
  24630394.463   112103920.521        -677.988          36.000  
  24170799.549   104962512.273         203.516          33.000  
  22882183.793    90313680.675        6225.059          39.000  
  24024483.064    85288562.604        1155.691          33.000  
 15  2  5  9 47 50.9990000  0 14G23G 3G20G 9G17G 1G 6S20G 4S26G11G32
                                G10G31
  20023193.907   105222564.386        3490.608          50.000  
  20588777.277   108194725.474        1566.365          47.000  
  20327799.464   106823302.617        4821.893          47.000  
  20689996.487   108726641.085        5437.699          49.000  
  21747034.106   114281387.805        1350.270          45.000  
  22301107.855   117193082.321          26.689          43.000  
  21562268.840   113310501.321        5877.819          44.000  
  37508763.204   197109849.698        3166.102          40.000  
  25163022.609                3       -491.902          34.000  
  37883541.853   199079364.986        3234.651          37.000  
  24630522.687   112104598.022        -678.195          36.000  
  24170760.252   104962306.647         204.458          33.000  
  22880999.639    90307456.133        6224.190          39.000  
  24024263.330    85287407.441        1153.556          33.000  
 15  2  5  9 47 51.9990000  0 14G23G 3G20G 9G17G 1G 6S20G 4S26G11G32
                                G10G31
  20022529.769   105219074.088        3489.798          50.000  
  20588479.297   108193159.070        1566.391          47.000  
  20326882.106   106818481.060        4821.347          47.000  
  20688961.620   108721203.785        5437.408          49.000  
  21746777.291   114280037.887        1349.740          45.000  
  22301102.550   117193055.995          26.123          43.000  
  21561150.386   113304623.975        5877.343          44.000  
  37508160.995   197106685.350        3161.723          40.000  
  25163115.376   132233063.1662       -487.218          33.000  
  37882926.244   199076130.989        3234.937          36.000  
  24630651.592   112105275.898        -676.319          36.000  
  24170721.025   104962101.407         207.744          33.000  
  22879815.188    90301232.081        6224.023          39.000  
  24024043.405    85286253.100        1154.086          34.000  
 15  2  5  9 47 52.9990000  0 14G23G 3G20G 9G17G 1G 6S20G 4S26G11G32
                                G10G31
  20021865.718   105215584.059        3490.138          50.000  
  20588181.195   108191592.654        1566.670          47.000  
  20325964.591   106813659.524        4822.188          47.000  
  20687926.787   108715766.661        5437.325          49.000  
  21746520.336   114278688.211        1349.383          45.000  
  22301097.630   117193029.679          26.541          43.000  
  21560031.705   113298746.690        5877.433          44.000  
  37507558.841   197103520.720        3163.930          40.000  
  25163208.404   132233549.7842       -485.549          33.000  
  37882310.827   199072896.496        3235.085          35.000  
  24630781.003   112105953.487        -675.832          36.000  
  24170681.727   104961895.841         207.633          34.000  
  22878630.510    90295007.909        6223.360          40.000  
  24023823.863    85285099.006        1152.044          34.000  
 15  2  5  9 47 53.9990000  0 14G23G 3G20G 9G17G 1G 6S20G 4S26G11G32
                                G10G31
  20021201.755   105212094.229        3489.355          50.000  
  20587882.849   108190026.184        1565.931          47.000  
  20325046.849   106808837.972        4821.384          47.000  
  20686892.023   108710329.681        5436.109          49.000  
  21746263.399   114277338.750        1349.272          44.000  
  22301092.202   117193003.297          26.293          42.000  
  21558913.756   113292869.399        5876.746          44.000  
  37506956.582   197100355.799        3164.501          40.000  
  25163301.082   132234036.0712       -484.647          33.000  
  37881695.008   199069661.772        3232.885          35.000  
  24630909.558   112106630.718        -679.134          36.000  
  24170642.324   104961689.968         206.053          33.000  
  22877446.059    90288783.549        6223.882          39.000  
  24023604.026    85283945.089        1153.579          34.000  
 15  2  5  9 47 54.9990000  0 14G23G 3G20G 9G17G 1G 6S20G 4S26G11G32
                                G10G31
  20020537.948   105208605.622        3488.683          50.000  
  20587585.043   108188460.655        1565.649          47.000  
  20324129.770   106804017.390        4820.958          47.000  
  20685857.470   108704893.857        5436.107          49.000  
  21746006.776   114275990.485        1347.704          45.000  
  22301087.421   117192977.902          25.426          42.000  
  21557795.564   113286993.111        5876.890          44.000  
  37506354.602   197097191.550        3163.924          40.000  
  25163393.865   132234523.1843       -485.228          33.000  
  37881080.064   199066427.792        3235.182          36.000  
  24631038.586   112107308.720        -677.366          36.000  
  24170603.305   104961484.838         205.770          33.000  
  22876261.905    90282560.021        6223.979          39.000  
  24023384.518    85282792.439        1150.033          34.000  
 15  2  5  9 47 55.9990000  0 14G23G 3G20G 9G17G 1G 6S20G 4S26G11G32
                                G10G31
  20019873.827   105205117.208        3487.910          50.000  
  20587287.761   108186895.055        1565.536          47.000  
  20323212.464   106799196.763        4820.331          47.000  
  20684823.596   108699458.155        5435.465          49.000  
  21745749.996   114274642.407        1348.077          44.000  
  22301082.482   117192952.434          25.704          42.000  
  21556677.354   113281116.790        5875.958          44.000  
  37505752.517   197094027.163        3163.175          40.000  
  25163486.612   132235009.8683       -485.787          33.000  
  37880464.839   199063193.4483       3235.061          35.000  
  24631166.914   112107986.332        -677.752          36.000  
  24170564.217   104961279.317         207.403          33.000  
  22875077.279    90276336.283        6222.897          39.000  
  24023165.240    85281639.887        1151.882          34.000  
 15  2  5  9 47 56.9990000  0 14G23G 3G20G 9G17G 1G 6S20G 4S26G11G32
                                G10G31
  20019210.161   105201629.564        3487.529          50.000  
  20586989.694   108185329.950        1564.465          47.000  
  20322295.228   106794376.693        4819.879          47.000  
  20683789.269   108694023.163        5434.899          49.000  
  21745493.512   114273295.083        1347.328          44.000  
  22301077.858   117192927.463          25.497          43.000  
  21555559.214   113275241.030        5876.316          44.000  
  37505150.344   197090863.194        3162.911          40.000  
  25163579.080   132235496.8162       -487.661          33.000  
  37879849.264   199059959.280        3232.442          37.000  
  24631296.779   112108664.218        -677.214          36.000  
  24170525.494   104961074.082         204.688          33.000  
  22873893.212    90270112.915        6222.677          39.000  
  24022946.134    85280488.129        1150.216          34.000  
 15  2  5  9 47 57.9990000  0 14G23G 3G20G 9G17G 1G 6S20G 4S26G11G32
                                G10G31
  20018546.336   105198142.554        3486.291          50.000  
  20586691.888   108183765.204        1563.750          47.000  
  20321377.905   106789557.020        4819.290          47.000  
  20682755.134   108688588.738        5433.905          49.000  
  21745237.255   114271948.404        1345.711          44.000  
  22301073.408   117192902.899          24.100          42.000  
  21554441.160   113269365.712        5874.490          44.000  
  37504548.121   197087699.187        3165.005          40.000  
  25163672.020   132235983.9082       -488.493          33.000  
  37879233.779   199056725.019        3237.650          36.000  
  24631426.347   112109342.177        -678.199          36.000  
  24170486.562   104960868.891         203.922          33.000  
  22872708.760    90263889.800        6222.055          39.000  
  24022727.255    85279337.027        1148.049          34.000  
 15  2  5  9 47 58.9990000  0 14G23G 3G20G 9G17G 1G 6S20G 4S26G11G32
                                G10G31
  20017883.228   105194656.101        3486.670          51.000  
  20586394.135   108182200.744        1565.017          47.000  
  20320461.018   106784737.660        4819.331          47.000  
  20681720.895   108683154.793        5434.148          49.000  
  21744981.139   114270602.243        1345.861          45.000  
  22301068.784   117192878.621          25.046          43.000  
  21553323.404   113263490.712        5875.120          44.000  
  37503945.879   197084534.756        3165.291          41.000  
  25163764.926   132236471.0493       -486.769          33.000  
  37878618.326   199053490.873        3234.688          37.000  
  24631554.746   112110020.207        -677.107          36.000  
  24170447.562   104960663.778         205.842          34.000  
  22871524.571    90257666.877        6223.048          40.000  
  24022508.291    85278186.415        1150.685          34.000  
 15  2  5  9 47 59.9990000  0 14G23G 3G20G 9G17G 1G 6S20G 4S26G11G32
                                G10G31
  20017219.683   105191169.917        3485.587          50.000  
  20586096.783   108180636.289        1563.734          47.000  
  20319543.887   106779918.339        4818.051          47.000  
  20680687.004   108677721.051        5433.197          49.000  
  21744724.882   114269256.368        1344.898          45.000  
  22301064.141   117192854.355          23.324          42.000  
  21552205.298   113257615.768        5874.108          44.000  
  37503343.322   197081370.066        3164.317          40.000  
  25163857.341   132236957.9752       -488.095          33.000  
  37878003.065   199050256.728        3231.975          36.000  
  24631683.772   112110697.939        -678.805          36.000  
  24170408.456   104960458.400         206.686          34.000  
  22870339.946    90251443.812        6222.132          39.000  
  24022289.411    85277036.050        1146.653          34.000  
 15  2  5  9 48  0.9990000  0 14G23G 3G20G 9G17G 1G 6S20G 4S26G11G32
                                G10G31
  20016556.383   105187684.312        3486.021          50.000  
  20585799.118   108179072.143        1564.900          47.000  
  20318626.896   106775099.371        4819.438          47.000  
  20679653.253   108672287.828        5434.074          49.000  
  21744468.940   114267911.050        1345.244          45.000  
  22301059.675   117192830.419          24.464          42.000  
  21551087.473   113251741.199        5874.932          44.000  
  37502740.959   197078205.575        3166.523          40.000  
  25163950.159   132237445.0112       -488.056          33.000  
  37877387.511   199047022.725        3237.791          37.000  
  24631812.939   112111375.743        -676.173          36.000  
  24170369.332   104960253.088         205.148          34.000  
  22869156.315    90245220.923        6223.163          39.000  
  24022070.587    85275886.292        1150.319          34.000  
 15  2  5  9 48  1.9990000  0 14G23G 3G20G 9G17G 1G 6S20G 4S26G11G32
                                G10G31
  20015893.205   105184199.170        3485.178          50.000  
  20585501.539   108177508.173        1564.228          47.000  
  20317709.887   106770280.617        4819.750          47.000  
  20678619.363   108666855.000        5433.250          49.000  
  21744213.503   114266566.183        1344.909          45.000  
  22301054.928   117192806.687          24.000          42.000  
  21549969.419   113245866.860        5874.111          44.000  
  37502138.873   197075041.072        3163.422          40.000  
  25164042.420   132237931.9272       -485.258          33.000  
  37876771.884   199043788.469        3234.039          36.000  
  24631941.703   112112053.498        -679.202          36.000  
  24170330.052   104960047.683         206.481          34.000  
  22867972.213    90238998.149        6223.483          39.000  
  24021851.935    85274736.963        1148.096          34.000  
 15  2  5  9 48  2.9990000  0 14G23G 3G20G 9G17G 1G 6S20G 4S26G11G32
                                G10G31
  20015229.904   105180714.308        3483.742          50.000  
  20585203.890   108175944.214        1563.033          47.000  
  20316792.964   106765461.918        4817.409          47.000  
  20677585.122   108661422.377        5431.608          49.000  
  21743957.560   114265221.580        1343.415          45.000  
  22301050.321   117192782.982          22.570          42.000  
  21548851.401   113239992.610        5873.687          44.000  
  37501536.457   197071876.542        3162.754          40.000  
  25164134.835   132238418.6432       -486.866          33.000  
  37876156.467   199040553.5423       3234.499          36.000  
  24632071.237   112112730.982        -677.360          36.000  
  24170290.840   104959842.018         203.674          34.000  
  22866788.216    90232775.221        6222.657          40.000  
  24021633.667    85273587.910        1148.113          34.000  
 15  2  5  9 48  3.9990000  0 14G23G 3G20G 9G17G 1G 6S20G 4S26G11G32
                                G10G31
  20014567.302   105177230.152        3484.496          50.000  
  20584906.574   108174380.696        1563.995          47.000  
  20315876.078   106760643.693        4818.079          47.000  
  20676551.442   108655990.393        5432.341          49.000  
  21743702.194   114263877.678        1343.970          45.000  
  22301045.592   117192759.718          23.556          42.000  
  21547733.418   113234118.845        5873.916          44.000  
  37500933.918   197068712.067        3163.176          40.000  
  25164227.181   132238905.5202       -489.062          33.000  
  37875540.739   199037318.922        3241.614          36.000  
  24632200.071   112113408.621        -679.606          36.000  
  24170252.119   104959636.569         206.180          34.000  
  22865604.306    90226552.630        6222.367          40.000  
  24021415.121    85272439.539        1148.879          34.000  
 15  2  5  9 48  4.9990000  0 14G23G 3G20G 9G17G 1G 6S20G 4S26G11G32
                                G10G31
  20013903.984   105173746.139        3483.615          50.000  
  20584609.134   108172817.057        1563.299          47.000  
  20314959.191   106755825.386        4818.562          47.000  
  20675518.022   108650558.474        5431.753          49.000  
  21743446.304   114262533.912        1343.548          45.000  
  22301041.090   117192736.355          23.203          42.000  
  21546615.836   113228245.013        5873.282          44.000  
  37500331.712   197065547.250        3165.485          40.000  
  25164319.545   132239392.0833       -488.390          34.000  
  37874925.249   199034084.165        3234.277          36.000  
  24632328.191   112114085.913        -678.303          36.000  
  24170213.065   104959430.717         205.604          34.000  
  22864420.204    90220329.795        6222.310          39.000  
  24021196.435    85271291.274        1149.610          34.000  
 15  2  5  9 48  5.9990000  0 14G23G 3G20G 9G17G 1G 6S20G 4S26G11G32
                                G10G31
  20013241.120   105170262.786        3483.056          51.000  
  20584311.591   108171253.770        1563.307          47.000  
  20314042.112   106751007.486        4817.735          47.000  
  20674484.515   108645127.162        5431.579          49.000  
  21743190.763   114261190.786        1342.860          45.000  
  22301037.006   117192713.389          23.436          42.000  
  21545498.167   113222371.612        5873.134          44.000  
  37499729.592   197062382.610        3165.187          40.000  
  25164412.104   132239878.7282       -481.270          34.000  
  37874310.146   199030849.639        3233.830          36.000  
  24632457.097   112114763.304        -675.660          35.000  
  24170174.396   104959224.992         206.203          34.000  
  22863236.399    90214107.220        6223.184          39.000  
  24020978.272    85270143.663        1146.757          34.000  
 15  2  5  9 48  6.9990000  0 14G23G 3G20G 9G17G 1G 6S20G 4S26G11G32
                                G10G31
  20012578.395   105166780.139        3482.748          50.000  
  20584013.890   108169690.957        1562.928          47.000  
  20313125.382   106746190.082        4817.754          47.000  
  20673451.026   108639696.489        5430.903          49.000  
  21742935.239   114259848.376        1343.076          45.000  
  22301032.696   117192690.868          22.924          42.000  
  21544381.301   113216498.722        5872.996          44.000  
  37499127.351   197059218.118        3166.677          40.000  
  25164504.571   132240365.6262       -486.169          34.000  
  37873694.399   199027615.037        3235.325          36.000  
  24632586.124   112115440.871        -676.622          35.000  
  24170135.796   104959019.449         205.521          34.000  
  22862052.523    90207884.975        6221.942          39.000  
  24020760.302    85268996.736        1148.528          34.000  
 15  2  5  9 48  7.9990000  0 14G23G 3G20G 9G17G 1G 6S20G 4S26G11G32
                                G10G31
  20011916.037   105163298.054        3481.229          50.000  
  20583716.555   108168128.425        1562.420          47.000  
  20312208.617   106741372.992        4816.438          47.000  
  20672417.519   108634266.317        5429.590          49.000  
  21742679.872   114258506.501        1340.927          45.000  
  22301028.246   117192668.667          21.335          42.000  
  21543263.841   113210626.169        5871.466          44.000  
  37498525.143   197056053.588        3165.133          40.000  
  25164597.319   132240852.6022       -486.016          33.000  
  37873078.719   199024380.610        3232.817          36.000  
  24632714.767   112116118.471        -676.610          35.000  
  24170096.602   104958813.983         204.268          34.000  
  22860868.770    90201662.896        6221.942          39.000  
  24020542.242    85267850.360        1144.539          34.000  
 15  2  5  9 48  8.9990000  0 14G23G 3G20G 9G17G 1G 6S20G 4S26G11G32
                                G10G31
  20011253.557   105159816.217        3481.694          50.000  
  20583419.256   108166565.860        1562.541          47.000  
  20311291.870   106736555.918        4816.565          47.000  
  20671384.222   108628836.310        5429.784          49.000  
  21742424.680   114257164.873        1341.528          45.000  
  22301024.424   117192646.456          22.453          42.000  
  21542145.980   113204753.654        5872.249          44.000  
  37497922.988   197052888.617        3164.971          40.000  
  25164690.137   132241339.2812       -485.693          33.000  
  37872463.354   199021145.842        3232.450          37.000  
  24632843.112   112116795.812        -679.668          35.000  
  24170057.637   104958608.186         205.885          33.000  
  22859684.738    90195440.668        6222.105          39.000  
  24020324.202    85266704.270        1146.547          34.000  
 15  2  5  9 48  9.9990000  0 14G23G 3G20G 9G17G 1G 6S20G 4S26G11G32
                                G10G31
  20010591.094   105156335.084        3481.145          50.000  
  20583121.904   108165003.719        1562.263          47.000  
  20310375.227   106731739.307        4816.442          47.000  
  20670350.837   108623406.953        5429.513          48.000  
  21742169.523   114255823.933        1341.065          45.000  
  22301020.341   117192624.684          21.606          42.000  
  21541028.503   113198881.623        5872.126          44.000  
  37497320.781   197049723.806        3165.132          40.000  
  25164782.796   132241826.1742       -487.846          34.000  
  37871848.113   199017911.134        3234.676          36.000  
  24632972.436   112117473.324        -677.785          35.000  
  24170018.514   104958402.566         208.860          34.000  
  22858501.160    90189218.754        6222.291          39.000  
  24020106.371    85265558.764        1146.513          34.000  
 15  2  5  9 48 10.9990000  0 14G23G 3G20G 9G17G 1G 6S20G 4S26G11G32
                                G10G31
  20009928.666   105152854.233        3480.280          50.000  
  20582824.482   108163441.611        1561.151          47.000  
  20309458.620   106726922.752        4815.743          47.000  
  20669317.417   108617977.800        5428.179          49.000  
  21741914.505   114254483.270        1340.238          45.000  
  22301016.135   117192602.930          20.902          42.000  
  21539911.008   113193009.665        5871.631          44.000  
  37496718.470   197046558.818        3165.594          40.000  
  25164875.685   132242312.8022       -486.054          34.000  
  37871232.347   199014676.151        3233.220          36.000  
  24633101.323   112118150.550        -679.499          35.000  
  24169979.616   104958196.709         204.251          34.000  
  22857316.778    90182996.735        6221.560          39.000  
  24019888.155    85264413.578        1142.915          35.000  
 15  2  5  9 48 11.9990000  0 14G23G 3G20G 9G17G 1G 6S20G 4S26G11G32
                                G10G31
  20009266.709   105149374.142        3478.782          50.000  
  20582527.288   108161879.977        1560.556          47.000  
  20308541.837   106722106.719        4815.128          46.000  
  20668284.835   108612549.336        5427.169          48.000  
  21741659.889   114253143.344        1339.644          45.000  
  22301012.121   117192581.687          20.836          42.000  
  21538794.089   113187138.230        5870.626          44.000  
  37496116.454   197043394.112        3163.769          40.000  
  25164968.258   132242799.6962       -485.802          34.000  
  37870616.842   199011441.196        3232.428          36.000  
  24633230.159   112118828.051        -677.016          35.000  
  24169940.511   104957991.100         206.067          34.000  
  22856132.938    90176775.079        6220.730          39.000  
  24019670.429    85263269.129        1143.297          34.000  
 15  2  5  9 48 12.9990000  0 14G23G 3G20G 9G17G 1G 6S20G 4S26G11G32
                                G10G31
  20008604.456   105145894.882        3478.790          50.000  
  20582230.145   108160318.915        1561.147          47.000  
  20307625.649   106717291.287        4815.461          46.000  
  20667251.748   108607121.653        5427.428          48.000  
  21741404.976   114251804.244        1338.915          45.000  
  22301007.916   117192561.045          20.405          42.000  
  21537676.857   113181267.466        5870.599          44.000  
  37495514.352   197040229.692        3163.637          40.000  
  25165060.656   132243287.403        -487.819          34.000  
  37870001.391   199008206.808        3233.545          36.000  
  24633360.232   112119505.839        -678.455          35.000  
  24169900.968   104957785.766         203.902          34.000  
  22854948.871    90170553.859        6222.135          39.000  
  24019452.930    85262125.469        1143.822          34.000  
 15  2  5  9 48 13.9990000  0 14G23G 3G20G 9G17G 1G 6S20G 4S26G11G32
                                G10G31
  20007942.499   105142415.827        3479.208          50.000  
  20581933.021   108158757.771        1561.188          47.000  
  20306709.355   106712475.822        4815.279          46.000  
  20666218.869   108601694.092        5427.225          48.000  
  21741150.150   114250465.332        1338.782          45.000  
  22301003.588   117192540.326          20.682          42.000  
  21536559.781   113175396.653        5870.600          44.000  
  37494912.021   197037065.046        3159.768          40.000  
  25165153.299   132243774.329        -487.935          34.000  
  37869385.818   199004972.238        3235.659          36.000  
  24633489.521   112120183.263        -677.096          35.000  
  24169861.758   104957580.135         205.440          34.000  
  22853765.153    90164332.479        6221.315          39.000  
  24019235.186    85260982.018        1144.042          34.000  
 15  2  5  9 48 14.9990000  0 14G23G 3G20G 9G17G 1G 6S20G 4S26G11G32
                                G10G31
  20007280.421   105138937.101        3478.705          50.000  
  20581636.088   108157196.688        1561.676          47.000  
  20305793.062   106707660.445        4815.503          46.000  
  20665186.078   108596266.801        5427.010          48.000  
  21740895.656   114249126.745        1339.203          45.000  
  22300999.819   117192519.679          20.949          41.000  
  21535442.548   113169525.967        5870.980          44.000  
  37494309.851   197033900.064        3164.953          40.000  
  25165246.171   132244261.101        -485.082          34.000  
  37868770.696   199001737.283        3232.364          36.000  
  24633618.269   112120860.560        -675.850          35.000  
  24169822.583   104957374.283         208.133          34.000  
  22852581.016    90158111.011        6221.417          39.000  
  24019017.617    85259838.880        1144.488          34.000  
 15  2  5  9 48 15.9990000  0 14G23G 3G20G 9G17G 1G 6S20G 4S26G11G32
                                G10G31
  20006618.377   105135458.586        3478.344          50.000  
  20581338.614   108155635.544        1561.119          47.000  
  20304876.838   106702845.046        4815.338          47.000  
  20664153.461   108590839.653        5426.583          48.000  
  21740641.214   114247788.362        1338.218          45.000  
  22300996.033   117192498.982          21.725          42.000  
  21534325.385   113163655.287        5870.668          44.000  
  37493707.313   197030734.647        3165.692          40.000  
  25165338.377   132244747.0093       -486.427          34.000  
  37868155.316   198998502.041        3235.530          36.000  
  24633747.174   112121537.505        -677.230          35.000  
  24169783.354   104957168.112         205.726          34.000  
  22851396.931    90151889.356        6221.229          39.000  
  24018800.099    85258695.919        1142.339          34.000  
 15  2  5  9 48 16.9990000  0 14G23G 3G20G 9G17G 1G 6S20G 4S26G11G32
                                G10G31
  20005956.699   105131980.747        3477.240          50.000  
  20581041.349   108154074.802        1560.635          46.000  
  20303960.300   106698030.104        4814.185          47.000  
  20663120.635   108585413.117        5426.588          48.000  
  21740386.685   114246450.645        1337.498          45.000  
  22300991.844   117192478.709          20.002          42.000  
  21533207.873   113157785.063        5870.509          44.000  
  37493105.089   197027569.505        3166.907          40.000  
  25165431.230   132245233.5992       -485.090          34.000  
  37867539.707   198995266.513        3237.071          36.000  
  24633876.288   112122214.604        -677.253          35.000  
  24169744.179   104956962.128         206.741          34.000  
  22850213.405    90145668.026        6220.870          40.000  
  24018582.443    85257553.630        1143.714          34.000  
 15  2  5  9 48 17.9990000  0 14G23G 3G20G 9G17G 1G 6S20G 4S26G11G32
                                G10G31
  20005295.318   105128503.768        3477.488          50.000  
  20580744.591   108152514.655        1560.892          46.000  
  20303044.024   106693215.768        4814.704          47.000  
  20662088.175   108579987.357        5426.006          48.000  
  21740132.313   114245113.749        1337.412          45.000  
  22300988.040   117192459.048          19.882          42.000  
  21532090.972   113151915.490        5870.350          44.000  
  37492502.760   197024404.578        3167.171          40.000  
  25165523.751   132245720.5202       -485.402          34.000  
  37866924.657   198992031.662        3236.585          36.000  
  24634004.548   112122892.022        -675.255          35.000  
  24169705.107   104956756.453         206.544          34.000  
  22849029.914    90139447.114        6221.320          40.000  
  24018365.361    85256412.184        1140.079          35.000  
 15  2  5  9 48 18.9990000  0 14G23G 3G20G 9G17G 1G 6S20G 4S26G11G32
                                G10G31
  20004633.641   105125027.258        3476.474          51.000  
  20580447.745   108150954.701        1559.825          47.000  
  20302128.149   106688401.675        4814.210          47.000  
  20661055.698   108574562.010        5425.158          49.000  
  21739878.046   114243777.332        1336.054          46.000  
  22300984.881   117192439.590          19.444          42.000  
  21530974.053   113146046.181        5869.779          44.000  
  37491900.413   197021239.613        3165.833          40.000  
  25165616.411   132246207.4352       -486.562          34.000  
  37866309.396   198988797.015        3234.941          37.000  
  24634133.696   112123569.396        -677.109          35.000  
  24169666.036   104956550.695         206.174          34.000  
  22847846.510    90133226.335        6220.961          40.000  
  24018148.158    85255271.211        1140.228          34.000  
 15  2  5  9 48 19.9990000  0 14G23G 3G20G 9G17G 1G 6S20G 4S26G11G32
                                G10G31
  20003972.207   105121551.149        3476.135          51.000  
  20580150.794   108149394.873        1559.954          47.000  
  20301212.309   106683587.746        4814.211          47.000  
  20660023.308   108569136.994        5425.005          49.000  
  21739623.988   114242441.301        1335.861          45.000  
  22300981.286   117192420.276          19.156          42.000  
  21529856.803   113140177.031        5869.140          44.000  
  37491298.066   197018074.543        3167.115          40.000  
  25165708.863   132246694.2022       -485.753          34.000  
  37865693.647   198985562.159        3230.928          36.000  
  24634262.409   112124246.611        -677.289          35.000  
  24169626.826   104956344.848         206.912          35.000  
  22846663.088    90127005.516        6220.961          40.000  
  24017930.745    85254130.569        1139.712          35.000  
 15  2  5  9 48 20.9990000  0 14G23G 3G20G 9G17G 1G 6S20G 4S26G11G32
                                G10G31
  20003310.669   105118075.448        3475.770          50.000  
  20579854.053   108147835.172        1559.692          46.000  
  20300296.277   106678773.994        4814.097          47.000  
  20658991.128   108563712.319        5424.907          49.000  
  21739369.668   114241105.677        1335.694          45.000  
  22300977.639   117192401.110          18.567          42.000  
  21528740.250   113134308.086        5868.521          44.000  
  37490695.789   197014909.407        3164.552          40.000  
  25165801.768   132247180.8912       -485.435          34.000  
  37865077.883   198982326.9221       3236.620          36.000  
  24634391.610   112124923.721        -678.650          35.000  
  24169587.632   104956138.848         204.813          35.000  
  22845479.772    90120784.732        6222.500          40.000  
  24017713.909    85252990.351        1140.809          35.000  
 15  2  5  9 48 21.9990000  0 14G23G 3G20G 9G17G 1G 6S20G 4S26G11G32
                                G10G31
  20002649.393   105114600.408        3474.368          51.000  
  20579557.190   108146275.879        1559.000          46.000  
  20299380.437   106673960.677        4812.737          47.000  
  20657959.121   108558288.251        5423.484          48.000  
  21739115.767   114239770.714        1333.669          45.000  
  22300974.794   117192382.352          18.372          42.000  
  21527623.576   113128439.603        5868.199          44.000  
  37490093.302   197011744.458        3164.712          40.000  
  25165894.411   132247667.7122       -485.976          34.000  
  37864462.553   198979091.427        3235.436          36.000  
  24634519.747   112125600.969        -676.989          35.000  
  24169548.718   104955932.969         206.195          34.000  
  22844295.896    90114564.205        6219.709          40.000  
  24017497.194    85251850.762        1138.372          34.000  
 15  2  5  9 48 22.9990000  0 14G23G 3G20G 9G17G 1G 6S20G 4S26G11G32
                                G10G31
  20001988.466   105111126.034        3473.349          51.000  
  20579260.728   108144716.977        1558.188          46.000  
  20298464.667   106669147.801        4812.464          47.000  
  20656927.115   108552864.782        5422.840          49.000  
  21738861.849   114238436.418        1333.268          45.000  
  22300971.286   117192364.018          17.322          42.000  
  21526507.233   113122571.588        5866.939          44.000  
  37489490.851   197008579.366        3164.371          40.000  
  25165987.525   132248154.7493       -487.735          34.000  
  37863847.205   198975856.576        3233.325          36.000  
  24634648.198   112126278.354        -676.352          35.000  
  24169509.420   104955727.310         204.517          35.000  
  22843112.370    90108343.999        6219.536          40.000  
  24017280.673    85250711.844        1140.486          35.000  
 15  2  5  9 48 23.9990000  0 14G23G 3G20G 9G17G 1G 6S20G 4S26G11G32
                                G10G31
  20001327.260   105107652.371        3474.150          51.000  
  20578963.865   108143158.516        1559.011          46.000  
  20297548.792   106664335.399        4812.660          47.000  
  20655895.249   108547441.942        5422.941          49.000  
  21738607.965   114237102.816        1333.679          45.000  
  22300967.500   117192346.130          18.483          42.000  
  21525390.384   113116704.048        5867.924          44.000  
  37488888.488   197005414.649        3166.189          40.000  
  25166080.378   132248641.9392       -484.998          34.000  
  37863231.459   198972621.808        3239.866          37.000  
  24634777.487   112126955.910        -676.477          35.000  
  24169470.664   104955521.761         205.971          35.000  
  22841929.019    90102124.095        6220.524          40.000  
  24017064.114    85249573.614        1137.626          35.000  
 15  2  5  9 48 24.9990000  0 14G23G 3G20G 9G17G 1G 6S20G 4S26G11G32
                                G10G31
  20000666.542   105104179.270        3472.941          51.000  
  20578667.735   108141600.335        1557.667          47.000  
  20296633.005   106659523.332        4811.728          47.000  
  20654863.539   108542019.608        5422.299          49.000  
  21738354.064   114235769.748        1332.272          45.000  
  22300964.376   117192328.540          17.308          42.000  
  21524273.971   113110836.865        5866.968          44.000  
  37488286.280   197002249.981        3164.379          41.000  
  25166173.125   132249129.1792       -488.548          34.000  
  37862615.988   198969387.101        3233.855          37.000  
  24634906.007   112127633.516        -678.501          35.000  
  24169431.541   104955316.246         208.449          35.000  
  22840745.562    90095904.362        6219.411          40.000  
  24016847.835    85248435.947        1134.930          35.000  
 15  2  5  9 48 25.9990000  0 14G23G 3G20G 9G17G 1G 6S20G 4S26G11G32
                                G10G31
  20000005.736   105100706.621        3472.000          51.000  
  20578371.482   108140042.342        1558.175          47.000  
  20295717.514   106654711.475        4812.417          47.000  
  20653831.533   108536597.660        5422.054          49.000  
  21738100.321   114234437.121        1332.467          46.000  
  22300961.288   117192311.153          17.602          42.000  
  21523157.942   113104969.924        5866.516          44.000  
  37487684.195   196999085.169        3163.488          40.000  
  25166265.646   132249616.4252       -488.335          34.000  
  37862000.292   198966152.145        3233.524          36.000  
  24635035.260   112128311.023        -679.587          36.000  
  24169392.346   104955110.692         204.677          35.000  
  22839561.599    90089684.673        6218.989          40.000  
  24016631.331    85247298.632        1136.617          35.000  
 15  2  5  9 48 26.9990000  0 14G23G 3G20G 9G17G 1G 6S20G 4S26G11G32
                                G10G31
  19999345.019   105097235.095        3471.545          51.000  
  20578075.142   108138485.197        1557.071          47.000  
  20294802.110   106649900.516        4810.943          47.000  
  20652799.771   108531176.764        5420.851          49.000  
  21737846.856   114233105.601        1331.777          46.000  
  22300958.164   117192294.626          16.291          42.000  
  21522041.338   113099103.898        5866.068          44.000  
  37487082.197   196995921.019        3163.438          41.000  
  25166358.568   132250104.2382       -488.281          34.000  
  37861384.352   198962917.890        3234.952          37.000  
  24635164.917   112128989.141        -676.169          35.000  
  24169353.398   104954905.705         205.580          35.000  
  22838377.707    90083465.745        6219.095          40.000  
  24016415.280    85246162.474        1137.085          35.000  
 15  2  5  9 48 27.9990000  0 14G23G 3G20G 9G17G 1G 6S20G 4S26G11G32
                                G10G31
  19998684.441   105093763.708        3471.395          51.000  
  20577778.401   108136927.915        1557.220          47.000  
  20293886.549   106645089.447        4810.816          47.000  
  20651768.219   108525755.935        5420.899          49.000  
  21737593.339   114231774.203        1330.909          45.000  
  22300955.319   117192277.984          16.664          42.000  
  21520925.292   113093237.784        5866.295          44.000  
  37486480.165   196992756.368        3165.704          41.000  
  25166450.932   132250591.6992       -488.484          34.000  
  37860768.988   198959683.358        3237.006          36.000  
  24635293.857   112129666.840        -676.017          35.000  
  24169314.677   104954700.343         207.361          35.000  
  22837193.867    90077246.535        6219.422          40.000  
  24016199.089    85245026.415        1135.328          35.000  
 15  2  5  9 48 28.9990000  0 14G23G 3G20G 9G17G 1G 6S20G 4S26G11G32
                                G10G31
  19998023.845   105090292.777        3470.766          51.000  
  20577482.376   108135370.814        1557.673          46.000  
  20292970.867   106640278.620        4811.553          47.000  
  20650737.068   108520335.501        5420.759          49.000  
  21737340.346   114230443.256        1330.925          45.000  
  22300952.126   117192261.533          16.949          42.000  
  21519808.931   113087371.929        5865.715          44.000  
  37485878.080   196989591.650        3165.347          41.000  
  25166543.786   132251079.0602       -486.173          34.000  
  37860153.414   198956448.519        3235.871          37.000  
  24635423.145   112130344.473        -677.243          35.000  
  24169275.622   104954494.916         205.125          35.000  
  22836010.271    90071027.392        6218.461          40.000  
  24015982.915    85243890.841        1134.744          35.000  
 15  2  5  9 48 29.9990000  0 14G23G 3G20G 9G17G 1G 6S20G 4S26G11G32
                                G10G31
  19997363.493   105086822.320        3469.792          51.000  
  20577186.228   108133813.917        1556.368          47.000  
  20292055.376   106635468.007        4810.299          47.000  
  20649705.777   108514915.470        5419.371          49.000  
  21737087.405   114229112.760        1330.145          45.000  
  22300949.107   117192245.298          15.701          42.000  
  21518692.379   113081506.322        5865.459          44.000  
  37485275.646   196986426.801        3162.950          40.000  
  25166636.445   132251566.3992       -489.550          34.000  
  37859537.909   198953213.580        3234.432          36.000  
  24635551.858   112131022.063        -676.482          35.000  
  24169236.307   104954289.411         204.394          35.000  
  22834826.151    90064808.342        6218.405          40.000  
  24015767.004    85242755.663        1134.943          35.000  
 15  2  5  9 48 30.9990000  0 14G23G 3G20G 9G17G 1G 6S20G 4S26G11G32
                                G10G31
  19996703.282   105083352.447        3470.115          51.000  
  20576889.976   108132257.334        1557.327          47.000  
  20291139.920   106630657.770        4810.838          47.000  
  20648674.610   108509495.957        5420.284          48.000  
  21736834.272   114227782.827        1330.876          46.000  
  22300946.088   117192229.399          16.419          43.000  
  21517576.455   113075641.105        5865.619          44.000  
  37484673.265   196983262.056        3165.305          40.000  
  25166729.107   132252054.321        -487.205          33.000  
  37858922.040   198949978.454        3237.118          37.000  
  24635680.327   112131699.701        -675.917          35.000  
  24169197.359   104954084.011         206.844          35.000  
  22833642.957    90058589.479        6219.877          39.000  
  24015551.180    85241621.086        1136.782          35.000  
 15  2  5  9 48 31.9990000  0 14G23G 3G20G 9G17G 1G 6S20G 4S26G11G32
                                G10G31
  19996043.227   105079883.334        3469.342          51.000  
  20576593.706   108130701.230        1556.298          47.000  
  20290224.656   106625848.033        4809.329          47.000  
  20647643.162   108504077.138        5418.876          48.000  
  21736581.191   114226453.643        1329.356          46.000  
  22300943.278   117192213.990          15.804          42.000  
  21516460.321   113069776.407        5864.703          44.000  
  37484071.093   196980097.658        3165.359          40.000  
  25166821.976   132252541.997        -489.495          34.000  
  37858306.430   198946744.010        3234.764          36.000  
  24635809.388   112132377.539        -677.637          35.000  
  24169158.201   104953878.771         207.666          35.000  
  22832459.518    90052371.002        6218.625          39.000  
  24015335.407    85240487.247        1133.726          35.000  
 15  2  5  9 48 32.9990000  0 14G23G 3G20G 9G17G 1G 6S20G 4S26G11G32
                                G10G31
  19995383.243   105076414.645        3469.881          51.000  
  20576297.733   108129145.286        1556.706          47.000  
  20289309.427   106621038.501        4810.790          47.000  
  20646612.150   108498658.671        5419.197          48.000  
  21736328.599   114225124.871        1329.693          46.000  
  22300940.382   117192198.752          16.616          42.000  
  21515344.799   113063911.945        5865.474          44.000  
  37483468.834   196976933.155        3166.045          40.000  
  25166914.709   132253029.567        -483.485          34.000  
  37857690.596   198943509.319        3239.489          37.000  
  24635938.066   112133055.293        -677.266          35.000  
  24169119.182   104953673.476         206.722          35.000  
  22831276.254    90046152.564        6220.075          39.000  
  24015119.671    85239353.832        1134.956          34.000  
 15  2  5  9 48 33.9990000  0 14G23G 3G20G 9G17G 1G 6S20G 4S26G11G32
                                G10G31
  19994723.170   105072946.568        3468.108          51.000  
  20576001.690   108127589.656        1555.928          46.000  
  20288393.779   106616229.332        4809.046          47.000  
  20645581.034   108493240.744        5418.282          48.000  
  21736075.937   114223796.690        1328.033          46.000  
  22300937.415   117192183.850          14.502          42.000  
  21514228.857   113058047.869        5863.880          44.000  
  37482866.522   196973768.460        3165.422          40.000  
  25167007.141   132253517.248        -487.635          34.000  
  37857074.847   198940274.535        3237.224          36.000  
  24636066.727   112133733.125        -674.409          35.000  
  24169080.023   104953468.252         205.989          35.000  
  22830093.111    90039934.307        6218.724          39.000  
  24014903.671    85238220.945        1132.682          34.000  
 15  2  5  9 48 34.9990000  0 14G23G 3G20G 9G17G 1G 6S20G 4S26G11G32
                                G10G31
  19994063.325   105069478.942        3467.261          51.000  
  20575705.891   108126034.219        1554.935          47.000  
  20287478.759   106611420.383        4808.759          47.000  
  20644549.918   108487823.209        5417.068          48.000  
  21735823.257   114222468.954        1327.399          46.000  
  22300934.256   117192169.151          14.637          42.000  
  21513112.950   113052184.035        5863.485          44.000  
  37482264.297   196970603.737        3163.581          40.000  
  25167100.272   132254004.3743       -488.952          34.000  
  37856459.132   198937039.756        3234.285          37.000  
  24636195.979   112134410.879        -679.637          35.000  
  24169040.864   104953262.913         204.033          35.000  
  22828909.306    90033716.150        6218.836          39.000  
  24014688.178    85237088.527        1133.055          34.000  
 15  2  5  9 48 35.9990000  0 14G23G 3G20G 9G17G 1G 6S20G 4S26G11G32
                                G10G31
  19993403.462   105066011.520        3467.353          51.000  
  20575409.621   108124478.715        1555.597          46.000  
  20286563.774   106606611.407        4809.200          47.000  
  20643519.081   108482405.811        5417.739          48.000  
  21735570.700   114221141.400        1327.785          45.000  
  22300931.674   117192154.404          14.878          42.000  
  21511997.149   113046320.191        5864.281          44.000  
  37481661.863   196967438.777        3163.790          40.000  
  25167193.142   132254491.7082       -489.122          34.000  
  37855843.820   198933804.784        3234.454          36.000  
  24636324.518   112135088.325        -678.626          35.000  
  24169001.322   104953057.281         205.695          35.000  
  22827725.256    90027497.778        6217.894          39.000  
  24014472.459    85235956.308        1132.984          34.000  
 15  2  5  9 48 36.9990000  0 14G23G 3G20G 9G17G 1G 6S20G 4S26G11G32
                                G10G31
  19992743.738   105062545.046        3465.130          50.000  
  20575113.316   108122923.889        1553.929          46.000  
  20285648.806   106601803.152        4807.156          47.000  
  20642488.471   108476989.299        5415.505          48.000  
  21735318.230   114219814.788        1325.786          46.000  
  22300928.951   117192140.361          13.349          42.000  
  21510881.503   113040457.090        5862.456          44.000  
  37481059.778   196964274.324        3163.208          40.000  
  25167286.082   132254979.4822       -489.548          34.000  
  37855228.280   198930569.916        3232.515          37.000  
  24636453.387   112135766.124        -681.156          35.000  
  24168962.723   104952852.063         206.807          35.000  
  22826542.549    90021279.978        6216.362          38.000  
  24014257.366    85234825.014        1130.342          34.000  
 15  2  5  9 48 37.9990000  0 14G23G 3G20G 9G17G 1G 6S20G 4S26G11G32
                                G10G31
  19992084.295   105059079.166        3465.228          50.000  
  20574817.866   108121369.383        1554.078          46.000  
  20284733.822   106596995.261        4807.452          47.000  
  20641457.564   108471573.306        5415.392          48.000  
  21735065.638   114218488.766        1325.432          45.000  
  22300926.316   117192126.643          12.900          42.000  
  21509766.312   113034594.380        5862.000          44.000  
  37480457.798   196961109.909        3163.229          40.000  
  25167378.831   132255467.3672       -485.348          34.000  
  37854613.126   198927335.214        3234.123          36.000  
  24636581.717   112136444.016        -677.469          34.000  
  24168923.651   104952646.933         204.593          35.000  
  22825358.761    90015062.394        6216.132          39.000  
  24014041.751    85233694.292        1129.974          34.000  
 15  2  5  9 48 38.9990000  0 14G23G 3G20G 9G17G 1G 6S20G 4S26G11G32
                                G10G31
  19991424.729   105055613.716        3465.738          50.000  
  20574522.242   108119815.026        1554.829          46.000  
  20283818.855   106592187.563        4808.528          47.000  
  20640427.269   108466157.671        5415.982          48.000  
  21734813.448   114217163.145        1325.736          45.000  
  22300923.733   117192113.090          14.167          43.000  
  21508650.388   113028731.885        5863.129          44.000  
  37479855.435   196957945.203        3165.748          41.000  
  25167471.351   132255955.1032       -488.621          34.000  
  37853997.919   198924100.634        3233.988          36.000  
  24636710.429   112137121.820        -678.451          34.000  
  24168884.510   104952441.649         204.803          36.000  
  22824174.957    90008844.831        6217.420          38.000  
  24013826.678    85232563.962        1132.405          34.000  
 15  2  5  9 48 39.9990000  0 14G23G 3G20G 9G17G 1G 6S20G 4S26G11G32
                                G10G31
  19990765.180   105052148.933        3464.004          50.000  
  20574226.426   108118261.070        1553.258          46.000  
  20282904.218   106587380.300        4806.388          47.000  
  20639396.815   108460742.647        5414.138          48.000  
  21734561.448   114215838.181        1324.121          45.000  
  22300921.290   117192099.945          12.641          42.000  
  21507534.918   113022869.836        5861.675          44.000  
  37479253.332   196954780.623        3163.866          40.000  
  25167564.081   132256442.9932       -489.203          34.000  
  37853382.205   198920866.053        3232.902          36.000  
  24636839.789   112137799.756        -676.374          34.000  
  24168845.631   104952236.552         203.366          35.000  
  22822991.570    90002627.538        6217.992          38.000  
  24013611.690    85231434.282        1128.822          34.000  
 15  2  5  9 48 40.9990000  0 14G23G 3G20G 9G17G 1G 6S20G 4S26G11G32
                                G10G31
  19990105.701   105048684.563        3464.490          50.000  
  20573930.680   108116707.252        1553.940          46.000  
  20281989.269   106582573.213        4807.003          47.000  
  20638366.572   108455327.970        5414.426          48.000  
  21734309.293   114214513.623        1324.277          45.000  
  22300918.829   117192086.977          12.804          43.000  
  21506419.273   113017007.990        5861.906          43.000  
  37478650.776   196951616.054        3165.247          40.000  
  25167657.266   132256930.7953       -488.302          33.000  
  37852766.213   198917631.081        3235.468          36.000  
  24636968.814   112138477.577        -679.986          34.000  
  24168806.386   104952031.317         205.472          35.000  
  22821807.852    89996410.295        6216.549          38.000  
  24013396.530    85230305.020        1130.769          33.000  
 15  2  5  9 48 41.9990000  0 14G23G 3G20G 9G17G 1G 6S20G 4S26G11G32
                                G10G31
  19989446.659   105045220.898        3463.140          50.000  
  20573634.950   108115153.881        1552.868          46.000  
  20281074.580   106577766.617        4805.523          47.000  
  20637336.153   108449913.932        5413.214          48.000  
  21734057.416   114213189.749        1323.460          45.000  
  22300916.439   117192074.443          12.473          43.000  
  21505303.977   113011146.647        5861.098          43.000  
  37478048.517   196948451.860        3165.040          40.000  
  25167750.100   132257418.8062       -489.693          33.000  
  37852150.813   198914396.621        3234.780          36.000  
  24637098.225   112139155.585        -678.807          34.000  
  24168767.385   104951826.281         205.501          36.000  
  22820624.535    89990193.344        6215.751          38.000  
  24013181.594    85229176.420        1127.422          33.000  
 15  2  5  9 48 42.9990000  0 14G23G 3G20G 9G17G 1G 6S20G 4S26G11G32
                                G10G31
  19988787.860   105041758.059        3462.599          51.000  
  20573339.536   108113601.060        1553.186          46.000  
  20280159.997   106572960.593        4805.916          47.000  
  20636305.857   108444500.654        5412.879          48.000  
  21733805.522   114211866.679        1322.702          46.000  
  22300914.449   117192062.460          12.082          43.000  
  21504188.349   113005285.914        5860.483          44.000  
  37477446.536   196945287.969        3163.698          41.000  
  25167842.936   132257907.1262       -487.747          34.000  
  37851535.047   198911162.371        3234.677          36.000  
  24637227.514   112139833.857        -679.225          34.000  
  24168728.959   104951621.536         204.562          36.000  
  22819440.869    89983976.845        6215.812          38.000  
  24012966.800    85228048.651        1128.684          33.000  
 15  2  5  9 48 43.9990000  0 14G23G 3G20G 9G17G 1G 6S20G 4S26G11G32
                                G10G31
  19988128.800   105038295.661        3462.526          51.000  
  20573043.929   108112048.393        1553.280          46.000  
  20279245.536   106568154.784        4806.060          47.000  
  20635275.806   108439087.762        5412.812          48.000  
  21733554.186   114210544.039        1322.678          45.000  
  22300912.495   117192050.681          12.150          43.000  
  21503073.001   112999425.413        5860.417          44.000  
  37476844.573   196942123.747        3163.854          41.000  
  25167935.946   132258395.3582       -487.797          34.000  
  37850919.351   198907928.192        3234.735          37.000  
  24637356.594   112140512.057        -676.286          34.000  
  24168690.307   104951416.704         205.528          36.000  
  22818257.605    89977760.395        6217.098          38.000  
  24012751.795    85226921.295        1127.757          34.000  
 15  2  5  9 48 44.9990000  0 14G23G 3G20G 9G17G 1G 6S20G 4S26G11G32
                                G10G31
  19987469.845   105034833.863        3461.450          51.000  
  20572748.566   108110496.063        1551.941          46.000  
  20278330.847   106563349.344        4805.380          47.000  
  20634245.894   108433675.382        5412.309          48.000  
  21733302.746   114209221.982        1322.033          46.000  
  22300909.947   117192039.233          11.330          43.000  
  21501957.810   112993565.298        5859.750          44.000  
  37476242.436   196938959.492        3163.845          41.000  
  25168028.729   132258883.6833       -487.719          34.000  
  37850303.795   198904693.804        3234.950          37.000  
  24637485.568   112141190.297        -677.945          35.000  
  24168651.114   104951211.921         205.228          36.000  
  22817074.323    89971544.149        6217.039          38.000  
  24012537.262    85225794.490        1126.945          33.000  
 15  2  5  9 48 45.9990000  0 14G23G 3G20G 9G17G 1G 6S20G 4S26G11G32
                                G10G31
  19986811.431   105031372.324        3461.273          51.000  
  20572453.081   108108943.705        1551.525          46.000  
  20277416.177   106558543.915        4805.004          47.000  
  20633215.615   108428263.190        5411.381          48.000  
  21733050.956   114207900.163        1321.223          46.000  
  22300907.852   117192027.779          10.781          43.000  
  21500842.322   112987705.226        5859.460          44.000  
  37475640.210   196935795.011        3159.722          41.000  
  25168121.319   132259371.7662       -489.341          34.000  
  37849688.064   198901459.058        3235.055          37.000  
  24637614.805   112141868.271        -677.983          35.000  
  24168612.042   104951006.907         204.469          36.000  
  22815891.652    89965327.754        6216.993          38.000  
  24012322.782    85224667.955        1127.920          33.000  
 15  2  5  9 48 46.9990000  0 14G23G 3G20G 9G17G 1G 6S20G 4S26G11G32
                                G10G31
  19986152.632   105027911.397        3460.634          51.000  
  20572158.225   108107391.705        1551.952          47.000  
  20276501.593   106553738.878        4805.138          47.000  
  20632185.721   108422851.564        5411.968          49.000  
  21732799.621   114206578.955        1321.179          46.000  
  22300905.671   117192016.683          11.348          43.000  
  21499727.166   112981845.573        5859.328          44.000  
  37475038.214   196932630.839        3164.431          41.000  
  25168214.469   132259859.9652       -487.545          34.000  
  37849072.769   198898224.367        3234.521          37.000  
  24637743.675   112142546.318        -677.831          35.000  
  24168572.815   104950801.942         205.651          36.000  
  22814708.946    89959111.607        6216.697          38.000  
  24012108.702    85223541.988        1125.760          33.000  
 15  2  5  9 48 47.9990000  0 14G23G 3G20G 9G17G 1G 6S20G 4S26G11G32
                                G10G31
  19985493.904   105024450.954        3459.976          51.000  
  20571863.002   108105839.914        1551.755          47.000  
  20275587.411   106548934.099        4804.142          47.000  
  20631156.262   108417440.358        5410.354          49.000  
  21732548.023   114205258.226        1320.020          46.000  
  22300903.402   117192005.835          10.158          43.000  
  21498611.888   112975986.185        5859.563          44.000  
  37474436.059   196929466.331        3163.952          41.000  
  25168307.356   132260348.1302       -489.028          34.000  
  37848456.986   198894989.671        3235.694          37.000  
  24637872.561   112143224.408        -680.702          35.000  
  24168533.307   104950596.971         203.470          36.000  
  22813526.310    89952895.548        6216.256          38.000  
  24011894.516    85222416.543        1122.018          34.000  
 15  2  5  9 48 48.9990000  0 14G23G 3G20G 9G17G 1G 6S20G 4S26G11G32
                                G10G31
  19984835.629   105020990.979        3459.795          51.000  
  20571568.024   108104288.305        1551.263          46.000  
  20274673.072   106544129.546        4804.164          47.000  
  20630126.630   108412029.553        5410.547          48.000  
  21732296.495   114203937.927        1319.246          46.000  
  22300901.483   117191995.164          10.131          43.000  
  21497497.237   112970127.050        5858.890          44.000  
  37473833.939   196926301.751        3163.479          41.000  
  25168400.227   132260836.2352       -487.799          34.000  
  37847841.394   198891755.227        3233.053          37.000  
  24638001.362   112143902.339        -678.324          34.000  
  24168493.085   104950391.908         205.637          36.000  
  22812343.307    89946679.589        6214.924          38.000  
  24011680.352    85221291.523        1126.840          34.000  
 15  2  5  9 48 49.9990000  0 14G23G 3G20G 9G17G 1G 6S20G 4S26G11G32
                                G10G31
  19984177.616   105017531.269        3459.331          51.000  
  20571272.522   108102736.707        1551.881          46.000  
  20273759.134   106539325.037        4804.217          47.000  
  20629097.084   108406618.953        5410.644          48.000  
  21732044.881   114202617.897        1319.963          45.000  
  22300899.651   117191984.520          10.046          43.000  
  21496382.291   112964267.987        5859.207          44.000  
  37473231.715   196923136.973        3164.251          41.000  
  25168493.062   132261324.1092       -485.987          34.000  
  37847225.716   198888520.498        3234.075          36.000  
  24638129.935   112144579.978        -678.556          34.000  
  24168454.903   104950186.607         204.151          36.000  
  22811160.392    89940463.480        6215.784          38.000  
  24011466.132    85220166.668        1124.741          33.000  
 15  2  5  9 48 50.9990000  0 14G23G 3G20G 9G17G 1G 6S20G 4S26G11G32
                                G10G31
  19983519.376   105014072.105        3458.618          50.000  
  20570977.299   108101185.363        1551.535          46.000  
  20272844.673   106534520.837        4804.594          47.000  
  20628067.574   108401208.820        5410.302          48.000  
  21731793.702   114201298.386        1319.327          45.000  
  22300897.399   117191974.151           9.992          43.000  
  21495267.553   112958409.243        5858.512          43.000  
  37472629.665   196919972.311        3163.679          41.000  
  25168585.861   132261811.9822       -489.109          34.000  
  37846609.950   198885285.598        3233.846          37.000  
  24638259.346   112145257.721        -677.836          34.000  
  24168415.204   104949981.262         204.388          35.000  
  22809977.843    89934247.543        6216.574          37.000  
  24011251.704    85219042.441        1124.436          33.000  
 15  2  5  9 48 51.9990000  0 14G23G 3G20G 9G17G 1G 6S20G 4S26G11G32
                                G10G31
  19982861.259   105010613.469        3458.114          50.000  
  20570681.954   108099634.288        1551.314          46.000  
  20271930.543   106529716.928        4803.839          47.000  
  20627038.272   108395799.156        5409.693          48.000  
  21731542.576   114199979.398        1319.062          45.000  
  22300895.567   117191964.063          10.280          43.000  
  21494152.606   112952550.829        5858.181          44.000  
  37472027.336   196916807.874        3164.698          40.000  
  25168678.785   132262299.9332       -486.211          34.000  
  37845994.132   198882050.609        3233.792          36.000  
  24638388.024   112145935.415        -676.870          34.000  
  24168376.203   104949775.978         205.038          36.000  
  22808795.050    89928031.716        6216.725          37.000  
  24011037.764    85217918.683        1124.039          33.000  
 15  2  5  9 48 52.9990000  0 14G23G 3G20G 9G17G 1G 6S20G 4S26G11G32
                                G10G31
  19982202.862   105007155.433        3457.444          50.000  
  20570386.696   108098083.538        1549.771          46.000  
  20271016.134   106524913.394        4802.743          47.000  
  20626009.093   108390390.026        5408.796          48.000  
  21731291.729   114198660.993        1318.226          45.000  
  22300894.031   117191954.311           8.499          43.000  
  21493037.659   112946692.802        5857.302          44.000  
  37471425.182   196913643.388        3165.337          40.000  
  25168771.689   132262787.9332       -488.296          34.000  
  37845378.454   198878815.516        3237.172          36.000  
  24638517.294   112146613.131        -679.734          34.000  
  24168337.638   104949570.765         203.754          35.000  
  22807612.326    89921816.130        6214.948          37.000  
  24010823.859    85216795.508        1123.852          33.000  
 15  2  5  9 48 53.9990000  0 14G23G 3G20G 9G17G 1G 6S20G 4S26G11G32
                                G10G31
  19981544.814   105003697.910        3457.715          50.000  
  20570091.683   108096533.026        1550.861          46.000  
  20270102.075   106520110.152        4803.916          46.000  
  20624980.229   108384981.342        5409.422          48.000  
  21731041.004   114197343.074        1318.520          45.000  
  22300892.339   117191944.829           9.311          43.000  
  21491923.254   112940835.082        5858.717          44.000  
  37470823.062   196910478.748        3163.948          40.000  
  25168864.665   132263275.9232       -486.051          34.000  
  37844762.968   198875580.307        3237.526          36.000  
  24638646.323   112147290.886        -675.830          34.000  
  24168298.428   104949365.475         206.502          36.000  
  22806428.626    89915600.672        6216.694          37.000  
  24010610.302    85215672.856        1121.766          33.000  
 15  2  5  9 48 54.9990000  0 14G23G 3G20G 9G17G 1G 6S20G 4S26G11G32
                                G10G31
  19980887.063   105000240.800        3456.605          50.000  
  20569796.582   108094982.656        1549.657          46.000  
  20269188.154   106515307.070        4802.215          47.000  
  20623950.979   108379572.995        5407.335          48.000  
  21730790.436   114196025.551        1316.302          45.000  
  22300891.065   117191935.491           8.911          43.000  
  21490808.742   112934977.550        5856.035          44.000  
  37470220.872   196907313.948        3163.732          40.000  
  25168957.482   132263764.346        -488.340          34.000  
  37844147.531   198872345.390        3231.606          36.000  
  24638775.541   112147968.513        -677.210          34.000  
  24168259.165   104949160.147         205.733          36.000  
  22805246.285    89909385.225        6214.198          37.000  
  24010397.043    85214550.519        1121.184          33.000  
 15  2  5  9 48 55.9990000  0 14G23G 3G20G 9G17G 1G 6S20G 4S26G11G32
                                G10G31
  19980229.242   104996784.500        3456.389          50.000  
  20569501.725   108093432.832        1549.882          46.000  
  20268274.565   106510504.583        4801.882          47.000  
  20622921.783   108374165.413        5407.308          48.000  
  21730539.781   114194708.832        1316.165          45.000  
  22300889.686   117191926.697           8.391          43.000  
  21489694.075   112929120.646        5856.797          44.000  
  37469618.578   196904149.236        3164.876          40.000  
  25169050.526   132264252.556        -488.571          33.000  
  37843531.837   198869110.881        3234.826          36.000  
  24638904.603   112148646.400        -675.748          34.000  
  24168220.058   104948955.083         204.781          35.000  
  22804063.266    89903170.180        6215.179          37.000  
  24010183.296    85213429.035        1122.551          33.000  
 15  2  5  9 48 56.9990000  0 14G23G 3G20G 9G17G 1G 6S20G 4S26G11G32
                                G10G31
  19979571.892   104993328.805        3455.953          50.000  
  20569206.799   108091883.338        1550.084          46.000  
  20267360.750   106505702.459        4802.776          47.000  
  20621893.127   108368758.365        5407.429          48.000  
  21730289.126   114193392.703        1316.127          45.000  
  22300887.924   117191918.262           8.865          43.000  
  21488579.442   112923264.117        5856.286          44.000  
  37469016.371   196900984.612        3164.905          40.000  
  25169143.431   132264740.837        -488.561          33.000  
  37842916.682   198865876.163        3236.139          36.000  
  24639033.542   112149324.402        -678.178          34.000  
  24168181.006   104948750.091         207.256          35.000  
  22802880.158    89896955.355        6213.521          37.000  
  24009970.141    85212308.119        1122.108          33.000  
 15  2  5  9 48 57.9990000  0 14G23G 3G20G 9G17G 1G 6S20G 4S26G11G32
                                G10G31
  19978914.420   104989873.639        3455.292          50.000  
  20568912.082   108090334.098        1549.406          46.000  
  20266446.742   106500900.638        4801.683          47.000  
  20620864.105   108363351.780        5406.964          48.000  
  21730038.488   114192077.102        1315.360          45.000  
  22300886.545   117191910.102           8.242          43.000  
  21487465.211   112917407.934        5856.548          44.000  
  37468414.200   196897820.170        3166.361          40.000  
  25169236.719   132265229.146        -490.368          33.000  
  37842300.969   198862641.4333       3236.425          36.000  
  24639162.709   112150002.361        -677.833          34.000  
  24168142.876   104948545.087         204.864          35.000  
  22801697.853    89890740.701        6214.092          37.000  
  24009756.794    85211187.693        1118.610          33.000  
 15  2  5  9 48 58.9990000  0 14G23G 3G20G 9G17G 1G 6S20G 4S26G11G32
                                G10G31
  19978256.703   104986418.628        3454.707          50.000  
  20568617.278   108088784.737        1549.078          46.000  
  20265533.380   106496098.735        4801.127          47.000  
  20619835.013   108357945.283        5406.311          48.000  
  21729788.217   114190761.628        1314.397          45.000  
  22300884.974   117191901.816           8.197          43.000  
  21486351.136   112911551.674        5855.711          44.000  
  37467812.027   196894655.281        3165.706          40.000  
  25169329.381   132265717.030        -488.539          34.000  
  37841684.871   198859406.268        3235.371          37.000  
  24639291.438   112150679.911        -679.185          34.000  
  24168103.613   104948339.726         205.383          35.000  
  22800515.078    89884525.777        6214.761          37.000  
  24009543.885    85210067.432        1121.174          33.000  
 15  2  5  9 48 59.9990000  0 14G23G 3G20G 9G17G 1G 6S20G 4S26G11G32
                                G10G31
  19977599.283   104982964.371        3453.793          50.000  
  20568322.596   108087235.865        1548.060          46.000  
  20264619.791   106491297.371        4800.928          47.000  
  20618806.026   108352539.486        5404.993          48.000  
  21729538.277   114189446.909        1313.694          45.000  
  22300883.281   117191894.058           7.192          43.000  
  21485236.922   112905695.977        5855.922          44.000  
  37467209.715   196891490.613        3164.545          40.000  
  25169422.669   132266205.245        -489.901          34.000  
  37841069.262   198856171.313        3235.756          37.000  
  24639420.483   112151357.754        -677.836          34.000  
  24168065.188   104948134.563         205.483          36.000  
  22799332.581    89878311.271        6213.471          37.000  
  24009331.008    85208947.898        1117.621          33.000  
 15  2  5  9 49  0.9990000  0 14G23G 3G20G 9G17G 1G 6S20G 4S26G11G32
                                G10G31
  19976942.230   104979510.908        3453.459          50.000  
  20568027.583   108085687.506        1548.707          46.000  
  20263706.272   106486496.559        4800.924          47.000  
  20617777.510   108347134.405        5404.743          48.000  
  21729288.495   114188132.950        1313.574          45.000  
  22300881.850   117191886.807           6.562          43.000  
  21484122.691   112899840.846        5855.181          44.000  
  37466607.368   196888326.215        3163.822          40.000  
  25169515.174   132266693.708        -487.243          34.000  
  37840453.950   198852936.666        3234.755          37.000  
  24639549.667   112152035.844        -679.563          34.000  
  24168025.226   104947929.664         201.984          36.000  
  22798150.503    89872097.146        6214.484          38.000  
  24009118.082    85207829.152        1121.005          33.000  
 15  2  5  9 49  1.9990000  0 14G23G 3G20G 9G17G 1G 6S20G 4S26G11G32
                                G10G31
  19976285.247   104976057.780        3452.824          50.000  
  20567733.250   108084139.214        1548.820          46.000  
  20262792.770   106481695.840        4800.087          47.000  
  20616748.994   108341729.604        5404.521          48.000  
  21729038.380   114186819.322        1313.019          45.000  
  22300880.262   117191879.644           7.045          43.000  
  21483008.320   112893985.854        5854.951          44.000  
  37466005.144   196885161.603        3163.798          41.000  
  25169608.165   132267182.006        -488.367          34.000  
  37839838.604   198849701.937        3237.235          36.000  
  24639678.991   112152713.731        -678.831          34.000  
  24167986.644   104947724.628         204.227          36.000  
  22796967.937    89865882.965        6214.004          37.000  
  24008905.222    85206710.720        1116.924          34.000  
 15  2  5  9 49  2.9990000  0 14G23G 3G20G 9G17G 1G 6S20G 4S26G11G32
                                G10G31
  19975628.141   104972605.154        3452.436          50.000  
  20567438.411   108082591.152        1547.922          46.000  
  20261878.955   106476895.401        4799.911          46.000  
  20615720.862   108336325.234        5403.705          48.000  
  21728788.371   114185506.189        1312.852          45.000  
  22300879.023   117191872.718           6.755          43.000  
  21481894.089   112888131.153        5854.833          44.000  
  37465403.094   196881997.149        3164.821          40.000  
  25169700.809   132267670.298        -488.058          33.000  
  37839222.906   198846466.987        3232.945          37.000  
  24639808.018   112153391.557        -677.797          34.000  
  24167947.521   104947519.509         205.160          35.000  
  22795785.598    89859668.890        6214.487          37.000  
  24008692.871    85205592.729        1118.929          34.000  
 15  2  5  9 49  3.9990000  0 14G23G 3G20G 9G17G 1G 6S20G 4S26G11G32
                                G10G31
  19974971.332   104969153.200        3451.340          50.000  
  20567143.903   108081043.493        1546.924          46.000  
  20260965.697   106472095.404        4799.426          47.000  
  20614692.363   108330921.463        5402.522          48.000  
  21728538.327   114184193.695        1312.025          44.000  
  22300877.627   117191866.211           5.459          43.000  
  21480779.996   112882276.920        5853.498          44.000  
  37464800.991   196878832.729        3163.656          40.000  
  25169793.381   132268158.756        -490.997          33.000  
  37838607.263   198843232.213        3235.849          36.000  
  24639936.731   112154069.543        -675.767          34.000  
  24167908.694   104947314.555         204.569          35.000  
  22794603.101    89853455.106        6213.538          37.000  
  24008480.379    85204475.426        1116.560          34.000  
 15  2  5  9 49  4.9990000  0 14G23G 3G20G 9G17G 1G 6S20G 4S26G11G32
                                G10G31
  19974314.349   104965701.896        3451.586          50.000  
  20566849.606   108079496.213        1547.937          46.000  
  20260052.092   106467295.820        4800.530          47.000  
  20613664.231   108325518.305        5403.279          48.000  
  21728288.823   114182881.857        1312.323          45.000  
  22300876.545   117191860.106           6.929          43.000  
  21479666.045   112876423.129        5854.577          44.000  
  37464198.697   196875668.359        3164.415          40.000  
  25169886.235   132268647.340        -486.784          33.000  
  37837991.463   198839997.506        3236.499          36.000  
  24640065.845   112154747.1613       -676.978          34.000  
  24167869.205   104947109.711         205.790          35.000  
  22793420.622    89847241.576        6214.505          37.000  
  24008268.063    85203358.773        1117.765          34.000  
 15  2  5  9 49  5.9990000  0 14G23G 3G20G 9G17G 1G 6S20G 4S26G11G32
                                G10G31
  19973657.348   104962250.823        3451.606          50.000  
  20566555.081   108077948.885        1547.797          46.000  
  20259138.817   106462496.241        4800.718          46.000  
  20612636.361   108320115.300        5403.658          48.000  
  21728038.849   114181570.222        1312.502          45.000  
  22300875.638   117191853.945           6.709          43.000  
  21478552.145   112870569.348        5854.477          44.000  
  37463596.578   196872503.603        3164.250          40.000  
  25169979.070   132269135.649        -487.636          33.000  
  37837375.592   198836762.633        3235.041          36.000  
  24640194.750   112155424.9602       -677.665          33.000  
  24167830.866   104946904.592         205.561          35.000  
  22792239.138    89841027.913        6214.910          37.000  
  24008055.642    85202242.274        1119.337          34.000  
 15  2  5  9 49  6.9990000  0 14G23G 3G20G 9G17G 1G 6S20G 4S26G11G32
                                G10G31
  19973000.941   104958799.651        3450.852          50.000  
  20566260.556   108076401.181        1547.546          46.000  
  20258225.734   106457696.320        4800.288          47.000  
  20611607.828   108314712.125        5402.658          48.000  
  21727788.962   114180258.467        1311.605          44.000  
  22300873.893   117191847.449           7.033          43.000  
  21477438.210   112864715.264        5853.719          44.000  
  37462994.371   196869338.274        3166.278          40.000  
  25170072.063   132269623.313        -485.807          33.000  
  37836760.279   198833527.231        3234.422          37.000  
  24640323.916   112156102.1302       -678.489          33.000  
  24167792.022   104946698.840         204.750          35.000  
  22791056.082    89834813.694        6214.204          36.000  
  24007843.062    85201125.660        1116.715          34.000  
 15  2  5  9 49  7.9990000  0 14G23G 3G20G 9G17G 1G 6S20G 4S26G11G32
                                G10G31
  19972344.393   104955349.311        3449.528          50.000  
  20565966.362   108074854.039        1546.216          46.000  
  20257312.267   106452897.006        4798.649          46.000  
  20610580.079   108309309.710        5401.604          48.000  
  21727539.563   114178947.526        1309.880          44.000  
  22300872.758   117191841.515           5.154          43.000  
  21476324.013   112858861.808        5852.661          43.000  
  37462392.181   196866173.309        3164.677          40.000  
  25170164.897   132270111.369        -487.485          33.000  
  37836144.461   198830291.907        3233.366          36.000  
  24640452.524   112156779.6042       -679.371          33.000  
  24167752.986   104946493.418         204.114          35.000  
  22789873.428    89828599.976        6213.114          36.000  
  24007630.937    85200009.861        1114.831          34.000  
 15  2  5  9 49  8.9990000  0 14G23G 3G20G 9G17G 1G 6S20G 4S26G11G32
                                G10G31
  19971688.160   104951899.587        3448.790          50.000  
  20565671.873   108073307.234        1546.548          46.000  
  20256398.940   106448098.066        4798.556          47.000  
  20609552.331   108303907.845        5401.361          48.000  
  21727290.007   114177637.175        1309.536          44.000  
  22300872.007   117191835.933           4.884          43.000  
  21475209.642   112853008.760        5852.048          44.000  
  37461790.235   196863008.503        3162.951          40.000  
  25170257.767   132270599.463        -487.935          34.000  
  37835528.520   198827056.268        3232.497          36.000  
  24640581.481   112157457.1432       -678.532          33.000  
  24167714.141   104946287.996         204.318          35.000  
  22788690.705    89822386.485        6212.589          36.000  
  24007418.951    85198894.668        1114.091          34.000  
 15  2  5  9 49  9.9990000  0 14G23G 3G20G 9G17G 1G 6S20G 4S26G11G32
                                G10G31
  19971031.665   104948450.591        3448.610          50.000  
  20565377.575   108071760.908        1546.235          46.000  
  20255486.119   106443299.638        4798.403          47.000  
  20608524.339   108298506.664        5401.318          48.000  
  21727040.853   114176327.573        1309.468          44.000  
  22300871.013   117191830.819           4.974          43.000  
  21474096.214   112847156.219        5852.432          44.000  
  37461187.942   196859843.830        3164.633          40.000  
  25170350.393   132271087.3103       -489.218          33.000  
  37834912.703   198823821.159        3235.164          36.000  
  24640710.369   112158134.8922       -676.916          33.000  
  24167674.774   104946082.844         203.779          35.000  
  22787508.034    89816173.318        6212.992          37.000  
  24007207.037    85197780.191        1115.789          34.000  
 15  2  5  9 49 10.9990000  0 14G23G 3G20G 9G17G 1G 6S20G 4S26G11G32
                                G10G31
  19970375.432   104945001.689        3448.343          50.000  
  20565083.242   108070214.394        1546.149          46.000  
  20254572.565   106438501.073        4798.016          47.000  
  20607496.398   108293105.511        5400.650          48.000  
  21726791.873   114175018.021        1309.858          44.000  
  22300870.472   117191825.557           4.686          43.000  
  21472982.785   112841303.578        5852.360          44.000  
  37460585.542   196856678.616        3162.358          40.000  
  25170443.594   132271575.1892       -490.463          33.000  
  37834296.938   198820586.038        3236.918          37.000  
  24640839.377   112158812.1792       -679.232          33.000  
  24167635.145   104945877.268         205.011          35.000  
  22786326.009    89809959.859        6214.120          37.000  
  24006995.120    85196665.736        1113.277          35.000  
 15  2  5  9 49 11.9990000  0 14G23G 3G20G 9G17G 1G 6S20G 4S26G11G32
                                G10G31
  19969719.199   104941553.750        3447.790          50.000  
  20564788.926   108068668.569        1545.693          46.000  
  20253660.006   106433703.241        4797.794          47.000  
  20606468.930   108287705.249        5400.623          48.000  
  21726542.893   114173709.422        1308.666          45.000  
  22300870.018   117191820.999           4.415          43.000  
  21471869.217   112835451.709        5852.170          44.000  
  37459983.196   196853513.937        3164.872          40.000  
  25170536.831   132272063.5812       -489.238          33.000  
  37833680.944   198817351.193        3234.476          37.000  
  24640968.509   112159489.9612       -679.025          33.000  
  24167595.759   104945672.104         204.940          36.000  
  22785143.966    89803746.984        6213.236          37.000  
  24006783.467    85195552.278        1113.831          34.000  
 15  2  5  9 49 12.9990000  0 14G23G 3G20G 9G17G 1G 6S20G 4S26G11G32
                                G10G31
  19969063.228   104938106.494        3446.872          50.000  
  20564494.995   108067123.157        1545.394          46.000  
  20252747.202   106428905.854        4796.992          47.000  
  20605441.181   108282305.605        5399.410          48.000  
  21726294.192   114172401.494        1307.926          45.000  
  22300869.529   117191816.861           3.682          43.000  
  21470755.543   112829600.291        5851.240          44.000  
  37459380.989   196850349.429        3165.114          40.000  
  25170630.068   132272552.1152       -487.106          33.000  
  37833066.191   198814116.309        3234.337          37.000  
  24641097.380   112160168.298        -677.342          33.000  
  24167556.898   104945467.107         204.841          35.000  
  22783962.236    89797534.412        6211.555          37.000  
  24006571.691    85194439.476        1113.904          35.000  
 15  2  5  9 49 13.9990000  0 14G23G 3G20G 9G17G 1G 6S20G 4S26G11G32
                                G10G31
  19968407.553   104934659.564        3446.507          50.000  
  20564201.150   108065577.789        1545.090          46.000  
  20251834.486   106424108.567        4797.050          47.000  
  20604413.695   108276906.225        5398.916          48.000  
  21726045.579   114171093.881        1307.123          45.000  
  22300868.500   117191812.788           3.970          43.000  
  21469642.481   112823749.006        5850.892          44.000  
  37458778.766   196847184.624        3167.441          40.000  
  25170723.095   132273040.4902       -488.404          33.000  
  37832450.914   198810880.869        3235.856          36.000  
  24641226.198   112160845.958        -676.293          33.000  
  24167518.106   104945261.883         204.788          35.000  
  22782780.700    89791321.774        6211.726          37.000  
  24006360.036    85193326.976        1111.489          35.000  
 15  2  5  9 49 14.9990000  0 14G23G 3G20G 9G17G 1G 6S20G 4S26G11G32
                                G10G31
  19967751.355   104931212.914        3446.559          50.000  
  20563907.446   108064032.432        1545.289          46.000  
  20250922.014   106419311.329        4796.968          47.000  
  20603386.383   108271507.060        5398.553          48.000  
  21725796.616   114169786.532        1307.093          45.000  
  22300867.697   117191808.726           3.813          43.000  
  21468529.192   112817897.786        5851.525          44.000  
  37458176.262   196844019.410        3166.689          40.000  
  25170815.947   132273528.5903       -489.260          33.000  
  37831835.182   198807645.379        3232.844          37.000  
  24641355.015   112161523.421        -677.262          34.000  
  24167478.878   104945056.417         205.584          36.000  
  22781598.779    89785109.031        6212.831          37.000  
  24006148.435    85192214.736        1112.142          35.000  
 15  2  5  9 49 15.9990000  0 14G23G 3G20G 9G17G 1G 6S20G 4S26G11G32
                                G10G31
  19967095.680   104927766.827        3445.779          51.000  
  20563613.409   108062487.384        1545.283          46.000  
  20250009.019   106414514.427        4796.531          47.000  
  20602358.949   108266108.412        5398.337          48.000  
  21725547.881   114168479.734        1306.216          45.000  
  22300867.138   117191804.990           3.485          43.000  
  21467416.060   112812046.941        5850.996          44.000  
  37457574.351   196840854.252        3165.794          40.000  
  25170909.184   132274016.7942       -487.873          33.000  
  37831219.399   198804410.027        3234.563          37.000  
  24641484.007   112162200.867        -677.784          33.000  
  24167439.335   104944850.989         204.035          36.000  
  22780417.277    89778896.448        6212.856          37.000  
  24005937.043    85191103.057        1110.677          35.000  
 15  2  5  9 49 16.9990000  0 14G23G 3G20G 9G17G 1G 6S20G 4S26G11G32
                                G10G31
  19966439.953   104924321.378        3445.360          50.000  
  20563319.373   108060942.693        1544.637          46.000  
  20249096.407   106409717.922        4796.588          47.000  
  20601331.829   108260710.338        5397.912          48.000  
  21725299.267   114167173.564        1306.830          44.000  
  22300865.986   117191801.617           2.915          43.000  
  21466302.596   112806196.510        5850.020          44.000  
  37456972.127   196837689.435        3165.977          40.000  
  25171002.089   132274505.1032       -488.374          33.000  
  37830603.930   198801174.928        3233.962          37.000  
  24641613.156   112162878.473        -675.752          33.000  
  24167400.806   104944645.661         207.164          35.000  
  22779234.990    89772684.113        6211.800          37.000  
  24005725.790    85189991.968        1110.487          35.000  
 15  2  5  9 49 17.9990000  0 14G23G 3G20G 9G17G 1G 6S20G 4S26G11G32
                                G10G31
  19965784.435   104920876.171        3444.069          50.000  
  20563025.529   108059397.948        1544.293          46.000  
  20248183.446   106404921.422        4795.815          47.000  
  20600304.482   108255312.412        5396.957          48.000  
  21725050.392   114165867.603        1305.132          44.000  
  22300865.463   117191798.216           2.804          43.000  
  21465189.307   112800346.122        5849.497          44.000  
  37456369.884   196834524.310        3164.301          40.000  
  25171095.343   132274993.1302       -486.773          33.000  
  37829988.619   198797939.285        3236.609          36.000  
  24641742.042   112163555.715        -679.501          34.000  
  24167361.979   104944440.068         205.994          36.000  
  22778052.703    89766471.668        6212.178          37.000  
  24005514.800    85188881.104        1111.468          35.000  
 15  2  5  9 49 18.9990000  0 14G23G 3G20G 9G17G 1G 6S20G 4S26G11G32
                                G10G31
  19965128.831   104917431.587        3444.411          50.000  
  20562731.772   108057853.588        1544.518          46.000  
  20247270.852   106400125.341        4796.122          47.000  
  20599277.083   108249915.081        5397.182          48.000  
  21724802.215   114164562.270        1304.622          44.000  
  22300864.329   117191795.212           3.394          43.000  
  21464076.315   112794496.153        5850.244          44.000  
  37455767.764   196831359.257        3163.995          40.000  
  25171187.829   132275481.2742       -487.423          33.000  
  37829372.590   198794704.004        3234.573          37.000  
  24641871.279   112164233.045        -677.359          34.000  
  24167322.751   104944234.569         205.302          35.000  
  22776870.800    89760259.421        6212.784          37.000  
  24005303.687    85187770.858        1111.083          35.000  
 15  2  5  9 49 19.9990000  0 14G23G 3G20G 9G17G 1G 6S20G 4S26G11G32
                                G10G31
  19964473.557   104913987.433        3443.053          50.000  
  20562437.945   108056309.361        1543.912          46.000  
  20246358.171   106395329.431        4795.119          47.000  
  20598250.137   108244518.086        5396.308          48.000  
  21724553.740   114163257.328        1303.203          44.000  
  22300863.648   117191792.357           1.562          43.000  
  21462963.096   112788646.399        5849.470          44.000  
  37455165.488   196828194.077        3164.844          40.000  
  25171280.926   132275969.3292       -488.510          33.000  
  37828757.139   198791468.597        3236.558          37.000  
  24641999.906   112164910.298        -675.605          33.000  
  24167283.017   104944028.965         204.946          35.000  
  22775688.949    89754047.213        6213.042          37.000  
  24005092.626    85186661.002        1107.892          35.000  
 15  2  5  9 49 20.9990000  0 14G23G 3G20G 9G17G 1G 6S20G 4S26G11G32
                                G10G31
  19963818.284   104910543.483        3443.019          50.000  
  20562143.822   108054765.067        1544.319          46.000  
  20245445.524   106390533.499        4795.611          47.000  
  20597223.349   108239121.235        5396.441          48.000  
  21724305.547   114161952.596        1304.518          44.000  
  22300863.247   117191789.447           2.597          43.000  
  21461849.754   112782796.634        5848.780          44.000  
  37454563.212   196825028.423        3167.206          40.000  
  25171373.866   132276457.0652       -487.052          33.000  
  37828141.373   198788232.534        3234.483          37.000  
  24642128.304   112165587.232        -676.367          34.000  
  24167242.969   104943823.048         207.689          35.000  
  22774506.296    89747834.834        6213.556          37.000  
  24004881.793    85185551.340        1110.871          35.000  
 15  2  5  9 49 21.9990000  0 14G23G 3G20G 9G17G 1G 6S20G 4S26G11G32
                                G10G31
  19963162.941   104907100.232        3441.935          50.000  
  20561849.767   108053221.197        1542.257          46.000  
  20244533.000   106385738.035        4794.276          47.000  
  20596196.578   108233725.033        5395.599          48.000  
  21724057.683   114160648.536        1302.790          44.000  
  22300862.793   117191786.983           1.985          43.000  
  21460736.622   112776947.375        5848.220          43.000  
  37453960.707   196821862.928        3164.588          40.000  
  25171466.805   132276944.9832       -488.814          33.000  
  37827525.851   198784996.714        3233.014          36.000  
  24642257.400   112166264.326        -677.691          34.000  
  24167204.194   104943617.268         204.324          35.000  
  22773324.409    89741622.774        6210.363          36.000  
  24004670.557    85184442.338        1108.674          35.000  
 15  2  5  9 49 22.9990000  0 14G23G 3G20G 9G17G 1G 6S20G 4S26G11G32
                                G10G31
  19962508.209   104903657.780        3442.613          50.000  
  20561556.185   108051677.868        1543.282          46.000  
  20243620.807   106380943.138        4794.616          47.000  
  20595169.981   108228329.542        5395.379          48.000  
  21723810.029   114159345.257        1302.850          44.000  
  22300862.356   117191785.042           2.153          43.000  
  21459623.682   112771098.706        5848.091          43.000  
  37453358.692   196818697.726        3164.322          40.000  
  25171559.257   132277433.2152       -488.480          33.000  
  37826910.208   198781761.004        3235.368          37.000  
  24642386.357   112166941.678        -678.457          34.000  
  24167165.001   104943411.763         205.328          35.000  
  22772142.803    89735411.111        6211.766          36.000  
  24004459.986    85183334.129        1108.297          35.000  
 15  2  5  9 49 23.9990000  0 14G23G 3G20G 9G17G 1G 6S20G 4S26G11G32
                                G10G31
  19961853.232   104900215.476        3442.469          50.000  
  20561262.411   108050134.400        1543.823          46.000  
  20242708.178   106376148.159        4794.979          47.000  
  20594142.984   108222934.161        5395.251          48.000  
  21723561.870   114158042.117        1303.088          44.000  
  22300861.955   117191782.996           2.252          42.000  
  21458510.708   112765249.960        5850.075          43.000  
  37452756.171   196815532.177        3165.486          40.000  
  25171652.093   132277921.0392       -485.921          34.000  
  37826294.355   198778524.991        3236.431          37.000  
  24642515.210   112167618.667        -676.988          33.000  
  24167125.983   104943205.911         208.138          35.000  
  22770960.707    89729199.200        6211.638          37.000  
  24004248.768    85182226.042        1108.576          35.000  
 15  2  5  9 49 24.9990000  0 14G23G 3G20G 9G17G 1G 6S20G 4S26G11G32
                                G10G31
  19961197.854   104896773.817        3442.097          50.000  
  20560969.230   108048591.313        1543.117          46.000  
  20241795.637   106371353.604        4795.050          47.000  
  20593116.370   108217539.359        5394.682          48.000  
  21723314.042   114156739.593        1302.639          44.000  
  22300861.711   117191781.336           2.443          43.000  
  21457397.732   112759401.682        5848.587          44.000  
  37452153.894   196812366.732        3165.252          40.000  
  25171745.015   132278409.567        -485.229          33.000  
  37825678.711   198775289.061        3234.787          36.000  
  24642644.081   112168295.738        -674.195          33.000  
  24167085.568   104943000.142         207.699          35.000  
  22769778.560    89722987.581        6212.709          37.000  
  24004038.284    85181118.555        1108.992          35.000  
 15  2  5  9 49 25.9990000  0 14G23G 3G20G 9G17G 1G 6S20G 4S26G11G32
                                G10G31
  19960543.087   104893332.775        3440.513          50.000  
  20560675.647   108047048.572        1542.130          46.000  
  20240883.426   106366559.434        4793.376          47.000  
  20592089.948   108212145.096        5393.942          48.000  
  21723066.335   114155437.670        1300.592          45.000  
  22300861.850   117191780.034           0.146          42.000  
  21456284.635   112753553.801        5847.125          44.000  
  37451551.530   196809201.398        3165.808          40.000  
  25171838.007   132278897.705        -486.381          33.000  
  37825063.258   198772053.428        3233.105          36.000  
  24642772.566   112168972.898        -676.998          33.000  
  24167046.985   104942794.478         205.550          35.000  
  22768596.324    89716776.155        6209.940          36.000  
  24003827.624    85180011.686        1105.887          36.000  
 15  2  5  9 49 26.9990000  0 14G23G 3G20G 9G17G 1G 6S20G 4S26G11G32
                                G10G31
  19959888.843   104889892.405        3440.756          50.000  
  20560382.152   108045506.223        1543.082          46.000  
  20239971.199   106361765.689        4794.153          47.000  
  20591063.718   108206751.445        5394.137          48.000  
  21722818.787   114154136.408        1301.627          45.000  
  22300861.711   117191779.162           2.030          43.000  
  21455171.956   112747706.388        5847.111          44.000  
  37450949.341   196806036.074        3165.979          40.000  
  25171930.755   132279385.920        -486.159          33.000  
  37824447.441   198768818.164        3234.895          37.000  
  24642901.366   112169650.239        -676.954          33.000  
  24167007.688   104942588.962         206.869          35.000  
  22767414.648    89710565.037        6211.370          36.000  
  24003617.051    85178905.471        1104.837          36.000  
 15  2  5  9 49 27.9990000  0 14G23G 3G20G 9G17G 1G 6S20G 4S26G11G32
                                G10G31
  19959234.111   104886452.454        3439.835          50.000  
  20560088.569   108043964.034        1541.749          46.000  
  20239059.145   106356972.142        4793.597          47.000  
  20590037.313   108201358.157        5393.701          48.000  
  21722571.098   114152835.559        1301.057          44.000  
  22300861.780   117191778.444           0.461          42.000  
  21454059.296   112741859.195        5847.826          43.000  
  37450346.906   196802870.619        3164.291          40.000  
  25172023.608   132279874.080        -486.666          34.000  
  37823832.164   198765582.718        3235.209          36.000  
  24643030.603   112170327.371        -675.428          33.000  
  24166969.017   104942383.331         205.078          35.000  
  22766233.094    89704353.931        6211.173          37.000  
  24003406.672    85177799.664        1104.581          35.000  
 15  2  5  9 49 28.9990000  0 14G23G 3G20G 9G17G 1G 6S20G 4S26G11G32
                                G10G31
  19958579.622   104883013.114        3438.531          50.000  
  20559795.021   108042422.163        1541.387          46.000  
  20238146.935   106352178.975        4792.451          47.000  
  20589011.100   108195965.420        5391.719          48.000  
  21722323.723   114151535.289        1299.505          44.000  
  22300861.553   117191778.068           0.012          43.000  
  21452946.547   112736012.399        5845.841          43.000  
  37449744.456   196799705.284        3166.273          40.000  
  25172116.634   132280362.333        -489.036          33.000  
  37823216.066   198762347.140        3234.830          37.000  
  24643159.420   112171004.646        -677.152          33.000  
  24166929.615   104942177.805         205.311          35.000  
  22765051.592    89698143.066        6210.968          37.000  
  24003196.292    85176694.458        1104.303          36.000  
 15  2  5  9 49 29.9990000  0 14G23G 3G20G 9G17G 1G 6S20G 4S26G11G32
                                G10G31
  19957925.221   104879574.655        3438.078          50.000  
  20559501.823   108040880.921        1541.204          46.000  
  20237234.917   106347386.458        4792.142          47.000  
  20587984.835   108190573.493        5391.500          48.000  
  21722076.192   114150235.899        1298.521          44.000  
  22300861.553   117191778.303          -0.419          42.000  
  21451834.445   112730166.281        5845.853          44.000  
  37449142.056   196796540.258        3163.991          40.000  
  25172209.922   132280850.945        -489.798          34.000  
  37822600.196   198759111.590        3235.871          36.000  
  24643288.585   112171682.269        -678.937          33.000  
  24166891.573   104941972.586         204.514          35.000  
  22763870.334    89691932.681        6209.897          37.000  
  24002986.156    85175590.067        1105.235          36.000  
 15  2  5  9 49 30.9990000  0 14G23G 3G20G 9G17G 1G 6S20G 4S26G11G32
                                G10G31
  19957271.240   104876136.753        3438.106          50.000  
  20559208.397   108039339.955        1541.018          46.000  
  20236323.177   106342594.265        4791.953          47.000  
  20586958.762   108185182.067        5391.115          48.000  
  21721828.974   114148937.055        1298.511          44.000  
  22300861.657   117191778.852          -1.029          43.000  
  21450721.854   112724320.514        5845.699          44.000  
  37448539.850   196793375.568        3165.195          40.000  
  25172303.072   132281339.629        -488.339          34.000  
  37821984.570   198755876.0841       3234.879          37.000  
  24643417.874   112172359.929        -678.448          33.000  
  24166852.311   104941767.418         205.984          35.000  
  22762689.199    89685722.478        6210.732          37.000  
  24002776.142    85174486.243        1103.701          36.000  
 15  2  5  9 49 31.9990000  0 14G23G 3G20G 9G17G 1G 6S20G 4S26G11G32
                                G10G31
  19956616.595   104872698.438        3438.211          50.000  
  20558915.338   108037798.311        1541.326          46.000  
  20235410.706   106337801.423        4792.733          47.000  
  20585932.829   108179790.168        5391.746          48.000  
  21721581.635   114147637.776        1299.463          44.000  
  22300861.274   117191778.723          -0.106          43.000  
  21449609.298   112718474.142        5846.210          44.000  
  37447937.521   196790210.041        3166.840          40.000  
  25172395.994   132281827.381        -489.197          34.000  
  37821368.595   198752639.801        3236.695          37.000  
  24643546.640   112173036.604        -675.817          33.000  
  24166812.576   104941561.329         205.626          35.000  
  22761507.837    89679511.476        6212.326          37.000  
  24002566.024    85173381.984        1103.339          36.000  
 15  2  5  9 49 32.9990000  0 14G23G 3G20G 9G17G 1G 6S20G 4S26G11G32
                                G10G31
  19955962.543   104869261.257        3437.822          50.000  
  20558621.860   108036257.509        1541.185          46.000  
  20234499.211   106333009.496        4792.574          47.000  
  20584907.071   108174399.331        5391.717          48.000  
  21721334.802   114146339.610        1298.809          44.000  
  22300861.378   117191779.459           0.163          43.000  
  21448497.038   112712628.690        5846.230          44.000  
  37447335.332   196787045.004        3167.117          40.000  
  25172489.162   132282315.745        -486.009          34.000  
  37820752.288   198749404.157        3234.967          36.000  
  24643675.248   112173713.896        -676.211          33.000  
  24166773.541   104941355.830         206.153          34.000  
  22760325.881    89673301.195        6210.878          37.000  
  24002356.552    85172278.794        1103.920          36.000  
 15  2  5  9 49 33.9990000  0 14G23G 3G20G 9G17G 1G 6S20G 4S26G11G32
                                G10G31
  19955308.386   104865824.044        3436.927          50.000  
  20558328.697   108034716.410        1541.111          46.000  
  20233587.297   106328217.293        4792.093          47.000  
  20583881.154   108169008.396        5390.389          48.000  
  21721087.497   114145041.400        1297.546          44.000  
  22300861.413   117191779.915          -0.967          42.000  
  21447384.796   112706782.985        5845.543          44.000  
  37446732.705   196783879.053        3165.958          40.000  
  25172581.421   132282803.525        -486.223          34.000  
  37820136.505   198746168.243        3236.265          37.000  
  24643803.840   112174390.615        -674.958          33.000  
  24166734.382   104941149.769         204.811          35.000  
  22759144.292    89667090.518        6211.417          37.000  
  24002146.364    85171175.587        1103.677          36.000  
 15  2  5  9 49 34.9990000  0 14G23G 3G20G 9G17G 1G 6S20G 4S26G11G32
                                G10G31
  19954654.474   104862387.370        3435.933          50.000  
  20558035.271   108033175.587        1540.222          46.000  
  20232675.454   106323425.420        4791.331          47.000  
  20582855.448   108163617.945        5389.649          48.000  
  21720840.681   114143743.707        1296.756          44.000  
  22300861.692   117191780.651          -1.702          42.000  
  21446272.118   112700937.638        5845.028          44.000  
  37446130.375   196780713.184        3164.029          40.000  
  25172674.290   132283291.382        -490.046          34.000  
  37819521.175   198742932.142        3236.769          37.000  
  24643932.534   112175067.367        -677.042          33.000  
  24166695.659   104940943.730         203.724          35.000  
  22757962.022    89660879.979        6210.931          37.000  
  24001936.420    85170072.871        1101.191          36.000  
 15  2  5  9 49 35.9990000  0 14G23G 3G20G 9G17G 1G 6S20G 4S26G11G32
                                G10G31
  19954000.789   104858951.362        3435.825          50.000  
  20557741.933   108031635.144        1540.098          46.000  
  20231763.383   106318633.966        4791.234          47.000  
  20581829.654   108158228.095        5389.668          48.000  
  21720593.987   114142446.659        1297.219          45.000  
  22300861.744   117191781.778          -1.630          42.000  
  21445160.137   112695092.736        5845.002          44.000  
  37445527.994   196777547.657        3164.684          40.000  
  25172767.492   132283779.388        -488.819          34.000  
  37818905.793   198739696.157        3236.255          37.000  
  24644061.247   112175744.174        -677.592          33.000  
  24166656.677   104940737.818         207.617          35.000  
  22756780.049    89654669.737        6210.399          37.000  
  24001726.180    85168970.826        1102.086          36.000  
 15  2  5  9 49 36.9990000  0 14G23G 3G20G 9G17G 1G 6S20G 4S26G11G32
                                G10G31
  19953347.104   104855515.801        3435.867          51.000  
  20557448.699   108030094.877        1540.153          46.000  
  20230851.906   106313842.711        4790.863          47.000  
  20580804.175   108152838.602        5389.629          48.000  
  21720347.503   114141150.024        1297.012          45.000  
  22300862.198   117191783.093          -1.488          43.000  
  21444048.000   112689248.055        5844.711          44.000  
  37444925.771   196774382.064        3167.262          40.000  
  25172860.450   132284267.267        -486.894          34.000  
  37818289.678   198736459.808        3235.950          36.000  
  24644189.715   112176420.970        -677.518          33.000  
  24166617.327   104940531.829         208.090          35.000  
  22755597.639    89648459.523        6209.188          37.000  
  24001517.213    85167869.195        1102.063          36.000  
 15  2  5  9 49 37.9990000  0 14G23G 3G20G 9G17G 1G 6S20G 4S26G11G32
                                G10G31
  19952693.243   104852080.852        3433.670          50.000  
  20557155.745   108028554.962        1539.041          46.000  
  20229940.411   106309051.874        4790.111          47.000  
  20579778.677   108147449.694        5387.855          48.000  
  21720100.669   114139854.006        1295.204          45.000  
  22300862.442   117191784.782          -2.920          42.000  
  21442935.915   112683403.826        5843.484          44.000  
  37444323.424   196771216.448        3166.547          40.000  
  25172952.987   132284755.355        -491.419          33.000  
  37817673.877   198733223.717        3235.020          37.000  
  24644318.271   112177097.821        -676.856          33.000  
  24166578.289   104940325.916         204.720          35.000  
  22754416.051    89642249.551        6210.157          37.000  
  24001307.147    85166768.137        1099.870          36.000  
 15  2  5  9 49 38.9990000  0 14G23G 3G20G 9G17G 1G 6S20G 4S26G11G32
                                G10G31
  19952039.611   104848646.579        3434.488          50.000  
  20556862.948   108027015.422        1540.064          46.000  
  20229028.305   106304261.461        4790.244          47.000  
  20578753.477   108142061.380        5388.309          49.000  
  21719854.673   114138558.637        1295.052          45.000  
  22300863.018   117191786.879          -2.188          42.000  
  21441823.760   112677560.043        5843.523          44.000  
  37443721.339   196768050.860        3165.775          40.000  
  25173045.841   132285243.532        -487.721          33.000  
  37817058.060   198729987.892        3238.067          37.000  
  24644446.967   112177774.766        -676.190          33.000  
  24166538.277   104940120.131         206.707          35.000  
  22753234.461    89636039.876        6209.673          37.000  
  24001098.739    85165667.745        1100.601          36.000  
 15  2  5  9 49 39.9990000  0 14G23G 3G20G 9G17G 1G 6S20G 4S26G11G32
                                G10G31
  19951386.257   104845212.632        3434.046          50.000  
  20556570.011   108025475.965        1539.920          46.000  
  20228116.811   106299471.142        4790.203          47.000  
  20577728.154   108136673.336        5388.096          48.000  
  21719608.049   114137263.572        1295.354          45.000  
  22300863.699   117191789.031          -1.559          43.000  
  21440711.675   112671716.381        5843.606          44.000  
  37443118.799   196764885.113        3164.219          40.000  
  25173138.693   132285731.488        -488.166          33.000  
  37816441.787   198726751.460        3235.299          37.000  
  24644575.994   112178451.540        -676.546          33.000  
  24166499.240   104939914.213         204.402          35.000  
  22752052.139    89629830.136        6210.033          37.000  
  24000889.353    85164567.622        1099.089          36.000  
 15  2  5  9 49 40.9990000  0 14G23G 3G20G 9G17G 1G 6S20G 4S26G11G32
                                G10G31
  19950732.990   104841778.883        3432.969          51.000  
  20556277.039   108023936.419        1539.157          46.000  
  20227205.421   106294680.795        4790.087          47.000  
  20576703.111   108131285.431        5387.589          49.000  
  21719361.704   114135968.700        1293.952          45.000  
  22300863.943   117191791.106          -2.440          42.000  
  21439599.834   112665872.720        5843.459          44.000  
  37442516.384   196761719.007        3166.878          40.000  
  25173231.459   132286219.191        -488.449          33.000  
  37815826.004   198723514.786        3234.416          37.000  
  24644705.040   112179128.000        -672.130          33.000  
  24166459.210   104939707.926         206.517          35.000  
  22750869.957    89623620.202        6210.072          37.000  
  24000679.078    85163467.732        1098.871          36.000  
 15  2  5  9 49 41.9990000  0 14G23G 3G20G 9G17G 1G 6S20G 4S26G11G32
                                G10G31
  19950079.723   104838346.412        3432.325          50.000  
  20555984.172   108022397.882        1538.199          46.000  
  20226294.030   106289891.484        4788.556          47.000  
  20575677.928   108125898.725        5385.876          48.000  
  21719115.533   114134675.067        1293.466          45.000  
  22300864.448   117191794.200          -4.130          42.000  
  21438488.272   112660030.126        5842.091          44.000  
  37441913.949   196758553.766        3165.140          40.000  
  25173324.312   132286707.610        -485.513          32.000  
  37815210.204   198720279.109        3238.449          37.000  
  24644833.384   112179805.165        -677.520          33.000  
  24166420.017   104939502.345         206.480          35.000  
  22749689.310    89617411.156        6210.000          36.000  
  24000469.954    85162369.064        1097.382          36.000  
 15  2  5  9 49 42.9990000  0 14G23G 3G20G 9G17G 1G 6S20G 4S26G11G32
                                G10G31
  19949426.858   104834914.195        3431.875          50.000  
  20555691.200   108020859.322        1537.986          46.000  
  20225382.675   106285102.200        4789.129          47.000  
  20574652.745   108120512.230        5386.329          48.000  
  21718869.555   114133381.693        1293.448          45.000  
  22300865.076   117191797.299          -3.759          42.000  
  21437376.223   112654187.588        5842.372          44.000  
  37441311.656   196755388.393        3166.098          40.000  
  25173416.762   132287195.798        -488.620          33.000  
  37814594.629   198717043.239        3235.259          37.000  
  24644962.446   112180482.060        -678.189          33.000  
  24166380.998   104939296.504         205.704          35.000  
  22748508.192    89611201.994        6209.091          36.000  
  24000260.744    85161270.650        1098.022          36.000  
 15  2  5  9 49 43.9990000  0 14G23G 3G20G 9G17G 1G 6S20G 4S26G11G32
                                G10G31
  19948773.696   104831482.352        3431.235          50.000  
  20555398.490   108019320.862        1537.371          46.000  
  20224471.337   106280313.065        4788.424          47.000  
  20573627.719   108115126.042        5385.380          48.000  
  21718623.402   114132088.649        1292.636          45.000  
  22300865.879   117191800.520          -3.242          43.000  
  21436264.451   112648345.221        5841.471          44.000  
  37440709.065   196752222.569        3166.128          40.000  
  25173509.231   132287683.914        -488.775          33.000  
  37813978.845   198713807.061        3233.142          37.000  
  24645090.913   112181158.762        -680.502          33.000  
  24166341.874   104939090.570         205.097          35.000  
  22747326.743    89604992.804        6210.204          36.000  
  24000051.359    85160172.566        1098.707          36.000  
 15  2  5  9 49 44.9990000  0 14G23G 3G20G 9G17G 1G 6S20G 4S26G11G32
                                G10G31
  19948120.988   104828051.214        3431.141          50.000  
  20555106.007   108017782.842        1539.011          46.000  
  20223560.105   106275524.410        4789.403          47.000  
  20572602.606   108109740.488        5385.945          48.000  
  21718377.040   114130796.316        1291.880          45.000  
  22300866.647   117191804.170          -3.511          43.000  
  21435153.012   112642503.349        5842.198          44.000  
  37440106.561   196749056.772        3166.473          40.000  
  25173602.084   132288172.112        -488.964          32.000  
  37813363.098   198710570.899        3237.349          36.000  
  24645219.453   112181835.702        -675.507          33.000  
  24166303.658   104938884.773         205.517          35.000  
  22746144.630    89598783.912        6209.312          36.000  
  23999842.584    85159075.148        1098.558          36.000  
 15  2  5  9 49 45.9990000  0 14G23G 3G20G 9G17G 1G 6S20G 4S26G11G32
                                G10G31
  19947468.123   104824620.930        3429.952          50.000  
  20554813.663   108016245.401        1537.215          46.000  
  20222648.976   106270736.365        4788.088          47.000  
  20571578.627   108104355.733        5384.765          48.000  
  21718131.113   114129504.815        1291.196          44.000  
  22300867.781   117191808.420          -4.219          43.000  
  21434041.363   112636662.122        5841.056          44.000  
  37439504.092   196745891.487        3165.288          40.000  
  25173695.111   132288660.719        -488.406          32.000  
  37812747.489   198707335.145        3236.677          37.000  
  24645348.340   112182512.938        -678.248          33.000  
  24166264.326   104938679.258         205.819          35.000  
  22744963.860    89592575.509        6206.964          37.000  
  23999634.264    85157978.623        1098.061          35.000  
 15  2  5  9 49 46.9990000  0 14G23G 3G20G 9G17G 1G 6S20G 4S26G11G32
                                G10G31
  19946815.624   104821190.839        3430.134          51.000  
  20554520.936   108014707.877        1537.313          47.000  
  20221737.586   106265948.288        4788.108          47.000  
  20570553.810   108098971.110        5384.762          48.000  
  21717885.205   114128213.501        1291.379          45.000  
  22300868.584   117191812.605          -4.438          43.000  
  21432929.889   112630820.895        5840.857          44.000  
  37438901.745   196742725.965        3165.112          40.000  
  25173788.103   132289148.972        -488.917          33.000  
  37812131.723   198704099.016        3235.177          37.000  
  24645477.315   112183189.822        -676.986          33.000  
  24166225.970   104938473.467         205.919          35.000  
  22743782.673    89586366.909        6210.071          37.000  
  23999425.558    85156882.192        1096.712          35.000  
 15  2  5  9 49 47.9990000  0 14G23G 3G20G 9G17G 1G 6S20G 4S26G11G32
                                G10G31
  19946162.864   104817761.249        3428.870          51.000  
  20554228.383   108013170.596        1536.896          46.000  
  20220826.719   106261160.481        4787.025          47.000  
  20569529.220   108093586.923        5383.723          48.000  
  21717639.802   114126922.656        1289.679          45.000  
  22300869.177   117191817.032          -4.812          43.000  
  21431818.711   112624979.965        5839.926          44.000  
  37438299.486   196739560.564        3165.990          40.000  
  25173881.025   132289637.209        -488.825          32.000  
  37811516.114   198700862.899        3234.578          37.000  
  24645605.836   112183866.668        -676.103          33.000  
  24166186.271   104938267.631         206.178          35.000  
  22742601.083    89580158.457        6208.613          37.000  
  23999217.167    85155786.284        1094.968          35.000  
 15  2  5  9 49 48.9990000  0 14G23G 3G20G 9G17G 1G 6S20G 4S26G11G32
                                G10G31
  19945510.714   104814332.364        3428.988          51.000  
  20553935.882   108011633.738        1536.889          47.000  
  20219915.661   106256373.158        4787.868          47.000  
  20568504.631   108088203.390        5383.540          49.000  
  21717394.714   114125632.504        1289.688          45.000  
  22300869.840   117191821.916          -4.783          43.000  
  21430707.185   112619139.537        5840.191          44.000  
  37437697.244   196736395.246        3164.774          41.000  
  25173974.017   132290125.672        -489.454          33.000  
  37810900.191   198697626.831        3234.660          37.000  
  24645734.480   112184543.673        -673.732          34.000  
  24166146.571   104938061.984         205.191          35.000  
  22741420.367    89573950.298        6208.701          37.000  
  23999007.782    85154691.048        1094.899          36.000  
 15  2  5  9 49 49.9990000  0 14G23G 3G20G 9G17G 1G 6S20G 4S26G11G32
                                G10G31
  19944857.779   104810903.539        3427.972          50.000  
  20553643.643   108010096.666        1536.780          47.000  
  20219004.864   106251585.665        4786.927          47.000  
  20567480.285   108082819.847        5383.029          48.000  
  21717149.346   114124342.408        1289.233          45.000  
  22300871.183   117191826.591          -5.192          43.000  
  21429595.990   112613298.965        5839.958          44.000  
  37437094.758   196733229.323        3165.177          40.000  
  25174066.312   132290613.640        -488.944          33.000  
  37810284.182   198694390.526        3236.440          37.000  
  24645863.174   112185220.227        -677.370          34.000  
  24166107.484   104937855.857         207.422          35.000  
  22740238.725    89567741.830        6208.228          37.000  
  23998798.518    85153595.844        1093.368          35.000  
 15  2  5  9 49 50.9990000  0 14G23G 3G20G 9G17G 1G 6S20G 4S26G11G32
                                G10G31
  19944205.193   104807475.519        3427.469          51.000  
  20553351.404   108008560.128        1536.352          47.000  
  20218093.858   106246798.755        4786.253          47.000  
  20566455.992   108077437.058        5382.477          48.000  
  21716903.943   114123053.099        1288.585          44.000  
  22300872.125   117191831.811          -6.262          43.000  
  21428484.358   112607459.005        5839.767          44.000  
  37436492.202   196730063.570        3166.746          40.000  
  25174159.252   132291101.921        -487.900          33.000  
  37809667.875   198691154.353        3236.397          37.000  
  24645992.131   112185897.034        -676.767          34.000  
  24166068.604   104937649.999         205.208          35.000  
  22739057.729    89561533.753        6207.207          37.000  
  23998591.106    85152501.451        1094.490          35.000  
 15  2  5  9 49 51.9990000  0 14G23G 3G20G 9G17G 1G 6S20G 4S26G11G32
                                G10G31
  19943553.323   104804048.056        3426.972          50.000  
  20553059.183   108007023.871        1535.727          47.000  
  20217183.061   106242012.154        4786.168          47.000  
  20565431.751   108072054.749        5381.989          48.000  
  21716658.628   114121764.313        1288.741          44.000  
  22300872.946   117191837.301          -5.154          43.000  
  21427373.216   112601619.381        5839.322          44.000  
  37435889.907   196726897.850        3163.758          40.000  
  25174252.907   132291590.213        -488.963          33.000  
  37809052.123                3       3226.884          37.000  
  24646120.896   112186573.857        -676.356          34.000  
  24166028.608   104937444.186         206.669          35.000  
  22737876.088    89555325.874        6207.354          37.000  
  23998382.976    85151407.559        1092.822          35.000  
 15  2  5  9 49 52.9990000  0 14G23G 3G20G 9G17G 1G 6S20G 4S26G11G32
                                G10G31
  19942901.208   104800621.468        3427.003          50.000  
  20552767.206   108005488.226        1536.291          47.000  
  20216272.229   106237226.214        4786.050          47.000  
  20564407.982   108066673.249        5381.558          49.000  
  21716413.435   114120476.381        1287.795          44.000  
  22300874.272   117191843.435          -5.563          43.000  
  21426262.056   112595780.434        5839.925          44.000  
  37435287.299   196723732.449        3164.231          40.000  
  25174345.656   132292078.919        -487.302          33.000  
  37808436.151   198684672.1171       3236.239          37.000  
  24646249.766   112187251.045        -677.154          34.000  
  24165990.044   104937238.726         207.493          35.000  
  22736694.586    89549118.480        6208.705          37.000  
  23998174.638    85150314.515        1092.808          35.000  
 15  2  5  9 49 53.9990000  0 14G23G 3G20G 9G17G 1G 6S20G 4S26G11G32
                                G10G31
  19942249.355   104797195.282        3426.611          50.000  
  20552474.792   108003952.702        1535.720          47.000  
  20215361.590   106232440.440        4785.854          47.000  
  20563383.933   108061292.097        5381.136          49.000  
  21716168.381   114119188.841        1287.406          44.000  
  22300875.703   117191849.691          -6.618          43.000  
  21425151.262   112589941.686        5838.174          44.000  
  37434685.057   196720567.021        3163.922          40.000  
  25174438.892   132292567.525        -488.162          33.000  
  37807820.700   198681436.198        3237.506          37.000  
  24646378.845   112187928.099        -677.351          33.000  
  24165951.408   104937033.128         205.407          35.000  
  22735513.730    89542911.091        6207.792          37.000  
  23997967.208    85149221.868        1093.594          35.000  
 15  2  5  9 49 54.9990000  0 14G23G 3G20G 9G17G 1G 6S20G 4S26G11G32
                                G10G31
  19941597.589   104793769.151        3425.713          50.000  
  20552182.693   108002416.957        1535.937          47.000  
  20214450.601   106227654.489        4785.919          47.000  
  20562359.902   108055910.928        5381.203          49.000  
  21715923.485   114117901.339        1287.686          44.000  
  22300877.169   117191855.754          -5.953          43.000  
  21424039.857   112584102.800        5838.607          44.000  
  37434082.536   196717401.125        3165.547          40.000  
  25174531.744   132293055.635        -488.155          33.000  
  37807204.918   198678199.761        3240.512          37.000  
  24646507.891   112188604.609        -674.048          33.000  
  24165912.163   104936827.061         206.452          35.000  
  22734331.774    89536703.367        6207.921          37.000  
  23997759.130    85148129.265        1091.468          34.000  
 15  2  5  9 49 55.9990000  0 14G23G 3G20G 9G17G 1G 6S20G 4S26G11G32
                                G10G31
  19940945.230   104790343.230        3425.442          50.000  
  20551890.611   108000881.168        1535.870          47.000  
  20213540.014   106222868.532        4786.013          47.000  
  20561336.185   108050529.929        5380.579          49.000  
  21715678.536   114116614.024        1287.100          44.000  
  22300878.303   117191861.756          -6.389          42.000  
  21422928.977   112578263.920        5838.799          44.000  
  37433479.963   196714234.903        3166.548          40.000  
  25174624.562   132293543.443        -486.935          33.000  
  37806589.028   198674963.081        3234.757          36.000  
  24646636.009   112189280.3823       -676.882          33.000  
  24165872.551   104936620.675         206.986          35.000  
  22733150.027    89530495.477        6207.011          36.000  
  23997550.827    85147036.805        1090.375          34.000  
 15  2  5  9 49 56.9990000  0 14G23G 3G20G 9G17G 1G 6S20G 4S26G11G32
                                G10G31
  19940293.551   104786917.903        3424.708          50.000  
  20551598.425   107999345.688        1535.214          47.000  
  20212629.095   106218082.945        4784.918          47.000  
  20560312.223   108045149.460        5380.220          48.000  
  21715433.587   114115327.287        1285.540          44.000  
  22300879.559   117191868.111          -7.211          43.000  
  21421817.642   112572425.430        5837.951          44.000  
  37432877.389   196711068.831        3165.338          40.000  
  25174717.205   132294031.333        -488.833          33.000  
  37805972.758   198671726.567        3240.442          37.000  
  24646764.408   112189956.6602       -676.850          33.000  
  24165834.230   104936414.339         205.347          35.000  
  22731968.787    89524287.780        6205.686          36.000  
  23997343.152    85145944.940        1091.344          35.000  
 15  2  5  9 49 57.9990000  0 14G23G 3G20G 9G17G 1G 6S20G 4S26G11G32
                                G10G31
  19939641.925   104783493.623        3424.012          50.000  
  20551306.500   107997810.990        1534.874          47.000  
  20211718.874   106213298.167        4784.896          47.000  
  20559288.576   108039769.971        5379.610          49.000  
  21715188.673   114114041.576        1285.621          44.000  
  22300881.025   117191875.237          -7.319          43.000  
  21420706.726   112566587.783        5837.898          44.000  
  37432275.026   196707903.232        3166.507          40.000  
  25174810.006   132294519.763        -487.478          33.000  
  37805356.641   198668490.416        3235.763          37.000  
  24646893.278   112190633.5282       -676.368          33.000  
  24165795.125   104936208.531         206.884          35.000  
  22730787.513    89518080.772        6207.624          36.000  
  23997135.808    85144854.095        1090.742          34.000  
 15  2  5  9 49 58.9990000  0 14G23G 3G20G 9G17G 1G 6S20G 4S26G11G32
                                G10G31
  19938990.282   104780069.156        3424.580          50.000  
  20551014.279   107996275.835        1535.561          47.000  
  20210808.444   106208512.982        4785.518          47.000  
  20558264.562   108034390.239        5380.143          48.000  
  21714943.987   114112755.660        1286.688          44.000  
  22300882.020   117191881.928          -5.982          43.000  
  21419595.898   112560749.735        5838.690          44.000  
  37431672.190   196704737.066        3166.735          40.000  
  25174903.313   132295007.471        -486.061          33.000  
  37804740.648   198665253.192        3234.183          37.000  
  24647021.922   112191309.5962       -673.960          33.000  
  24165756.019   104936002.007         207.611          35.000  
  22729605.522    89511873.163        6208.508          35.000  
  23996928.744    85143763.056        1090.631          35.000  
 15  2  5  9 49 59.9990000  0 14G23G 3G20G 9G17G 1G 6S20G 4S26G11G32
                                G10G31
  19938338.656   104776645.207        3424.370          50.000  
  20550722.441   107994740.927        1535.088          47.000  
  20209897.874   106203728.094        4785.066          47.000  
  20557240.845   108029010.970        5379.709          48.000  
  21714699.666   114111470.257        1285.527          44.000  
  22300883.224   117191888.889          -6.395          43.000  
  21418484.807   112554912.033        5838.158          44.000  
  37431069.931   196701570.806        3167.067          40.000  
  25174995.763   132295495.196        -487.784          33.000  
  37804124.691   198662016.462        3237.044          36.000  
  24647150.372   112191985.6602       -675.965          33.000  
  24165717.157   104935795.462         206.836          35.000  
  22728424.125    89505665.714        6207.670          36.000  
  23996720.790    85142672.513        1089.887          34.000  
 15  2  5  9 50  0.9990000  0 14G23G 3G20G 9G17G 1G 6S20G 4S26G11G32
                                G10G31
  19937687.203   104773221.984        3422.390          50.000  
  20550430.429   107993206.455        1533.930          47.000  
  20208987.443   106198943.680        4783.889          47.000  
  20556217.703   108023632.357        5377.620          48.000  
  21714455.013   114110185.531        1284.027          44.000  
  22300884.636   117191896.290          -9.416          43.000  
  21417374.135   112549074.838        5836.733          44.000  
  37430467.253   196698404.612        3166.314          40.000  
  25175088.615   132295983.125        -490.108          32.000  
  37803509.012   198658779.695        3235.507          37.000  
  24647279.800   112192661.9162       -678.281          33.000  
  24165677.964   104935589.158         206.428          36.000  
  22727242.309    89499458.601        6207.750          35.000  
  23996512.765    85141582.648        1089.014          34.000  
 15  2  5  9 50  1.9990000  0 14G23G 3G20G 9G17G 1G 6S20G 4S26G11G32
                                G10G31
  19937035.699   104769799.655        3422.025          50.000  
  20550138.853   107991672.622        1533.581          47.000  
  20208077.414   106194159.932        4783.871          47.000  
  20555194.370   108018254.570        5377.397          48.000  
  21714210.465   114108901.681        1283.749          44.000  
  22300885.753   117191904.325          -9.210          43.000  
  21416263.533   112543238.315        5836.456          44.000  
  37429864.784   196695238.694        3166.967          40.000  
  25175181.329   132296470.9453       -488.408          33.000  
  37802893.055   198655542.861        3236.296          37.000  
  24647408.600   112193338.5362       -676.235          34.000  
  24165639.155   104935383.175         207.379          35.000  
  22726059.916    89493251.967        6206.260          35.000  
  23996304.829    85140493.664        1089.497          34.000  
 15  2  5  9 50  2.9990000  0 14G23G 3G20G 9G17G 1G 6S20G 4S26G11G32
                                G10G31
  19936384.352   104766378.008        3421.526          50.000  
  20549847.103   107990139.191        1533.614          47.000  
  20207167.089   106189376.653        4783.530          47.000  
  20554171.177   108012877.406        5377.328          48.000  
  21713966.302   114107618.508        1283.332          44.000  
  22300887.463   117191912.790          -8.175          43.000  
  21415153.158   112537402.305        5835.798          44.000  
  37429262.472   196692073.216        3165.124          40.000  
  25175274.408   132296959.4793       -488.674          33.000  
  37802277.394   198652306.578        3237.888          37.000  
  24647537.575   112194015.2822       -675.604          34.000  
  24165600.258   104935177.356         205.861          35.000  
  22724879.183    89487045.630        6207.092          35.000  
  23996098.932    85139405.335        1086.653          34.000  
 15  2  5  9 50  3.9990000  0 14G23G 3G20G 9G17G 1G 6S20G 4S26G11G32
                                G10G31
  19935733.564   104762957.016        3421.386          50.000  
  20549555.335   107988606.134        1532.811          47.000  
  20206256.937   106184593.797        4782.279          47.000  
  20553147.599   108007500.842        5376.499          48.000  
  21713722.522   114106335.969        1282.660          44.000  
  22300889.121   117191921.645          -9.067          43.000  
  21414042.696   112531566.746        5835.524          44.000  
  37428660.073   196688907.915        3166.753          40.000  
  25175367.470   132297448.1192       -489.794          33.000  
  37801661.662   198649070.681        3235.376          37.000  
  24647666.532   112194692.1772       -675.393          34.000  
  24165560.959   104934971.681         205.139          35.000  
  22723697.262    89480839.597        6205.831          35.000  
  23995892.025    85138317.657        1087.197          35.000  
 15  2  5  9 50  4.9990000  0 14G23G 3G20G 9G17G 1G 6S20G 4S26G11G32
                                G10G31
  19935082.653   104759536.587        3419.988          50.000  
  20549263.637   107987073.375        1532.062          47.000  
  20205346.891   106179811.267        4781.938          47.000  
  20552124.806   108002124.784        5375.488          48.000  
  21713478.655   114105053.970        1281.082          44.000  
  22300890.621   117191930.804         -10.060          43.000  
  21412932.373   112525731.534        5834.558          44.000  
  37428057.674   196685742.442        3165.010          40.000  
  25175459.799   132297936.8522       -487.932          33.000  
  37801046.019   198645834.739        3235.585          37.000  
  24647795.507   112195369.0892       -674.258          34.000  
  24165521.138   104934766.044         204.208          35.000  
  22722516.457    89474633.740        6205.177          35.000  
  23995685.799    85137230.479        1087.151          34.000  
 15  2  5  9 50  5.9990000  0 14G23G 3G20G 9G17G 1G 6S20G 4S26G11G32
                                G10G31
  19934431.882   104756116.367        3420.289          50.000  
  20548972.306   107985540.555        1533.209          47.000  
  20204436.758   106175028.720        4782.726          47.000  
  20551101.735   107996748.865        5376.408          48.000  
  21713234.404   114103772.169        1281.171          44.000  
  22300892.820   117191939.902          -9.339          43.000  
  21411821.842   112519896.333        5835.123          44.000  
  37427455.310   196682576.568        3164.981          40.000  
  25175553.019   132298425.2542       -487.340          33.000  
  37800430.287   198642598.142        3233.651          37.000  
  24647924.708   112196045.6592       -675.675          34.000  
  24165482.259   104934560.066         206.500          35.000  
  22721334.834    89468427.712        6207.423          35.000  
  23995478.926    85136143.500        1086.182          35.000  
 15  2  5  9 50  6.9990000  0 14G23G 3G20G 9G17G 1G 6S20G 4S26G11G32
                                G10G31
  19933780.954   104752696.168        3420.389          50.000  
  20548680.294   107984007.471        1533.153          47.000  
  20203526.554   106170245.964        4782.863          47.000  
  20550078.611   107991372.912        5375.852          49.000  
  21712990.712   114102490.363        1281.681          44.000  
  22300894.757   117191948.774          -8.598          43.000  
  21410711.450   112514060.945        5835.668          44.000  
  37426852.929   196679410.226        3167.470          40.000  
  25175645.854   132298913.1002       -486.054          33.000  
  37799814.261   198639361.237        3238.500          37.000  
  24648053.821   112196722.245        -678.239          34.000  
  24165442.508   104934353.591         207.701          35.000  
  22720153.821    89462221.293        6206.964          34.000  
  23995272.228    85135056.538        1087.144          35.000  
 15  2  5  9 50  7.9990000  0 14G23G 3G20G 9G17G 1G 6S20G 4S26G11G32
                                G10G31
  19933130.479   104749276.857        3418.131          50.000  
  20548388.665   107982475.004        1531.989          47.000  
  20202616.961   106165463.853        4781.953          47.000  
  20549055.592   107985997.769        5374.510          48.000  
  21712747.054   114101209.416        1279.823          44.000  
  22300896.432   117191958.252         -11.243          43.000  
  21409601.371   112508226.239        5834.067          44.000  
  37426250.443   196676244.351        3166.370          40.000  
  25175738.968   132299401.3592       -488.953          34.000  
  37799198.390   198636124.756        3235.873          37.000  
  24648182.691   112197398.655        -678.177          34.000  
  24165402.337   104934147.453         204.947          35.000  
  22718972.527    89456015.364        6202.953          34.000  
  23995066.245    85133970.413        1085.540          35.000  
 15  2  5  9 50  8.9990000  0 14G23G 3G20G 9G17G 1G 6S20G 4S26G11G32
                                G10G31
  19932479.935   104745858.576        3418.497          50.000  
  20548097.369   107980943.297        1532.018          47.000  
  20201707.107   106160682.551        4781.123          47.000  
  20548032.904   107980623.612        5374.414          49.000  
  21712503.327   114099929.482        1280.457          44.000  
  22300898.160   117191968.496         -10.311          43.000  
  21408491.537   112502392.383        5834.130          44.000  
  37425648.078   196673078.813        3166.285          40.000  
  25175832.257   132299890.1532       -486.894          34.000  
  37798582.397   198632888.836        3236.721          37.000  
  24648311.876   112198075.556        -675.940          34.000  
  24165363.371   104933941.822         205.402          35.000  
  22717791.567    89449810.118        6205.808          34.000  
  23994859.966    85132885.263        1084.654          35.000  
 15  2  5  9 50  9.9990000  0 14G23G 3G20G 9G17G 1G 6S20G 4S26G11G32
                                G10G31
  19931829.355   104742440.757        3416.356          50.000  
  20547805.758   107979411.794        1530.562          47.000  
  20200797.234   106155901.491        4780.058          47.000  
  20547010.356   107975249.857        5372.687          49.000  
  21712260.035   114098650.012        1277.975          44.000  
  22300900.253   117191978.977         -11.598          43.000  
  21407381.354   112496558.757        5832.270          45.000  
  37425045.679   196669913.275        3164.814          40.000  
  25175925.388   132300378.8032       -488.950          34.000  
  37797967.103   198629652.708        3236.719          37.000  
  24648440.430   112198752.390        -679.674          34.000  
  24165323.566   104933736.147         203.487          35.000  
  22716610.781    89443604.928        6206.300          34.000  
  23994654.455    85131800.614        1084.692          35.000  
 15  2  5  9 50 10.9990000  0 14G23G 3G20G 9G17G 1G 6S20G 4S26G11G32
                                G10G31
  19931179.073   104739023.881        3417.276          50.000  
  20547514.252   107977880.957        1530.588          47.000  
  20199887.677   106151121.148        4780.514          47.000  
  20545988.087   107969876.989        5372.930          49.000  
  21712016.465   114097371.450        1278.456          44.000  
  22300902.853   117191990.129         -10.845          43.000  
  21406271.625   112490725.908        5833.485          45.000  
  37424443.682   196666748.249        3165.738          40.000  
  25176018.834   132300868.0152       -488.599          34.000  
  37797351.057   198626416.838        3235.804          37.000  
  24648569.615   112199429.643        -678.540          34.000  
  24165285.107   104933530.895         207.123          35.000  
  22715430.238    89437400.282        6204.544          33.000  
  23994447.425    85130716.857        1084.008          35.000  
 15  2  5  9 50 11.9990000  0 14G23G 3G20G 9G17G 1G 6S20G 4S26G11G32
                                G10G31
  19930528.563   104735607.092        3416.748          50.000  
  20547222.990   107976349.928        1531.179          47.000  
  20198977.857   106146340.661        4780.390          47.000  
  20544965.923   107964504.138        5372.844          49.000  
  21711773.192   114096092.959        1278.818          44.000  
  22300904.633   117192001.089         -11.130          43.000  
  21405161.703   112484892.933        5832.524          44.000  
  37423841.509   196663582.733        3165.105          40.000  
  25176111.739   132301356.7592       -488.736          34.000  
  37796735.065   198623180.583        3236.236          37.000  
  24648698.416   112200106.472        -675.601          33.000  
  24165246.192   104933325.171         205.134          35.000  
  22714249.573    89431195.373        6204.354          33.000  
  23994240.658    85129633.194        1083.769          36.000  
 15  2  5  9 50 12.9990000  0 14G23G 3G20G 9G17G 1G 6S20G 4S26G11G32
                                G10G31
  19929878.752   104732190.937        3416.413          50.000  
  20546931.729   107974819.267        1531.301          47.000  
  20198067.706   106141560.565        4780.426          47.000  
  20543943.497   107959131.854        5372.420          49.000  
  21711529.883   114094815.075        1278.047          44.000  
  22300906.745   117192012.429         -11.376          43.000  
  21404051.625   112479060.381        5832.762          45.000  
  37423239.303   196660417.453        3167.231          41.000  
  25176205.115   132301846.103        -489.085          34.000  
  37796118.881   198619944.404        3237.362          37.000  
  24648827.791   112200783.335        -678.319          34.000  
  24165207.122   104933119.578         205.740          35.000  
  22713068.124    89424990.689        6204.188          33.000  
  23994034.937    85128550.121        1084.235          35.000  
 15  2  5  9 50 13.9990000  0 14G23G 3G20G 9G17G 1G 6S20G 4S26G11G32
                                G10G31
  19929228.556   104728775.636        3415.026          50.000  
  20546640.502   107973289.180        1529.774          47.000  
  20197158.218   106136781.103        4779.086          47.000  
  20542921.472   107953760.374        5370.999          49.000  
  21711287.028   114093538.028        1276.511          44.000  
  22300908.995   117192024.364         -12.707          43.000  
  21402941.739   112473228.486        5831.794          44.000  
  37422637.025   196657252.472        3164.648          40.000  
  25176298.299   132302335.254        -489.628          34.000  
  37795503.098   198616708.645        3239.455          37.000  
  24648956.662   112201460.544        -675.024          34.000  
  24165167.806   104932914.293         206.347          35.000  
  22711887.529    89418786.451        6202.898          33.000  
  23993828.988    85127467.846        1079.866          36.000  
 15  2  5  9 50 14.9990000  0 14G23G 3G20G 9G17G 1G 6S20G 4S26G11G32
                                G10G31
  19928578.849   104725361.448        3413.980          50.000  
  20546349.310   107971759.935        1529.015          47.000  
  20196248.887   106132002.528        4778.842          47.000  
  20541899.518   107948389.946        5370.101          49.000  
  21711044.155   114092262.077        1275.704          44.000  
  22300911.351   117192037.147         -12.668          43.000  
  21401831.939   112467397.504        5830.754          44.000  
  37422034.818   196654087.787        3164.989          40.000  
  25176391.500   132302825.045        -490.798          35.000  
  37794887.156   198613473.474        3234.813          37.000  
  24649085.443   112202138.342        -678.675          34.000  
  24165128.717   104932709.610         204.618          35.000  
  22710706.882    89412582.968        6203.103          33.000  
  23993622.797    85126386.689        1082.513          36.000  
 15  2  5  9 50 15.9990000  0 14G23G 3G20G 9G17G 1G 6S20G 4S26G11G32
                                G10G31
  19927929.196   104721947.017        3414.647          50.000  
  20546058.241   107970230.178        1530.573          47.000  
  20195339.661   106127223.474        4779.782          47.000  
  20540877.511   107943019.199        5370.768          49.000  
  21710800.952   114090985.845        1277.091          44.000  
  22300913.515   117192049.418         -11.154          43.000  
  21400721.914   112461566.077        5832.577          44.000  
  37421432.175   196650922.376        3164.934          40.000  
  25176484.931   132303314.059        -486.022          34.000  
  37794271.321   198610237.654        3236.369          37.000  
  24649214.366   112202815.342        -676.693          34.000  
  24165089.264   104932504.144         207.627          35.000  
  22709526.079    89406378.846        6204.769          34.000  
  23993418.192    85125305.246        1079.899          35.000  
 15  2  5  9 50 16.9990000  0 14G23G 3G20G 9G17G 1G 6S20G 4S26G11G32
                                G10G31
  19927279.698   104718532.812        3414.052          50.000  
  20545766.944   107968700.383        1530.098          47.000  
  20194429.859   106122444.419        4779.265          47.000  
  20539855.696   107937648.639        5370.246          49.000  
  21710558.149   114089709.845        1275.600          44.000  
  22300916.080   117192061.667         -11.824          43.000  
  21399612.220   112455734.676        5831.934          44.000  
  37420829.828   196647756.716        3163.711          41.000  
  25176578.218   132303802.758        -490.229          34.000  
  37793655.066   198607001.647        3235.313          37.000  
  24649343.166   112203492.044        -676.488          34.000  
  24165050.471   104932298.353         204.688          35.000  
  22708345.362    89400174.592        6204.030          34.000  
  23993213.066    85124224.040        1082.064          36.000  
 15  2  5  9 50 17.9990000  0 14G23G 3G20G 9G17G 1G 6S20G 4S26G11G32
                                G10G31
  19926630.166   104715119.444        3412.490          50.000  
  20545475.996   107967171.132        1528.598          47.000  
  20193520.632   106117665.971        4777.902          47.000  
  20538833.968   107932278.839        5369.069          49.000  
  21710315.451   114088434.643        1273.923          44.000  
  22300918.558   117192074.478         -13.650          43.000  
  21398502.420   112449903.910        5830.124          44.000  
  37420227.587   196644591.288        3166.498          40.000  
  25176671.524   132304291.827        -490.148          34.000  
  37793039.143   198603765.546        3235.223          37.000  
  24649471.984   112204169.044        -676.702          34.000  
  24165012.272   104932092.936         204.851          35.000  
  22707164.698    89393970.751        6204.578          33.000  
  23993007.432    85123143.622        1079.277          35.000  
 15  2  5  9 50 18.9990000  0 14G23G 3G20G 9G17G 1G 6S20G 4S26G11G32
                                G10G31
  19925980.756   104711706.225        3413.016          50.000  
  20545184.979   107965641.772        1528.762          47.000  
  20192611.214   106112887.434        4778.415          47.000  
  20537812.153   107926909.144        5369.008          49.000  
  21710072.719   114087159.595        1274.500          44.000  
  22300921.280   117192087.167         -13.536          43.000  
  21397393.023   112444073.099        5830.725          44.000  
  37419625.153   196641425.507        3165.194          40.000  
  25176764.813   132304780.527        -489.172          34.000  
  37792423.255   198600528.849        3234.183          37.000  
  24649600.766   112204845.647        -676.270          34.000  
  24164972.102   104931887.068         206.417          34.000  
  22705983.492    89387766.689        6202.659          33.000  
  23992801.187    85122063.341        1079.567          35.000  
 15  2  5  9 50 19.9990000  0 14G23G 3G20G 9G17G 1G 6S20G 4S26G11G32
                                G10G31
  19925331.119   104708293.524        3411.960          50.000  
  20544893.577   107964112.648        1528.481          47.000  
  20191702.075   106108109.200        4777.312          47.000  
  20536790.250   107921539.895        5367.957          49.000  
  21709830.405   114085885.027        1273.542          44.000  
  22300923.793   117192100.132         -13.516          43.000  
  21396283.380   112438242.608        5829.262          44.000  
  37419022.544   196638259.931        3165.001          40.000  
  25176858.277   132305269.244        -488.422          33.000  
  37791807.315   198597292.3903       3235.306          37.000  
  24649729.706   112205522.229        -676.368          35.000  
  24164933.241   104931681.233         206.197          34.000  
  22704802.793    89381562.804        6203.166          33.000  
  23992595.519    85120983.556        1077.805          36.000  
 15  2  5  9 50 20.9990000  0 14G23G 3G20G 9G17G 1G 6S20G 4S26G11G32
                                G10G31
  19924681.709   104704881.517        3411.972          50.000  
  20544603.014   107962583.955        1529.040          47.000  
  20190792.710   106103331.429        4777.655          47.000  
  20535768.435   107916171.280        5368.575          49.000  
  21709588.161   114084611.136        1274.071          44.000  
  22300926.288   117192113.521         -12.879          43.000  
  21395173.721   112432412.590        5830.227          44.000  
  37418420.390   196635094.563        3165.531          40.000  
  25176951.077   132305758.048        -488.470          33.000  
  37791191.637   198594056.449        3236.063          37.000  
  24649858.454   112206198.970        -676.873          35.000  
  24164894.187   104931475.535         206.858          35.000  
  22703622.303    89375359.128        6203.583          33.000  
  23992389.589    85119904.427        1078.634          36.000  
 15  2  5  9 50 21.9990000  0 14G23G 3G20G 9G17G 1G 6S20G 4S26G11G32
                                G10G31
  19924032.857   104701469.906        3410.959          50.000  
  20544312.153   107961055.371        1527.970          47.000  
  20189883.448   106098553.813        4777.102          47.000  
  20534746.864   107910803.001        5367.483          49.000  
  21709346.004   114083337.609        1273.124          44.000  
  22300928.713   117192127.043         -14.356          43.000  
  21394064.463   112426582.782        5829.680          44.000  
  37417818.044   196631928.909        3167.193          39.000  
  25177044.279   132306246.814        -487.336          33.000  
  37790575.801   198590820.210        3236.114          37.000  
  24649987.567   112206875.595        -678.299          34.000  
  24164855.081   104931269.722         206.447          35.000  
  22702441.865    89369155.519        6201.980          33.000  
  23992184.461    85118825.661        1077.701          35.000  
 15  2  5  9 50 22.9990000  0 14G23G 3G20G 9G17G 1G 6S20G 4S26G11G32
                                G10G31
  19923383.674   104698058.434        3411.105          50.000  
  20544021.154   107959526.644        1528.883          47.000  
  20188974.467   106093776.108        4778.055          47.000  
  20533725.259   107905434.804        5368.080          49.000  
  21709103.655   114082064.214        1273.542          44.000  
  22300931.541   117192140.432         -13.273          43.000  
  21392955.100   112420752.897        5829.047          44.000  
  37417215.523   196628762.820        3168.073          40.000  
  25177137.168   132306735.195        -485.457          33.000  
  37789959.808   198587583.272        3236.663          37.000  
  24650116.455   112207551.763        -676.722          35.000  
  24164816.044   104931063.496         204.463          34.000  
  22701261.184    89362951.672        6203.589          33.000  
  23991979.107    85117746.994        1077.838          35.000  
 15  2  5  9 50 23.9990000  0 14G23G 3G20G 9G17G 1G 6S20G 4S26G11G32
                                G10G31
  19922734.508   104694647.743        3410.513          50.000  
  20543730.328   107957998.446        1527.910          47.000  
  20188065.467   106088998.954        4777.073          47.000  
  20532703.967   107900067.323        5367.296          49.000  
  21708861.620   114080791.546        1272.072          44.000  
  22300934.263   117192154.350         -14.034          43.000  
  21391845.581   112414923.596        5829.060          44.000  
  37416612.792   196625596.918        3165.542          40.000  
  25177229.566   132307223.812        -486.539          33.000  
  37789343.816   198584346.642        3237.775          37.000  
  24650245.255   112208228.206        -676.470          34.000  
  24164777.009   104930857.523         206.718          34.000  
  22700080.642    89356748.222        6203.129          33.000  
  23991773.247    85116669.099        1078.663          35.000  
 15  2  5  9 50 24.9990000  0 14G23G 3G20G 9G17G 1G 6S20G 4S26G11G32
                                G10G31
  19922085.482   104691237.576        3409.954          50.000  
  20543439.485   107956470.490        1528.271          47.000  
  20187156.451   106084222.108        4777.354          47.000  
  20531682.519   107894700.300        5367.615          49.000  
  21708619.621   114079519.418        1272.510          44.000  
  22300936.985   117192168.521         -13.816          43.000  
  21390736.288   112409094.625        5828.942          44.000  
  37416010.237   196622430.983        3167.768          40.000  
  25177322.348   132307712.402        -488.389          33.000  
  37788727.718   198581110.326        3235.328          37.000  
  24650373.760   112208904.661        -673.636          34.000  
  24164737.694   104930651.611         206.435          34.000  
  22698900.135    89350544.899        6204.120          32.000  
  23991569.184    85115591.704        1076.495          35.000  
 15  2  5  9 50 25.9990000  0 14G23G 3G20G 9G17G 1G 6S20G 4S26G11G32
                                G10G31
  19921436.613   104687828.224        3409.902          50.000  
  20543148.904   107954943.069        1528.187          47.000  
  20186247.887   106079445.835        4776.641          47.000  
  20530661.558   107889334.025        5366.430          49.000  
  21708377.481   114078248.078        1271.625          44.000  
  22300939.934   117192183.243         -13.524          43.000  
  21389627.448   112403266.271        5829.180          44.000  
  37415407.784   196619265.280        3165.815          40.000  
  25177415.603   132308201.366        -486.792          33.000  
  37788112.248   198577874.125        3232.762          37.000  
  24650502.524   112209581.363        -675.963          34.000  
  24164698.849   104930445.914         206.805          34.000  
  22697720.116    89344341.989        6204.224          33.000  
  23991364.388    85114515.087        1075.837          35.000  
 15  2  5  9 50 26.9990000  0 14G23G 3G20G 9G17G 1G 6S20G 4S26G11G32
                                G10G31
  19920787.761   104684419.103        3408.384          50.000  
  20542858.515   107953415.614        1527.245          47.000  
  20185338.661   106074669.574        4775.323          47.000  
  20529640.284   107883967.938        5365.622          49.000  
  21708135.586   114076976.936        1270.263          44.000  
  22300942.743   117192197.943         -14.817          43.000  
  21388518.539   112397437.950        5827.556          45.000  
  37414805.873   196616099.543        3163.056          40.000  
  25177508.612   132308689.4833       -487.899          34.000  
  37787496.256   198574637.3301       3235.520          37.000  
  24650630.957   112210257.752        -677.675          34.000  
  24164659.726   104930239.963         206.398          34.000  
  22696539.155    89338138.930        6202.816          33.000  
  23991159.557    85113438.667        1075.938          35.000  
 15  2  5  9 50 27.9990000  0 14G23G 3G20G 9G17G 1G 6S20G 4S26G11G32
                                G10G31
  19920139.084   104681010.704        3408.466          50.000  
  20542568.335   107951888.611        1527.400          47.000  
  20184429.993   106069893.802        4775.849          47.000  
  20528619.272   107878602.501        5365.708          49.000  
  21707893.883   114075706.504        1270.339          44.000  
  22300945.779   117192213.106         -15.376          43.000  
  21387409.735   112391610.152        5828.576          45.000  
  37414203.510   196612934.049        3166.202          40.000  
  25177601.621   132309178.3922       -489.486          33.000  
  37786880.595   198571400.843        3235.066          37.000  
  24650759.479   112210934.344        -675.685          34.000  
  24164619.974   104930034.166         204.722          34.000  
  22695358.840    89331936.251        6204.063          33.000  
  23990953.766    85112362.981        1075.255          35.000  
 15  2  5  9 50 28.9990000  0 14G23G 3G20G 9G17G 1G 6S20G 4S26G11G32
                                G10G31
  19919490.686   104677602.536        3407.706          50.000  
  20542277.841   107950361.564        1526.005          48.000  
  20183521.325   106065118.031        4775.257          48.000  
  20527597.980   107873237.240        5364.732          49.000  
  21707651.988   114074436.260        1270.121          44.000  
  22300948.414   117192228.219         -15.590          43.000  
  21386300.913   112385782.366        5827.375          45.000  
  37413600.657   196609768.054        3164.780          40.000  
  25177694.928   132309666.9882       -487.714          33.000  
  37786265.231   198568164.313        3236.458          37.000  
  24650888.035   112211610.594        -674.463          34.000  
  24164580.746   104929828.100         206.325          34.000  
  22694178.577    89325733.346        6202.404          33.000  
  23990749.545    85111287.514        1072.892          35.000  
 15  2  5  9 50 29.9990000  0 14G23G 3G20G 9G17G 1G 6S20G 4S26G11G32
                                G10G31
  19918842.480   104674194.963        3407.082          50.000  
  20541987.033   107948834.843        1526.193          48.000  
  20182612.727   106060342.623        4775.328          47.000  
  20526577.666   107867872.508        5364.535          49.000  
  21707410.477   114073166.627        1269.456          44.000  
  22300951.311   117192243.685         -15.830          43.000  
  21385191.724   112379955.009        5826.908          45.000  
  37412998.328   196606602.091        3165.820          39.000  
  25177787.605   132310155.6542       -489.726          33.000  
  37785649.482   198564927.776        3235.925          37.000  
  24651016.781   112212286.933        -677.540          34.000  
  24164541.710   104929622.083         206.195          35.000  
  22692997.982    89319530.701        6201.187          33.000  
  23990544.837    85110212.527        1074.430          35.000  
 15  2  5  9 50 30.9990000  0 14G23G 3G20G 9G17G 1G 6S20G 4S26G11G32
                                G10G31
  19918194.170   104670787.820        3406.183          50.000  
  20541696.644   107947308.269        1525.279          48.000  
  20181703.850   106055567.413        4774.580          47.000  
  20525556.670   107862508.151        5362.982          49.000  
  21707168.878   114071897.364        1268.297          44.000  
  22300954.696   117192259.299         -16.486          43.000  
  21384082.641   112374127.856        5826.021          45.000  
  37412395.981   196603435.958        3164.883          40.000  
  25177880.423   132310644.1892       -491.019          34.000  
  37785033.542   198561690.943        3236.077          37.000  
  24651145.513   112212963.151        -673.797          34.000  
  24164502.586   104929415.967         204.165          34.000  
  22691817.545    89313327.5603       6202.334          33.000  
  23990340.478    85109138.019        1074.330          35.000  
 15  2  5  9 50 31.9990000  0 14G23G 3G20G 9G17G 1G 6S20G 4S26G11G32
                                G10G31
  19917545.894   104667381.305        3406.297          50.000  
  20541406.255   107945782.054        1526.774          48.000  
  20180795.688   106050792.606        4775.027          47.000  
  20524535.938   107857144.372        5364.018          49.000  
  21706927.873   114070628.722        1269.075          44.000  
  22300957.436   117192275.289         -15.708          43.000  
  21382973.837   112368301.138        5827.179          45.000  
  37411793.809   196600270.067        3164.909          40.000  
  25177973.783   132311132.9222       -487.118          33.000  
  37784417.689   198558454.285        3235.278          37.000  
  24651273.736   112213639.440        -675.964          35.000  
  24164463.707   104929209.967         205.127          34.000  
  22690637.893    89307125.1792       6202.971          33.000  
  23990136.748    85108064.095        1076.709          35.000  
 15  2  5  9 50 32.9990000  0 14G23G 3G20G 9G17G 1G 6S20G 4S26G11G32
                                G10G31
  19916897.618   104663975.467        3405.698          50.000  
  20541116.215   107944256.252        1526.270          48.000  
  20179887.003   106046018.245        4774.535          47.000  
  20523515.361   107851781.210        5362.738          49.000  
  21706686.484   114069360.759        1268.001          44.000  
  22300960.245   117192291.702         -16.158          43.000  
  21381865.364   112362474.910        5826.151          45.000  
  37411191.254   196597104.380        3167.740          39.000  
  25178066.949   132311621.7652       -488.631          33.000  
  37783801.940   198555217.9031       3233.837          37.000  
  24651402.781   112214315.889        -676.029          35.000  
  24164424.426   104929004.076         204.224          34.000  
  22689457.700    89300923.1232       6205.064          33.000  
  23989931.794    85106990.821        1074.384          35.000  
 15  2  5  9 50 33.9990000  0 14G23G 3G20G 9G17G 1G 6S20G 4S26G11G32
                                G10G31
  19916249.447   104660570.136        3405.391          50.000  
  20540826.000   107942730.693        1525.512          48.000  
  20178978.457   106041244.175        4773.667          47.000  
  20522494.628   107846418.510        5362.379          49.000  
  21706445.270   114068093.269        1267.836          44.000  
  22300963.403   117192308.368         -16.794          43.000  
  21380757.101   112356648.991        5826.743          45.000  
  37410588.768   196593938.484        3167.496          39.000  
  25178160.116   132312110.5972       -487.951          33.000  
  37783186.297   198551981.736        3235.672          37.000  
  24651531.302   112214992.327        -676.287          35.000  
  24164385.305   104928798.225         208.222          34.000  
  22688277.785    89294721.2092       6202.372          33.000  
  23989728.027    85105918.082        1073.712          35.000  
 15  2  5  9 50 34.9990000  0 14G23G 3G20G 9G17G 1G 6S20G 4S26G11G32
                                G10G31
  19915601.642   104657165.643        3404.092          50.000  
  20540535.785   107941205.684        1524.279          48.000  
  20178069.928   106036470.712        4772.675          47.000  
  20521474.663   107841056.571        5361.419          49.000  
  21706204.072   114066826.600        1265.628          44.000  
  22300966.806   117192325.586         -17.648          43.000  
  21379648.470   112350823.705        5824.734          45.000  
  37409986.228   196590772.940        3165.067          40.000  
  25178253.282   132312599.7542       -488.472          33.000  
  37782570.496   198548745.464        3236.654          37.000  
  24651660.188   112215669.051        -678.919          35.000  
  24164345.709   104928592.698         204.633          34.000  
  22687097.679    89288519.6872       6201.396          34.000  
  23989523.876    85104846.064        1071.086          35.000  
 15  2  5  9 50 35.9990000  0 14G23G 3G20G 9G17G 1G 6S20G 4S26G11G32
                                G10G31
  19914954.239   104653761.672        3404.300          50.000  
  20540245.728   107939680.940        1525.530          48.000  
  20177162.029   106031697.562        4774.070          47.000  
  20520454.209   107835695.116        5361.746          49.000  
  21705962.823   114065560.437        1266.520          44.000  
  22300970.209   117192343.095         -16.821          43.000  
  21378540.050   112344998.761        5825.436          45.000  
  37409383.969   196587607.435        3165.145          40.000  
  25178346.030   132313089.0052       -488.984          34.000  
  37781954.470   198545508.944        3240.872          37.000  
  24651789.060   112216345.781        -673.166          35.000  
  24164306.534   104928387.100         207.749          34.000  
  22685917.922    89282318.3642       6200.999          34.000  
  23989319.952    85103774.607        1069.294          35.000  
 15  2  5  9 50 36.9990000  0 14G23G 3G20G 9G17G 1G 6S20G 4S26G11G32
                                G10G31
  19914306.574   104650357.823        3403.815          50.000  
  20539955.199   107938156.047        1525.068          48.000  
  20176253.448   106026924.297        4773.342          47.000  
  20519434.104   107830333.712        5360.952          49.000  
  21705721.608   114064294.363        1265.892          44.000  
  22300973.577   117192360.467         -17.113          43.000  
  21377431.681   112339173.729        5824.554          45.000  
  37408781.536   196584441.550        3166.542          40.000  
  25178439.441   132313578.277        -489.013          33.000  
  37781337.988   198542271.956        3238.147          37.000  
  24651917.876   112217022.060        -676.353          35.000  
  24164267.428   104928181.149         207.264          34.000  
  22684738.166    89276116.7872       6202.426          34.000  
  23989116.064    85102703.250        1070.085          35.000  
 15  2  5  9 50 37.9990000  0 14G23G 3G20G 9G17G 1G 6S20G 4S26G11G32
                                G10G31
  19913658.996   104646954.888        3401.737          50.000  
  20539665.176   107936631.782        1523.301          48.000  
  20175345.426   106022151.721        4771.715          47.000  
  20518413.719   107824973.160        5359.125          49.000  
  21705480.952   114063029.192        1264.331          44.000  
  22300977.101   117192378.478         -19.367          43.000  
  21376323.191   112333349.429        5823.813          45.000  
  37408179.119   196581276.078        3165.885          41.000  
  25178532.816   132314067.445        -491.726          33.000  
  37780722.413   198539035.849        3234.264          37.000  
  24652046.483   112217698.740        -678.897          35.000  
  24164228.287   104927975.562         206.414          34.000  
  22683558.478    89269915.6892       6200.333          34.000  
  23988911.599    85101632.719        1068.260          35.000  
 15  2  5  9 50 38.9990000  0 14G23G 3G20G 9G17G 1G 6S20G 4S26G11G32
                                G10G31
  19913011.541   104643552.637        3401.928          50.000  
  20539375.468   107935107.946        1524.574          48.000  
  20174437.124   106017379.590        4771.818          47.000  
  20517393.614   107819613.243        5359.641          49.000  
  21705240.209   114061764.676        1264.213          44.000  
  22300980.277   117192396.890         -18.237          43.000  
  21375215.416   112327525.598        5824.167          45.000  
  37407576.930   196578110.732        3167.833          40.000  
  25178625.739   132314556.795        -490.151          34.000  
  37780107.206   198535800.216        3236.981          37.000  
  24652175.073   112218375.574        -680.174          35.000  
  24164189.302   104927770.140         204.699          34.000  
  22682378.914    89263714.8832       6201.697          34.000  
  23988708.131    85100562.877        1071.946          35.000  
 15  2  5  9 50 39.9990000  0 14G23G 3G20G 9G17G 1G 6S20G 4S26G11G32
                                G10G31
  19912364.259   104640150.638        3401.319          50.000  
  20539085.515   107933584.072        1523.495          48.000  
  20173528.893   106012607.488        4771.285          47.000  
  20516373.841   107814253.501        5358.641          49.000  
  21704999.954   114060500.392        1263.314          44.000  
  22300983.662   117192415.309         -19.182          43.000  
  21374106.943   112321701.827        5822.879          45.000  
  37406974.251   196574945.139        3165.107          40.000  
  25178719.150   132315045.930        -489.782          34.000  
  37779490.865   198532564.011        3237.983          37.000  
  24652303.561   112219052.106        -674.823          35.000  
  24164150.371   104927564.420         206.262          34.000  
  22681199.260    89257513.9782       6198.981          34.000  
  23988504.539    85099493.266        1069.636          35.000  
 15  2  5  9 50 40.9990000  0 14G23G 3G20G 9G17G 1G 6S20G 4S26G11G32
                                G10G31
  19911716.944   104636749.411        3401.712          50.000  
  20538795.266   107932060.710        1524.110          48.000  
  20172621.220   106007835.936        4772.110          47.000  
  20515354.138   107808894.487        5360.076          49.000  
  21704759.647   114059236.857        1263.898          44.000  
  22300986.996   117192434.245         -17.526          43.000  
  21372998.837   112315878.612        5823.952          45.000  
  37406371.975   196571779.722        3167.199          40.000  
  25178812.719   132315535.224        -487.976          33.000  
  37778875.168   198529327.557        3235.622          37.000  
  24652432.902   112219728.908        -675.164          35.000  
  24164110.776   104927358.960         203.986          34.000  
  22680019.557    89251313.4642       6200.912          34.000  
  23988300.039    85098424.416        1068.060          35.000  
 15  2  5  9 50 41.9990000  0 14G23G 3G20G 9G17G 1G 6S20G 4S26G11G32
                                G10G31
  19911069.924   104633348.448        3400.120          50.000  
  20538505.347   107930537.332        1522.112          48.000  
  20171713.075   106003064.411        4770.315          48.000  
  20514334.259   107803535.671        5357.474          49.000  
  21704519.217   114057973.565        1262.098          44.000  
  22300990.607   117192453.164         -19.351          43.000  
  21371890.434   112310055.486        5822.823          45.000  
  37405769.523   196568614.057        3164.189          40.000  
  25178905.920   132316024.376        -490.232          33.000  
  37778259.244   198526090.844        3233.608          37.000  
  24652561.561   112220405.417        -680.180          35.000  
  24164071.949   104927153.268         204.039          34.000  
  22678840.462    89245112.7842       6199.980          35.000  
  23988095.644    85097355.747        1067.568          35.000  
 15  2  5  9 50 42.9990000  0 14G23G 3G20G 9G17G 1G 6S20G 4S26G11G32
                                G10G31
  19910422.940   104629948.742        3399.894          50.000  
  20538215.394   107929014.940        1522.564          48.000  
  20170805.507   105998293.933        4770.534          48.000  
  20513314.800   107798178.062        5357.441          49.000  
  21704279.154   114056711.501        1261.867          44.000  
  22300994.028   117192473.086         -19.271          43.000  
  21370782.415   112304233.417        5822.335          45.000  
  37405167.333   196565449.003        3165.205          39.000  
  25178999.087   132316514.156        -489.753          33.000  
  37777643.655   198522855.063        3237.468          37.000  
  24652690.310   112221082.610        -675.948          35.000  
  24164032.756   104926948.281         204.660          34.000  
  22677661.351    89238913.536        6199.887          35.000  
  23987891.826    85096288.350        1067.801          35.000  
 15  2  5  9 50 43.9990000  0 14G23G 3G20G 9G17G 1G 6S20G 4S26G11G32
                                G10G31
  19909776.339   104626549.327        3399.058          50.000  
  20537925.738   107927492.564        1522.114          48.000  
  20169897.833   105993523.505        4770.125          47.000  
  20512295.218   107792820.667        5357.372          49.000  
  21704039.109   114055449.706        1261.267          44.000  
  22300997.639   117192493.036         -20.202          43.000  
  21369674.326   112298411.425        5822.562          44.000  
  37404565.231   196562283.818        3166.420          40.000  
  25179091.975   132317003.781        -487.579          33.000  
  37777027.783   198519619.121        3236.187          37.000  
  24652819.389   112221759.582        -677.912          35.000  
  24163993.599   104926743.019         206.133          35.000  
  22676482.275    89232713.667        6201.342          35.000  
  23987689.508    85095221.207        1068.372          35.000  
 15  2  5  9 50 44.9990000  0 14G23G 3G20G 9G17G 1G 6S20G 4S26G11G32
                                G10G31
  19909129.564   104623150.628        3398.958          50.000  
  20537636.483   107925970.629        1522.474          48.000  
  20168990.440   105988753.572        4770.056          47.000  
  20511276.056   107787463.944        5357.012          49.000  
  21703799.029   114054188.612        1261.156          44.000  
  22301001.775   117192513.443         -19.938          43.000  
  21368566.481   112292589.962        5821.238          44.000  
  37403962.956   196559118.913        3169.332          39.000  
  25179185.175   132317493.604        -491.955          33.000  
  37776411.860   198516383.318        3235.482          37.000  
  24652948.399   112222436.681        -674.795          35.000  
  24163954.667   104926537.999         204.896          35.000  
  22675302.727    89226514.133        6198.430          35.000  
  23987487.260    85094154.774        1067.073          35.000  
 15  2  5  9 50 45.9990000  0 14G23G 3G20G 9G17G 1G 6S20G 4S26G11G32
                                G10G31
  19908482.492   104619751.841        3398.284          50.000  
  20537346.530   107924448.353        1521.686          48.000  
  20168082.505   105983983.320        4770.005          48.000  
  20510256.876   107782107.061        5356.942          49.000  
  21703559.315   114052927.407        1260.253          44.000  
  22301005.422   117192533.503         -20.879          43.000  
  21367458.445   112286768.213        5821.503          44.000  
  37403360.607   196555953.468        3164.965          40.000  
  25179278.220   132317982.833        -489.929          33.000  
  37775796.164   198513146.974        3235.552          37.000  
  24653076.868   112223113.218        -674.299          35.000  
  24163915.840   104926332.390         206.066          34.000  
  22674122.971    89220314.109        6199.915          35.000  
  23987283.528    85093088.215        1065.547          35.000  
 15  2  5  9 50 46.9990000  0 14G23G 3G20G 9G17G 1G 6S20G 4S26G11G32
                                G10G31
  19907835.839   104616353.153        3398.014          51.000  
  20537056.961   107922925.889        1522.046          48.000  
  20167174.675   105979212.936        4770.343          48.000  
  20509237.416   107776750.240        5356.175          49.000  
  21703319.095   114051666.263        1260.925          44.000  
  22301009.139   117192553.392         -20.744          43.000  
  21366350.373   112280946.359        5821.147          44.000  
  37402758.138   196552787.341        3163.525          40.000  
  25179371.195   132318471.0553       -489.899          33.000  
  37775180.469   198509910.493        3236.855          37.000  
  24653205.406   112223789.281        -675.220          35.000  
  24163876.455   104926126.274         205.742          34.000  
  22672943.545    89214113.827        6198.652          36.000  
  23987081.211    85092021.728        1067.260          35.000  
 15  2  5  9 50 47.9990000  0 14G23G 3G20G 9G17G 1G 6S20G 4S26G11G32
                                G10G31
  19907189.291   104612955.231        3397.336          51.000  
  20536767.095   107921403.926        1521.185          47.000  
  20166266.827   105974443.108        4768.958          48.000  
  20508218.236   107771394.123        5355.511          49.000  
  21703079.294   114050405.895        1259.896          44.000  
  22301013.344   117192573.782         -20.710          43.000  
  21365242.389   112275125.089        5820.318          44.000  
  37402155.566   196549621.340        3166.962          40.000  
  25179464.083   132318960.0962       -488.559          33.000  
  37774563.987   198506673.769        3235.169          37.000  
  24653334.538   112224465.598        -674.704          35.000  
  24163837.523   104925920.406         204.462          34.000  
  22671764.172    89207913.963        6198.454          36.000  
  23986878.822    85090956.000        1064.477          35.000  
 15  2  5  9 50 48.9990000  0 14G23G 3G20G 9G17G 1G 6S20G 4S26G11G32
                                G10G31
  19906542.970   104609558.009        3397.270          51.000  
  20536477.387   107919882.366        1521.645          47.000  
  20165359.607   105969673.721        4769.179          48.000  
  20507198.812   107766038.628        5355.557          49.000  
  21702840.017   114049146.155        1259.936          44.000  
  22301016.992   117192594.602         -19.911          43.000  
  21364134.754   112269304.298        5821.226          44.000  
  37401552.765   196546455.531        3165.648          40.000  
  25179557.162   132319449.3362       -490.832          33.000  
  37773947.994   198503437.018        3235.885          37.000  
  24653463.110   112225142.047        -677.293          35.000  
  24163798.226   104925714.730         204.977          34.000  
  22670584.642    89201714.347        6199.214          36.000  
  23986675.754    85089890.884        1063.877          35.000  
 15  2  5  9 50 49.9990000  0 14G23G 3G20G 9G17G 1G 6S20G 4S26G11G32
                                G10G31
  19905896.561   104606161.095        3396.856          51.000  
  20536188.062   107918360.866        1521.340          48.000  
  20164451.725   105964904.433        4769.608          48.000  
  20506180.138   107760683.393        5355.622          49.000  
  21702600.355   114047886.735        1259.865          44.000  
  22301020.674   117192615.471         -20.618          43.000  
  21363027.188   112263483.639        5820.632          44.000  
  37400950.523   196543289.657        3165.312          40.000  
  25179649.927   132319938.3392       -490.384          33.000  
  37773331.951   198500200.168        3239.350          37.000  
  24653592.189   112225818.265        -678.421          35.000  
  24163759.242   104925508.807         205.976          34.000  
  22669406.002    89195514.675        6200.018          36.000  
  23986472.791    85088826.104        1065.765          35.000  
 15  2  5  9 50 50.9990000  0 14G23G 3G20G 9G17G 1G 6S20G 4S26G11G32
                                G10G31
  19905250.292   104602764.814        3396.142          51.000  
  20535898.336   107916839.702        1521.546          47.000  
  20163544.488   105960135.542        4768.855          48.000  
  20505161.185   107755328.736        5355.042          49.000  
  21702360.449   114046627.910        1259.034          44.000  
  22301024.879   117192636.716         -20.810          43.000  
  21361919.518   112257663.410        5820.235          44.000  
  37400347.845   196540123.921        3165.614          39.000  
  25179743.007   132320427.4413       -490.213          34.000  
  37772716.027   198496963.731        3237.347          37.000  
  24653721.007   112226494.576        -677.171          36.000  
  24163720.119   104925303.010         206.956          34.000  
  22668226.473    89189315.247        6201.102          36.000  
  23986269.601    85087761.930        1065.733          36.000  
 15  2  5  9 50 51.9990000  0 14G23G 3G20G 9G17G 1G 6S20G 4S26G11G32
                                G10G31
  19904604.320   104599369.134        3395.708          51.000  
  20535608.732   107915318.891        1520.195          47.000  
  20162637.286   105955367.042        4768.528          48.000  
  20504142.353   107749974.607        5353.572          49.000  
  21702121.049   114045369.669        1257.792          44.000  
  22301028.945   117192658.285         -21.847          42.000  
  21360811.900   112251843.583        5819.282          44.000  
  37399745.742   196536958.234        3164.011          40.000  
  25179836.226   132320916.6642       -488.729          33.000  
  37772100.610   198493727.486        3237.704          37.000  
  24653849.721   112227170.964        -674.098          35.000  
  24163680.577   104925097.302         206.030          34.000  
  22667046.715    89183116.022        6199.808          36.000  
  23986067.875    85086698.296        1062.724          35.000  
 15  2  5  9 50 52.9990000  0 14G23G 3G20G 9G17G 1G 6S20G 4S26G11G32
                                G10G31
  19903958.173   104595973.922        3394.529          51.000  
  20535319.128   107913798.256        1520.184          47.000  
  20161729.735   105950598.778        4768.078          48.000  
  20503123.592   107744620.898        5353.422          49.000  
  21701881.859   114044111.874        1256.733          44.000  
  22301033.115   117192680.069         -22.766          42.000  
  21359704.509   112246024.026        5819.271          44.000  
  37399143.466   196533792.453        3165.097          40.000  
  25179929.324   132321405.8652       -486.805          33.000  
  37771484.739   198490490.950        3234.344          37.000  
  24653978.485   112227847.259        -676.581          35.000  
  24163641.400   104924891.533         204.639          34.000  
  22665867.481    89176916.912        6197.917          36.000  
  23985866.430    85085635.135        1063.334          35.000  
 15  2  5  9 50 53.9990000  0 14G23G 3G20G 9G17G 1G 6S20G 4S26G11G32
                                G10G31
  19903312.131   104592579.013        3394.389          51.000  
  20535030.013   107912277.659        1520.118          47.000  
  20160822.079   105945830.581        4767.110          48.000  
  20502104.935   107739267.431        5352.586          49.000  
  21701642.337   114042854.365        1256.373          44.000  
  22301037.233   117192701.908         -22.473          42.000  
  21358597.293   112240204.574        5818.567          44.000  
  37398541.207   196530626.485        3167.299          39.000  
  25180021.775   132321894.7532       -488.532          32.000  
  37770868.624   198487254.281        3235.070          37.000  
  24654107.128   112228523.361        -677.385          36.000  
  24163602.243   104924685.511         207.503          34.000  
  22664687.742    89170717.715        6197.620          36.000  
  23985664.879    85084572.245        1061.349          35.000  
 15  2  5  9 50 54.9990000  0 14G23G 3G20G 9G17G 1G 6S20G 4S26G11G32
                                G10G31
  19902666.176   104589184.605        3393.534          51.000  
  20534740.584   107910757.299        1520.019          47.000  
  20159915.069   105941062.653        4766.856          48.000  
  20501086.313   107733914.404        5352.195          49.000  
  21701403.025   114041597.319        1256.689          44.000  
  22301041.177   117192723.973         -23.314          42.000  
  21357490.007   112234385.425        5819.052          44.000  
  37397938.964   196527460.385        3164.535          39.000  
  25180114.540   132322383.6782       -487.252          32.000  
  37770252.614   198484017.315        3235.169          37.000  
  24654235.893   112229199.342        -677.287          35.000  
  24163562.578   104924479.461         204.771          34.000  
  22663508.404    89164518.605        6198.233          36.000  
  23985462.875    85083509.817        1061.125          35.000  
 15  2  5  9 50 55.9990000  0 14G23G 3G20G 9G17G 1G 6S20G 4S26G11G32
                                G10G31
  19902020.064   104585790.572        3393.806          50.000  
  20534451.032   107909237.028        1520.156          47.000  
  20159007.727   105936294.891        4767.363          47.000  
  20500067.884   107728561.708        5352.531          49.000  
  21701163.922   114040340.647        1256.412          43.000  
  22301045.365   117192746.142         -22.583          42.000  
  21356382.598   112228566.457        5817.890          44.000  
  37397336.531   196524294.235        3166.876          40.000  
  25180207.637   132322872.4992       -487.897          32.000  
  37769636.570   198480780.173        3238.391          37.000  
  24654364.833   112229875.240        -676.894          35.000  
  24163523.437   104924273.289         204.456          33.000  
  22662328.962    89158319.507        6200.373          36.000  
  23985261.552    85082447.741        1061.783          35.000  
 15  2  5  9 50 56.9990000  0 14G23G 3G20G 9G17G 1G 6S20G 4S26G11G32
                                G10G31
  19901374.738   104582397.018        3393.744          50.000  
  20534161.917   107907716.977        1520.507          47.000  
  20158100.473   105931527.371        4767.634          47.000  
  20499049.123   107723209.430        5352.379          49.000  
  21700924.854   114039084.411        1256.895          43.000  
  22301049.431   117192768.526         -21.798          42.000  
  21355275.731   112222747.782        5818.890          44.000  
  37396734.027   196521127.887        3165.805          39.000  
  25180300.612   132323361.2932       -488.059          32.000  
  37769020.751   198477542.976        3236.534          37.000  
  24654493.302   112230551.056        -674.202          35.000  
  24163484.192   104924067.025         206.820          33.000  
  22661148.489    89152120.530        6198.949          35.000  
  23985059.880    85081386.107        1060.887          35.000  
 15  2  5  9 50 57.9990000  0 14G23G 3G20G 9G17G 1G 6S20G 4S26G11G32
                                G10G31
  19900729.010   104579003.877        3393.410          50.000  
  20533872.453   107906197.063        1519.904          47.000  
  20157193.114   105926760.044        4767.188          47.000  
  20498030.693   107717857.511        5352.473          49.000  
  21700685.978   114037828.577        1255.925          44.000  
  22301053.793   117192791.081         -22.809          42.000  
  21354168.550   112216929.315        5818.461          44.000  
  37396131.349   196517961.457        3166.729          39.000  
  25180393.220   132323849.9162       -488.181          32.000  
  37768404.794   198474305.767        3238.328          37.000  
  24654621.770   112231226.750        -675.220          35.000  
  24163444.981   104923860.688         205.781          33.000  
  22659967.285    89145921.558        6200.800          36.000  
  23984857.440    85080324.879        1060.145          35.000  
 15  2  5  9 50 58.9990000  0 14G23G 3G20G 9G17G 1G 6S20G 4S26G11G32
                                G10G31
  19900083.526   104575611.210        3392.346          50.000  
  20533583.617   107904677.337        1519.331          47.000  
  20156285.947   105921992.943        4766.836          47.000  
  20497012.280   107712505.994        5351.008          49.000  
  21700447.066   114036573.184        1254.751          43.000  
  22301057.876   117192813.818         -23.510          42.000  
  21353061.315   112211111.130        5817.482          44.000  
  37395528.671   196514794.822        3164.865          39.000  
  25180485.723   132324338.5002       -488.765          32.000  
  37767788.975   198471068.746        3235.971          37.000  
  24654750.378   112231902.351        -675.702          35.000  
  24163405.282   104923654.275         206.614          33.000  
  22658788.120    89139722.658        6197.397          36.000  
  23984654.703    85079264.093        1059.283          35.000  
 15  2  5  9 50 59.9990000  0 14G23G 3G20G 9G17G 1G 6S20G 4S26G11G32
                                G10G31
  19899437.989   104572219.337        3390.983          50.000  
  20533294.204   107903158.145        1518.329          47.000  
  20155379.146   105917226.426        4765.859          47.000  
  20495994.426   107707155.214        5350.105          49.000  
  21700208.434   114035318.572        1254.368          44.000  
  22301062.239   117192837.095         -23.927          42.000  
  21351954.203   112205293.528        5816.326          44.000  
  37394925.957   196511628.546        3164.047          40.000  
  25180579.045                3       -495.080          31.000  
  37767172.999   198467832.034        3233.940          37.000  
  24654879.160   112232578.265        -677.385          35.000  
  24163365.688   104923448.109         206.720          33.000  
  22657608.363    89133524.182        6198.389          36.000  
  23984452.699    85078204.072        1058.948          35.000  
 15  2  5  9 51  0.9990000  0 14G23G 3G20G 9G17G 1G 6S20G 4S26G11G32
                                G10G31
  19898792.645   104568827.942        3391.509          50.000  
  20533005.055   107901639.146        1519.098          47.000  
  20154472.119   105912460.151        4766.445          47.000  
  20494976.294   107701804.859        5350.787          49.000  
  21699970.082   114034064.407        1254.806          44.000  
  22301066.864   117192860.587         -22.755          42.000  
  21350847.215   112199476.219        5818.055          44.000  
  37394323.577   196508462.319        3168.286          39.000  
  25180670.679                3       -487.625          31.000  
  37766557.113   198464594.870        3238.718          37.000  
  24655007.944   112233254.075        -674.446          35.000  
  24163326.442   104923241.944         206.757          33.000  
  22656428.711    89127325.828        6198.770          36.000  
  23984250.974    85077144.520        1058.958          36.000  
 15  2  5  9 51  1.9990000  0 14G23G 3G20G 9G17G 1G 6S20G 4S26G11G32
                                G10G31
  19898147.371   104565437.043        3390.578          50.000  
  20532716.183   107900120.390        1518.287          47.000  
  20153564.952   105907694.157        4766.081          47.000  
  20493957.968   107696454.951        5349.906          49.000  
  21699731.468   114032810.716        1254.048          44.000  
  22301071.627   117192884.315         -23.764          42.000  
  21349740.050   112193659.207        5816.847          44.000  
  37393720.811   196505296.076        3166.427          39.000  
  25180763.862                3       -488.810          31.000  
  37765941.154   198461357.512        3236.416          36.000  
  24655136.063   112233929.847        -674.589          36.000  
  24163287.197   104923035.706         207.827          34.000  
  22655247.418    89121127.561        6197.636          36.000  
  23984049.599    85076085.369        1058.458          36.000  
 15  2  5  9 51  2.9990000  0 14G23G 3G20G 9G17G 1G 6S20G 4S26G11G32
                                G10G31
  19897502.097   104562046.601        3390.112          50.000  
  20532427.644   107898601.804        1518.520          47.000  
  20152658.098   105902928.383        4765.328          47.000  
  20492939.975   107691105.416        5349.484          49.000  
  21699493.062   114031557.465        1252.327          44.000  
  22301076.216   117192908.231         -24.653          42.000  
  21348633.218   112187842.454        5816.344          44.000  
  37393118.413   196502129.557        3167.442          39.000  
  25180858.060                3       -486.659          32.000  
  37765324.831   198458120.260        3238.498          37.000  
  24655264.653   112234605.519        -676.543          36.000  
  24163247.637   104922829.420         206.372          33.000  
  22654068.429    89114929.355        6198.149          36.000  
  23983848.781    85075026.704        1057.696          36.000  
 15  2  5  9 51  3.9990000  0 14G23G 3G20G 9G17G 1G 6S20G 4S26G11G32
                                G10G31
  19896857.171   104558656.909        3389.473          50.000  
  20532138.721   107897083.708        1518.328          47.000  
  20151751.560   105898163.144        4765.252          47.000  
  20491921.964   107685756.587        5348.332          49.000  
  21699254.849   114030304.925        1252.890          44.000  
  22301080.998   117192932.631         -24.001          42.000  
  21347526.141   112182026.273        5816.325          44.000  
  37392516.013   196498963.319        3166.438          40.000  
  25180951.557                3       -489.260          31.000  
  37764709.273   198454883.371        3235.556          37.000  
  24655393.105   112235281.417        -676.295          36.000  
  24163208.479   104922623.337         206.863          34.000  
  22652889.249    89108731.546        6199.850          36.000  
  23983648.627    85073968.754        1057.555          36.000  
 15  2  5  9 51  4.9990000  0 14G23G 3G20G 9G17G 1G 6S20G 4S26G11G32
                                G10G31
  19896212.124   104555267.486        3388.765          50.000  
  20531849.884   107895565.579        1517.619          47.000  
  20150844.689   105893397.932        4764.689          47.000  
  20490904.127   107680407.967        5347.911          49.000  
  21699016.287   114029052.644        1252.109          44.000  
  22301085.482   117192957.048         -24.622          42.000  
  21346419.134   112176210.148        5815.451          44.000  
  37391913.510   196495796.916        3166.586          39.000  
  25181043.345                3       -489.731          31.000  
  37764093.595   198451646.257        3237.669          37.000  
  24655522.062   112235957.029        -674.012          36.000  
  24163169.285   104922417.000         205.201          33.000  
  22651709.369    89102533.626        6196.523          36.000  
  23983446.867    85072911.047        1056.670          36.000  
 15  2  5  9 51  5.9990000  0 14G23G 3G20G 9G17G 1G 6S20G 4S26G11G32
                                G10G31
  19895567.198   104551878.929        3388.048          51.000  
  20531561.345   107894048.067        1516.822          47.000  
  20149938.115   105888633.376        4764.066          47.000  
  20489886.255   107675060.157        5346.339          49.000  
  21698778.388   114027801.205        1250.327          44.000  
  22301090.350   117192982.055         -25.737          42.000  
  21345312.406   112170394.689        5815.019          44.000  
  37391311.058   196492630.772        3166.065          41.000  
  25181135.186                3       -488.864          32.000  
  37763477.916   198448409.274        3235.209          37.000  
  24655650.617   112236633.010        -676.274          36.000  
  24163130.476   104922210.994         207.363          34.000  
  22650529.839    89096336.153        6197.012          36.000  
  23983245.440    85071854.177        1056.779          36.000  
 15  2  5  9 51  6.9990000  0 14G23G 3G20G 9G17G 1G 6S20G 4S26G11G32
                                G10G31
  19894922.779   104548491.081        3388.025          51.000  
  20531272.666   107892530.991        1517.046          47.000  
  20149031.576   105883869.293        4764.508          47.000  
  20488869.100   107669713.008        5347.628          49.000  
  21698540.384   114026550.450        1251.055          44.000  
  22301095.097   117193007.529         -24.967          42.000  
  21344205.835   112164579.759        5815.495          44.000  
  37390708.642   196489464.881        3167.995          39.000  
  25181228.614                3       -489.020          31.000  
  37762862.012   198445172.3913       3240.550          37.000  
  24655779.314   112237309.139        -674.156          36.000  
  24163091.353   104922005.187         206.301          33.000  
  22649350.884    89090139.038        6196.036          36.000  
  23983045.373    85070797.985        1056.416          36.000  
 15  2  5  9 51  7.9990000  0 14G23G 3G20G 9G17G 1G 6S20G 4S26G11G32
                                G10G31
  19894277.871   104545103.488        3387.251          50.000  
  20530983.655   107891013.881        1517.104          47.000  
  20148125.124   105879105.233        4763.560          47.000  
  20487852.049   107664366.046        5346.918          49.000  
  21698302.293   114025299.915        1250.401          44.000  
  22301099.983   117193032.965         -25.345          42.000  
  21343099.264   112158764.885        5814.938          44.000  
  37390105.998   196486298.792        3164.408          40.000  
  25181320.472                3       -488.164          31.000  
  37762245.966   198441935.315        3235.702          37.000  
  24655908.392   112237984.949        -676.906          36.000  
  24163051.654   104921799.093         206.747          33.000  
  22648170.361    89083941.785        6198.982          36.000  
  23982844.242    85069741.980        1056.482          36.000  
 15  2  5  9 51  8.9990000  0 14G23G 3G20G 9G17G 1G 6S20G 4S26G11G32
                                G10G31
  19893633.365   104541716.665        3387.096          50.000  
  20530695.186   107889497.278        1516.734          47.000  
  20147218.900   105874341.734        4763.611          47.000  
  20486834.352   107659019.806        5346.024          49.000  
  21698064.185   114024050.140        1249.338          44.000  
  22301105.043   117193058.919         -26.257          42.000  
  21341992.763   112152950.594        5813.841          44.000  
  37389503.285   196483133.055        3165.408          39.000  
  25181412.731                3       -489.500          31.000  
  37761629.625   198438698.652        3237.659          37.000  
  24656037.542   112238661.040        -673.302          36.000  
  24163012.425   104921593.225         205.996          33.000  
  22646991.755    89077744.906        6197.643          36.000  
  23982644.296    85068686.790        1054.978          36.000  
 15  2  5  9 51  9.9990000  0 14G23G 3G20G 9G17G 1G 6S20G 4S26G11G32
                                G10G31
  19892988.875   104538330.019        3385.792          51.000  
  20530406.158   107887980.598        1516.205          47.000  
  20146312.483   105869578.175        4763.476          48.000  
  20485816.952   107653673.681        5346.072          49.000  
  21697826.164   114022800.525        1249.362          44.000  
  22301110.051   117193084.796         -26.587          42.000  
  21340886.437   112147136.270        5814.811          44.000  
  37388900.398   196479966.625        3167.686          39.000  
  25181504.921                3       -488.723          32.000  
  37761013.178   198435461.372        3237.096          37.000  
  24656165.242   112239336.729        -674.642          36.000  
  24162973.704   104921387.086         207.621          33.000  
  22645812.609    89071547.818        6196.555          37.000  
  23982443.252    85067631.721        1054.548          36.000  
 15  2  5  9 51 10.9990000  0 14G23G 3G20G 9G17G 1G 6S20G 4S26G11G32
                                G10G31
  19892344.421   104534943.686        3385.126          51.000  
  20530117.304   107886463.946        1515.515          47.000  
  20145405.752   105864814.704        4762.823          48.000  
  20484799.551   107648327.821        5344.795          49.000  
  21697588.160   114021551.191        1248.013          44.000  
  22301114.833   117193110.716         -26.564          42.000  
  21339780.093   112141322.067        5813.134          44.000  
  37388297.719   196476800.101        3164.295          39.000  
  25181597.931   132330190.1003       -487.842          32.000  
  37760396.975   198432223.893        3235.012          37.000  
  24656294.757   112240012.203        -677.803          36.000  
  24162934.318   104921180.640         204.721          33.000  
  22644633.113    89065350.676        6196.550          37.000  
  23982242.348    85066576.922        1053.962          36.000  
 15  2  5  9 51 11.9990000  0 14G23G 3G20G 9G17G 1G 6S20G 4S26G11G32
                                G10G31
  19891700.299   104531558.208        3384.838          50.000  
  20529828.887   107884947.872        1515.398          47.000  
  20144499.335   105860051.860        4762.691          48.000  
  20483782.256   107642982.749        5344.654          49.000  
  21697350.767   114020302.688        1247.782          43.000  
  22301120.173   117193137.227         -26.360          42.000  
  21338673.941   112135508.525        5813.383          44.000  
  37387695.355   196473633.929        3165.626          40.000  
  25181691.883   132330679.2622       -488.772          33.000  
  37759781.157   198428986.933        3236.244          37.000  
  24656423.139   112240688.013        -675.508          36.000  
  24162895.107   104920974.568         204.132          33.000  
  22643454.648    89059154.007        6196.470          36.000  
  23982042.036    85065522.961        1053.642          36.000  
 15  2  5  9 51 12.9990000  0 14G23G 3G20G 9G17G 1G 6S20G 4S26G11G32
                                G10G31
  19891055.967   104528173.021        3384.903          50.000  
  20529540.452   107883431.814        1515.721          47.000  
  20143592.936   105855289.067        4762.616          47.000  
  20482765.205   107637637.908        5344.277          49.000  
  21697113.549   114019054.450        1247.468          44.000  
  22301125.216   117193163.759         -26.616          43.000  
  21337567.597   112129695.077        5812.954          44.000  
  37387092.747   196470467.410        3165.008          39.000  
  25181785.241   132331168.0502       -488.967          33.000  
  37759165.585   198425749.807        3238.758          37.000  
  24656551.451   112241363.536        -674.755          36.000  
  24162855.862   104920768.226         206.255          33.000  
  22642274.717    89052957.244        6196.840          36.000  
  23981841.743    85064469.269        1053.319          36.000  
 15  2  5  9 51 13.9990000  0 14G23G 3G20G 9G17G 1G 6S20G 4S26G11G32
                                G10G31
  19890412.071   104524788.622        3384.657          50.000  
  20529252.017   107881916.274        1515.811          47.000  
  20142686.816   105850526.841        4762.547          47.000  
  20481748.660   107632293.794        5344.465          49.000  
  21696876.138   114017806.972        1247.848          44.000  
  22301130.625   117193190.825         -26.242          43.000  
  21336461.184   112123882.224        5813.458          44.000  
  37386490.209   196467301.282        3167.389          40.000  
  25181879.193   132331657.2352       -489.835          33.000  
  37758549.819   198422512.759        3238.884          37.000  
  24656679.937   112242039.324        -674.516          36.000  
  24162816.966   104920562.176         208.224          33.000  
  22641095.239    89046760.900        6198.117          37.000  
  23981640.926    85063416.299        1053.538          36.000  
 15  2  5  9 51 14.9990000  0 14G23G 3G20G 9G17G 1G 6S20G 4S26G11G32
                                G10G31
  19889768.053   104521404.185        3383.537          51.000  
  20528963.408   107880400.410        1515.351          47.000  
  20141780.766   105845764.344        4761.936          47.000  
  20480731.626   107626949.586        5343.698          49.000  
  21696638.780   114016559.417        1246.516          44.000  
  22301135.668   117193217.550         -26.526          42.000  
  21335355.049   112118069.128        5812.673          43.000  
  37385887.617   196464134.527        3165.469          39.000  
  25181972.569   132332145.7642       -489.331          33.000  
  37757933.879   198419275.098        3239.631          37.000  
  24656808.614   112242714.550        -675.450          36.000  
  24162777.720   104920355.498         207.145          33.000  
  22639916.162    89040564.104        6194.952          37.000  
  23981440.718    85062363.296        1050.716          36.000  
 15  2  5  9 51 15.9990000  0 14G23G 3G20G 9G17G 1G 6S20G 4S26G11G32
                                G10G31
  19889124.279   104518020.711        3382.902          51.000  
  20528675.340   107878885.250        1514.852          46.000  
  20140874.453   105841002.592        4761.407          47.000  
  20479714.889   107621606.293        5343.402          49.000  
  21696401.527   114015312.810        1246.530          43.000  
  22301140.990   117193245.008         -27.486          43.000  
  21334248.914   112112256.809        5812.204          43.000  
  37385285.027   196460968.190        3166.803          40.000  
  25182065.753   132332634.7892       -490.337          33.000  
  37757317.744   198416037.846        3232.743          37.000  
  24656937.309   112243390.212        -677.903          36.000  
  24162738.859   104920149.349         207.734          33.000  
  22638736.981    89034367.897        6195.346          36.000  
  23981241.106    85061311.219        1051.992          36.000  
 15  2  5  9 51 16.9990000  0 14G23G 3G20G 9G17G 1G 6S20G 4S26G11G32
                                G10G31
  19888480.523   104514637.706        3382.482          50.000  
  20528386.695   107877370.289        1514.240          47.000  
  20139968.421   105836241.087        4760.919          47.000  
  20478698.169   107616263.407        5342.835          49.000  
  21696164.291   114014066.654        1246.067          44.000  
  22301146.330   117193272.664         -27.750          42.000  
  21333142.658   112106444.771        5811.682          43.000  
  37384682.401   196457801.721        3166.121          39.000  
  25182159.008   132333123.7482       -488.359          33.000  
  37756701.614   198412800.588        3238.878          37.000  
  24657066.599   112244065.752        -673.804          36.000  
  24162699.263   104919943.073         205.152          33.000  
  22637558.062    89028171.801        6196.292          36.000  
  23981040.427    85060259.582        1049.401          36.000  
 15  2  5  9 51 17.9990000  0 14G23G 3G20G 9G17G 1G 6S20G 4S26G11G32
                                G10G31
  19887836.854   104511255.263        3382.544          50.000  
  20528098.593   107875855.597        1514.844          46.000  
  20139062.545   105831479.919        4761.373          47.000  
  20477681.641   107610921.012        5342.609          49.000  
  21695927.230   114012821.038        1246.160          43.000  
  22301151.617   117193300.623         -27.356          43.000  
  21332036.680   112100633.091        5812.496          43.000  
  37384080.054   196454635.229        3166.439          39.000  
  25182252.488   132333612.7952       -489.232          33.000  
  37756085.432   198409563.055        3245.209          37.000  
  24657194.334   112244741.325        -674.907          36.000  
  24162660.141   104919736.809         207.055          32.000  
  22636378.969    89021975.870        6197.518          37.000  
  23980839.768    85059208.485        1051.184          35.000  
 15  2  5  9 51 18.9990000  0 14G23G 3G20G 9G17G 1G 6S20G 4S26G11G32
                                G10G31
  19887193.168   104507873.199        3381.730          50.000  
  20527809.931   107874341.043        1514.522          46.000  
  20138156.390   105826718.888        4761.233          47.000  
  20476664.852   107605578.958        5342.080          49.000  
  21695690.168   114011575.780        1244.996          43.000  
  22301156.852   117193328.675         -28.468          43.000  
  21330930.668   112094821.593        5811.531          43.000  
  37383477.446   196451468.656        3166.863          39.000  
  25182346.074   132334102.116        -487.886          33.000  
  37755469.454   198406325.516        3239.908          36.000  
  24657323.483   112245416.755        -675.941          36.000  
  24162621.000   104919530.456         206.402          33.000  
  22635200.224    89015779.917        6196.719          37.000  
  23980639.125    85058157.718        1051.392          35.000  
 15  2  5  9 51 19.9990000  0 14G23G 3G20G 9G17G 1G 6S20G 4S26G11G32
                                G10G31
  19886549.639   104504491.257        3381.362          50.000  
  20527521.514   107872826.324        1514.301          46.000  
  20137250.462   105821957.763        4760.600          47.000  
  20475648.359   107600236.970        5341.841          49.000  
  21695452.932   114010330.627        1244.475          43.000  
  22301162.140   117193356.618         -28.117          42.000  
  21329824.464   112089010.029        5811.758          43.000  
  37382874.698   196448301.757        3166.611          39.000  
  25182439.240   132334590.568        -488.943          33.000  
  37754852.990   198403087.547        3238.104          37.000  
  24657451.934   112246091.738        -675.358          36.000  
  24162581.249   104919323.679         208.916          33.000  
  22634021.374    89009583.727        6194.594          37.000  
  23980438.918    85057107.062        1048.594          35.000  
 15  2  5  9 51 20.9990000  0 14G23G 3G20G 9G17G 1G 6S20G 4S26G11G32
                                G10G31
  19885906.266   104501110.070        3381.061          50.000  
  20527233.864   107871312.068        1514.103          46.000  
  20136344.272   105817197.162        4760.990          47.000  
  20474631.727   107594895.666        5341.386          49.000  
  21695215.941   114009086.189        1244.365          43.000  
  22301167.758   117193385.017         -28.502          42.000  
  21328718.853   112083199.021        5810.942          43.000  
  37382272.265   196445135.128        3169.321          39.000  
  25182532.250   132335079.284        -489.406          33.000  
  37754236.857   198399850.053        3237.565          36.000  
  24657579.878   112246766.970        -678.124          35.000  
  24162542.056   104919117.111         210.454          33.000  
  22632841.949    89003387.906        6196.318          37.000  
  23980239.654    85056057.138        1049.539          35.000  
 15  2  5  9 51 21.9990000  0 14G23G 3G20G 9G17G 1G 6S20G 4S26G11G32
                                G10G31
  19885263.016   104497729.538        3379.876          50.000  
  20526945.569   107869798.219        1514.077          46.000  
  20135438.605   105812436.990        4759.936          47.000  
  20473615.460   107589554.967        5340.007          49.000  
  21694979.403   114007842.380        1243.749          43.000  
  22301172.801   117193413.824         -28.814          42.000  
  21327612.980   112077388.476        5810.024          43.000  
  37381669.760   196441968.604        3165.718          40.000  
  25182625.557   132335568.122        -487.732          32.000  
  37753620.811   198396612.833        3234.038          37.000  
  24657708.155   112247442.306        -675.358          36.000  
  24162502.634   104918910.703         204.704          32.000  
  22631663.814    88997192.367        6193.729          37.000  
  23980039.779    85055007.831        1048.226          35.000  
 15  2  5  9 51 22.9990000  0 14G23G 3G20G 9G17G 1G 6S20G 4S26G11G32
                                G10G31
  19884619.975   104494349.441        3379.039          50.000  
  20526657.256   107868284.514        1512.456          46.000  
  20134532.293   105807677.023        4758.772          47.000  
  20472599.439   107584214.643        5339.071          49.000  
  21694742.481   114006598.989        1242.136          43.000  
  22301178.455   117193442.808         -29.701          43.000  
  21326507.386   112071578.162        5809.395          43.000  
  37381067.257   196438801.942        3166.337          39.000  
  25182719.211   132336056.899        -489.543          33.000  
  37753005.116   198393375.4603       3237.874          37.000  
  24657836.048   112248117.516        -676.060          36.000  
  24162463.685   104918704.119         204.504          33.000  
  22630484.755    88990996.854        6193.268          37.000  
  23979839.747    85053958.904        1048.669          35.000  
 15  2  5  9 51 23.9990000  0 14G23G 3G20G 9G17G 1G 6S20G 4S26G11G32
                                G10G31
  19883977.057   104490970.143        3378.834          50.000  
  20526369.607   107866771.337        1513.351          46.000  
  20133626.505   105802917.639        4759.131          47.000  
  20471583.347   107578875.068        5339.354          49.000  
  21694505.943   114005356.381        1242.178          43.000  
  22301183.865   117193472.314         -29.708          43.000  
  21325402.037   112065768.460        5808.967          43.000  
  37380464.823   196435635.434        3166.041          40.000  
  25182812.639   132336545.4293       -491.001          33.000  
  37752388.722   198390137.893        3237.085          37.000  
  24657964.830   112248792.990        -676.078          36.000  
  24162424.493   104918497.909         208.182          33.000  
  22629306.290    88984801.788        6194.671          37.000  
  23979640.587    85052910.793        1047.116          35.000  
 15  2  5  9 51 24.9990000  0 14G23G 3G20G 9G17G 1G 6S20G 4S26G11G32
                                G10G31
  19883333.911   104487591.180        3378.425          51.000  
  20526081.469   107865258.238        1513.029          46.000  
  20132720.646   105798158.365        4759.244          47.000  
  20470567.605   107573535.779        5339.218          49.000  
  21694269.528   114004114.076        1242.362          43.000  
  22301189.292   117193501.909         -28.977          43.000  
  21324296.566   112059958.917        5809.698          43.000  
  37379862.267   196432468.651        3166.180          39.000  
  25182906.033   132337034.3332       -490.748          33.000  
  37751772.049   198386900.068        3237.120          37.000  
  24658093.351   112249468.271        -676.308          37.000  
  24162385.842   104918291.440         211.702          33.000  
  22628126.899    88978606.667        6193.914          37.000  
  23979440.748    85051862.962        1047.806          35.000  
 15  2  5  9 51 25.9990000  0 14G23G 3G20G 9G17G 1G 6S20G 4S26G11G32
                                G10G31
  19882691.185   104484212.929        3377.815          51.000  
  20525793.575   107863745.568        1512.299          46.000  
  20131815.346   105793399.582        4758.572          47.000  
  20469551.461   107568197.135        5338.118          49.000  
  21694033.670   114002872.448        1241.573          43.000  
  22301195.172   117193531.939         -30.288          43.000  
  21323191.303   112054149.887        5808.506          44.000  
  37379259.781   196429302.005        3168.296          39.000  
  25182999.026   132337523.3522       -489.579          33.000  
  37751156.038   198383662.391        3234.657          37.000  
  24658221.471   112250143.762        -676.204          36.000  
  24162346.089   104918085.209         207.131          33.000  
  22626947.666    88972411.871        6195.216          37.000  
  23979241.134    85050815.831        1047.054          35.000  
 15  2  5  9 51 26.9990000  0 14G23G 3G20G 9G17G 1G 6S20G 4S26G11G32
                                G10G31
  19882048.353   104480835.008        3377.073          51.000  
  20525505.751   107862232.953        1512.129          46.000  
  20130909.750   105788640.886        4757.787          47.000  
  20468535.789   107562858.766        5338.016          49.000  
  21693797.865   114001631.123        1240.975          44.000  
  22301201.018   117193562.036         -30.629          43.000  
  21322086.041   112048340.983        5808.451          44.000  
  37378657.103   196426135.431        3167.359          39.000  
  25183092.524   132338012.2672       -489.632          33.000  
  37750539.958   198380424.902        3236.116          37.000  
  24658350.550   112250819.015        -676.207          36.000  
  24162306.406   104917878.784         204.385          33.000  
  22625769.462    88966217.030        6193.780          37.000  
  23979042.323    85049769.020        1044.320          35.000  
 15  2  5  9 51 27.9990000  0 14G23G 3G20G 9G17G 1G 6S20G 4S26G11G32
                                G10G31
  19881405.400   104477457.891        3376.575          50.000  
  20525217.892   107860720.878        1512.075          46.000  
  20130003.891   105783882.775        4757.538          47.000  
  20467520.028   107557521.136        5336.400          49.000  
  21693561.606   114000390.602        1240.797          43.000  
  22301207.457   117193592.666         -31.677          43.000  
  21320980.954   112042532.691        5807.794          44.000  
  37378054.616   196422969.353        3165.237          40.000  
  25183186.127   132338501.4192       -490.317          33.000  
  37749924.019   198377187.732        3239.396          36.000  
  24658479.070   112251494.500        -677.719          36.000  
  24162267.039                3        205.944          32.000  
  22624590.403    88960022.576        6194.099          37.000  
  23978843.548    85048722.941        1045.922          35.000  
 15  2  5  9 51 28.9990000  0 14G23G 3G20G 9G17G 1G 6S20G 4S26G11G32
                                G10G31
  19880763.075   104474081.210        3376.139          50.000  
  20524930.243   107859208.957        1512.120          46.000  
  20129098.574   105779124.878        4758.216          47.000  
  20466504.112   107552183.896        5337.059          49.000  
  21693325.575   113999150.478        1240.080          43.000  
  22301213.495   117193623.473         -30.743          43.000  
  21319876.076   112036724.641        5808.045          44.000  
  37377452.007   196419803.077        3164.914          39.000  
  25183278.996   132338990.4712       -490.996          33.000  
  37749307.781   198373950.491        3236.940          36.000  
  24658608.500   112252169.903        -674.617          36.000  
  24162227.846   126973363.7552        206.186          33.000  
  22623410.542    88953828.225        6194.954          36.000  
  23978644.250    85047677.286        1046.763          35.000  
 15  2  5  9 51 29.9990000  0 14G23G 3G20G 9G17G 1G 6S20G 4S26G11G32
                                G10G31
  19880120.226   104470704.721        3375.972          51.000  
  20524642.768   107857696.971        1511.612          46.000  
  20128192.908   105774366.954        4757.674          47.000  
  20465488.404   107546846.789        5336.734          49.000  
  21693089.420   113997910.519        1239.279          44.000  
  22301219.271   117193654.202         -30.366          43.000  
  21318770.989   112030916.607        5808.506          44.000  
  37376849.627   196416636.371        3167.908          40.000  
  25183372.287   132339479.2372       -487.773          34.000  
  37748691.440   198370712.754        3238.282          37.000  
  24658737.055   112252844.963        -675.977          37.000  
  24162188.688   126973157.1872        206.166          33.000  
  22622231.796    88947633.655        6193.036          37.000  
  23978446.207    85046631.824        1045.752          35.000  
 15  2  5  9 51 30.9990000  0 14G23G 3G20G 9G17G 1G 6S20G 4S26G11G32
                                G10G31
  19879477.900   104467328.987        3374.442          51.000  
  20524355.170   107856185.452        1510.236          46.000  
  20127287.782   105769609.559        4756.416          47.000  
  20464472.888   107541510.387        5334.990          49.000  
  21692853.685   113996671.298        1237.915          44.000  
  22301225.064   117193685.417         -32.203          43.000  
  21317665.900   112025109.125        5806.756          44.000  
  37376246.983   196413469.637        3166.594          39.000  
  25183465.121   132339968.734        -490.120          34.000  
  37748075.464   198367475.149        3234.759          36.000  
  24658865.122   112253520.206        -675.481          37.000  
  24162149.564   126972950.7842        205.275          33.000  
  22621053.540    88941439.454        6193.446          37.000  
  23978247.222    85045587.045        1044.937          35.000  
 15  2  5  9 51 31.9990000  0 14G23G 3G20G 9G17G 1G 6S20G 4S26G11G32
                                G10G31
  19878835.803   104463953.721        3375.776          51.000  
  20524067.626   107854674.121        1512.218          46.000  
  20126382.866   105764852.384        4757.467          47.000  
  20463457.496   107536174.376        5336.885          49.000  
  21692618.038   113995432.491        1239.625          44.000  
  22301230.997   117193716.840         -30.858          43.000  
  21316561.093   112019301.907        5807.739          44.000  
  37375644.759   196410302.744        3167.598          40.000  
  25183558.794   132340457.682        -488.540          34.000  
  37747459.542   198364237.197        3238.568          37.000  
  24658993.871   112254195.383        -673.105          36.000  
  24162110.267   126972744.3432        208.468          33.000  
  22619875.023    88935245.352        6195.133          37.000  
  23978047.853    85044542.707        1045.418          35.000  
 15  2  5  9 51 32.9990000  0 14G23G 3G20G 9G17G 1G 6S20G 4S26G11G32
                                G10G31
  19878193.111   104460578.923        3374.918          51.000  
  20523779.872   107853162.993        1510.879          46.000  
  20125477.688   105760095.473        4756.764          47.000  
  20462442.189   107530838.800        5335.671          49.000  
  21692382.582   113994194.157        1238.148          44.000  
  22301237.296   117193748.446         -32.124          43.000  
  21315456.301   112013494.975        5806.413          44.000  
  37375041.976   196407135.944        3165.928          40.000  
  25183652.275   132340946.586        -487.671          34.000  
  37746843.427   198360999.454        3238.626          37.000  
  24659122.165   112254870.477        -674.042          37.000  
  24162070.603   126972537.8202        208.627          33.000  
  22618696.313    88929051.338        6195.356          37.000  
  23977849.496    85043498.782        1044.219          35.000  
 15  2  5  9 51 33.9990000  0 14G23G 3G20G 9G17G 1G 6S20G 4S26G11G32
                                G10G31
  19877551.221   104457205.227        3372.806          51.000  
  20523492.536   107851652.703        1509.763          46.000  
  20124572.545   105755339.438        4755.375          47.000  
  20461427.057   107525504.270        5334.003          49.000  
  21692147.247   113992956.897        1236.119          43.000  
  22301243.334   117193780.933         -32.914          43.000  
  21314351.615   112007688.941        5805.782          44.000  
  37374439.576   196403969.795        3164.784          39.000  
  25183745.389   132341436.095        -490.400          34.000  
  37746227.714   198357762.565        3238.668          37.000  
  24659250.458   112255546.149        -675.762          36.000  
  24162031.286   126972331.9462        203.985          33.000  
  22617517.935    88922858.040        6193.969          37.000  
  23977651.155    85042455.975        1040.540          35.000  
 15  2  5  9 51 34.9990000  0 14G23G 3G20G 9G17G 1G 6S20G 4S26G11G32
                                G10G31
  19876909.455   104453831.872        3373.826          51.000  
  20523205.131   107850142.462        1510.545          46.000  
  20123667.542   105750583.514        4756.133          47.000  
  20460412.327   107520170.000        5334.634          49.000  
  21691911.722   113991719.951        1237.158          44.000  
  22301249.633   117193813.441         -32.402          43.000  
  21313247.174   112001883.067        5806.283          44.000  
  37373836.794   196400803.325        3167.213          39.000  
  25183838.224   132341925.330        -489.537          34.000  
  37745611.652   198354525.489        3240.642          37.000  
  24659378.665   112256221.639        -674.118          37.000  
  24161992.495   126972125.7642        207.382          33.000  
  22616339.329    88916664.687        6193.697          38.000  
  23977453.306    85041413.465        1042.827          35.000  
 15  2  5  9 51 35.9990000  0 14G23G 3G20G 9G17G 1G 6S20G 4S26G11G32
                                G10G31
  19876267.513   104450458.975        3372.445          51.000  
  20522917.865   107848632.420        1509.612          46.000  
  20122762.399   105745827.821        4755.241          48.000  
  20459397.370   107514836.148        5333.409          49.000  
  21691676.248   113990483.424        1235.477          44.000  
  22301255.462   117193846.182         -33.169          44.000  
  21312142.330   111996077.458        5805.663          45.000  
  37373234.430   196397636.785        3167.183          40.000  
  25183931.269   132342414.602        -487.703          35.000  
  37744995.326   198351287.9233       3236.050          37.000  
  24659507.552   112256897.036        -676.526          37.000  
  24161953.249   126971919.5872        205.544          33.000  
  22615160.427    88910471.433        6192.788          38.000  
  23977254.948    85040371.369        1040.714          36.000  
 15  2  5  9 51 36.9990000  0 14G23G 3G20G 9G17G 1G 6S20G 4S26G11G32
                                G10G31
  19875625.607   104447086.706        3371.979          51.000  
  20522630.547   107847122.741        1509.313          47.000  
  20121857.640   105741072.524        4755.204          48.000  
  20458381.941   107509502.875        5332.700          49.000  
  21691441.002   113989247.503        1235.466          44.000  
  22301262.232   117193879.285         -33.139          44.000  
  21311038.028   111990272.289        5804.481          45.000  
  37372632.032   196394470.343        3167.997          39.000  
  25184024.383   132342903.908        -489.448          34.000  
  37744379.229   198348050.395        3237.116          37.000  
  24659636.143   112257572.505        -674.692          37.000  
  24161914.318   126971713.999         205.106          33.000  
  22613982.485    88904278.438        6192.397          38.000  
  23977057.342    85039329.867        1039.794          35.000  
 15  2  5  9 51 37.9990000  0 14G23G 3G20G 9G17G 1G 6S20G 4S26G11G32
                                G10G31
  19874984.521   104443715.307        3371.798          51.000  
  20522343.264   107845613.652        1509.463          47.000  
  20120952.741   105736317.877        4754.756          47.000  
  20457367.455   107504170.406        5332.946          49.000  
  21691206.052   113988012.441        1235.349          44.000  
  22301268.741   117193912.967         -33.457          44.000  
  21309933.412   111984467.792        5804.991          45.000  
  37372029.563   196391304.270        3167.388          41.000  
  25184117.706   132343393.611        -491.093          34.000  
  37743763.201   198344813.286        3236.416          37.000  
  24659764.210   112258248.315        -675.429          37.000  
  24161875.264   126971508.235         204.717          33.000  
  22612804.002    88898085.889        6192.979          38.000  
  23976859.107    85038289.214        1039.992          36.000  
 15  2  5  9 51 38.9990000  0 14G23G 3G20G 9G17G 1G 6S20G 4S26G11G32
                                G10G31
  19874342.911   104440343.941        3370.411          51.000  
  20522056.138   107844104.320        1508.779          46.000  
  20120047.790   105731563.054        4753.965          47.000  
  20456352.411   107498837.925        5332.323          49.000  
  21690970.840   113986777.401        1234.458          44.000  
  22301275.302   117193946.451         -34.258          44.000  
  21308828.708   111978663.140        5804.032          45.000  
  37371427.059   196388137.774        3167.183          39.000  
  25184210.367   132343882.861        -489.996          35.000  
  37743146.771   198341575.8133       3232.463          37.000  
  24659893.307   112258923.645        -674.004          37.000  
  24161835.408   126971301.5143        205.086          33.000  
  22611625.659    88891893.032        6193.640          38.000  
  23976660.995    85037248.600        1040.590          36.000  
 15  2  5  9 51 39.9990000  0 14G23G 3G20G 9G17G 1G 6S20G 4S26G11G32
                                G10G31
  19873701.354   104436973.170        3371.113          51.000  
  20521769.275   107842595.335        1509.986          47.000  
  20119143.573   105726808.584        4754.588          47.000  
  20455337.855   107493505.979        5332.090          49.000  
  21690736.100   113985542.901        1234.841          44.000  
  22301281.794   117193980.255         -33.760          44.000  
  21307724.144   111972858.886        5804.152          44.000  
  37370824.293   196384971.420        3165.546          40.000  
  25184303.639   132344372.145        -489.535          35.000  
  37742530.780   198338338.5393       3237.443          37.000  
  24660021.287   112259598.998        -673.268          37.000  
  24161796.302   126971095.3823        206.920          33.000  
  22610447.682    88885700.389        6193.934          38.000  
  23976462.325    85036208.531        1040.892          36.000  
 15  2  5  9 51 40.9990000  0 14G23G 3G20G 9G17G 1G 6S20G 4S26G11G32
                                G10G31
  19873059.761   104433602.801        3369.952          51.000  
  20521482.253   107841086.455        1508.731          47.000  
  20118238.988   105722054.301        4753.556          47.000  
  20454323.142   107488174.381        5331.599          49.000  
  21690501.254   113984308.787        1233.843          44.000  
  22301288.023   117194014.190         -34.649          43.000  
  21306619.842   111967054.846        5803.399          44.000  
  37370222.087   196381804.984        3168.004          39.000  
  25184396.527   132344861.302        -488.129          34.000  
  37741914.734   198335101.314        3235.426          37.000  
  24660149.685   112260274.219        -674.979          37.000  
  24161756.934   126970889.0572        205.121          33.000  
  22609268.727    88879507.747        6191.854          38.000  
  23976263.549    85035168.814        1040.025          36.000  
 15  2  5  9 51 41.9990000  0 14G23G 3G20G 9G17G 1G 6S20G 4S26G11G32
                                G10G31
  19872418.309   104430232.652        3370.412          51.000  
  20521195.040   107839577.531        1509.475          46.000  
  20117334.229   105717300.018        4754.483          47.000  
  20453308.604   107482842.958        5332.367          49.000  
  21690266.776   113983074.859        1234.025          44.000  
  22301294.585   117194048.093         -33.514          44.000  
  21305515.278   111961250.834        5804.250          44.000  
  37369619.705   196378638.173        3166.484          40.000  
  25184489.379   132345350.206        -488.835          35.000  
  37741298.934   198331863.615        3237.310          37.000  
  24660278.835   112260949.125        -673.519          36.000  
  24161717.620   126970682.4782        208.904          33.000  
  22608090.629    88873314.961        6193.724          38.000  
  23976066.362    85034129.306        1041.751          36.000  
 15  2  5  9 51 42.9990000  0 14G23G 3G20G 9G17G 1G 6S20G 4S26G11G32
                                G10G31
  19871777.013   104426862.663        3369.663          51.000  
  20520907.966   107838068.480        1508.286          46.000  
  20116429.191   105712545.647        4753.824          47.000  
  20452294.275   107477511.618        5330.540          49.000  
  21690032.035   113981841.064        1233.095          44.000  
  22301301.128   117194081.863         -34.002          44.000  
  21304410.661   111955446.783        5803.396          44.000  
  37369016.748   196375470.917        3168.477          39.000  
  25184582.528   132345838.724        -490.543          34.000  
  37740682.558   198328625.190        3238.997          37.000  
  24660406.989   112261623.630        -674.172          37.000  
  24161677.972   126970475.4532        206.198          33.000  
  22606912.041    88867121.949        6192.850          38.000  
  23975867.812    85033089.937        1037.170          36.000  
 15  2  5  9 51 43.9990000  0 14G23G 3G20G 9G17G 1G 6S20G 4S26G11G32
                                G10G31
  19871136.066   104423493.302        3368.426          51.000  
  20520620.735   107836559.787        1507.370          46.000  
  20115524.292   105707791.683        4752.670          47.000  
  20451279.649   107472180.851        5329.256          49.000  
  21689797.678   113980607.859        1231.766          44.000  
  22301307.480   117194116.019         -34.863          44.000  
  21303306.411   111949643.184        5802.260          45.000  
  37368413.982   196372303.830        3167.118          40.000  
  25184675.713   132346327.363        -488.324          34.000  
  37740066.635   198325386.863        3237.160          37.000  
  24660536.259   112262298.239        -677.434          37.000  
  24161638.535   126970268.5882        206.797          33.000  
  22605732.929    88860929.142        6191.542          38.000  
  23975670.101    85032051.140        1037.992          36.000  
 15  2  5  9 51 44.9990000  0 14G23G 3G20G 9G17G 1G 6S20G 4S26G11G32
                                G10G31
  19870495.015   104420124.608        3368.998          51.000  
  20520333.697   107835051.486        1508.581          46.000  
  20114619.691   105703038.171        4753.889          47.000  
  20450265.512   107466850.695        5329.908          49.000  
  21689562.903   113979375.314        1232.732          44.000  
  22301314.216   117194150.555         -34.197          44.000  
  21302202.197   111943840.031        5803.459          44.000  
  37367811.322   196369136.772        3169.851          39.000  
  25184768.601   132346816.146        -487.839          34.000  
  37739449.945   198322148.454        3239.647          37.000  
  24660664.240   112262972.969        -674.011          37.000  
  24161599.377   126970061.8492        208.148          33.000  
  22604555.267    88854736.642        6192.719          38.000  
  23975473.402    85031012.977        1037.196          36.000  
 15  2  5  9 51 45.9990000  0 14G23G 3G20G 9G17G 1G 6S20G 4S26G11G32
                                G10G31
  19869853.893   104416756.189        3368.060          51.000  
  20520046.641   107833543.184        1507.526          46.000  
  20113715.228   105698284.698        4753.509          47.000  
  20449251.044   107461520.755        5329.593          49.000  
  21689328.250   113978142.996        1232.579          44.000  
  22301321.056   117194185.113         -34.922          44.000  
  21301097.685   111938036.972        5803.141          45.000  
  37367208.295   196365969.631        3168.738          39.000  
  25184861.784   132347304.659        -490.276          34.000  
  37738833.464   198318910.100        3239.397          37.000  
  24660792.167   112263647.435        -675.323          37.000  
  24161560.271   126969854.8523        208.364          33.000  
  22603377.010    88848544.061        6191.266          38.000  
  23975275.534    85029975.072        1037.192          36.000  
 15  2  5  9 51 46.9990000  0 14G23G 3G20G 9G17G 1G 6S20G 4S26G11G32
                                G10G31
  19869213.174   104413388.425        3367.589          51.000  
  20519759.620   107832035.295        1507.925          46.000  
  20112810.644   105693531.676        4752.790          47.000  
  20448237.011   107456191.436        5329.261          49.000  
  21689094.033   113976911.338        1231.288          44.000  
  22301327.600   117194220.062         -34.742          44.000  
  21299993.121   111932234.408        5803.079          45.000  
  37366605.529   196362802.572        3166.851          39.000  
  25184954.916   132347793.336        -488.518          34.000  
  37738217.436   198315672.197        3239.483          37.000  
  24660920.218   112264322.001        -673.849          37.000  
  24161520.920   126969647.9542        204.749          33.000  
  22602198.195    88842351.743        6190.792          38.000  
  23975078.713    85028937.801        1037.027          36.000  
 15  2  5  9 51 47.9990000  0 14G23G 3G20G 9G17G 1G 6S20G 4S26G11G32
                                G10G31
  19868572.401   104410021.323        3366.051          51.000  
  20519472.581   107830527.770        1507.083          46.000  
  20111905.902   105688779.079        4751.641          47.000  
  20447223.362   107450862.718        5327.507          49.000  
  21688859.641   113975680.281        1230.531          44.000  
  22301334.108   117194255.407         -36.234          43.000  
  21298888.766   111926432.291        5800.985          45.000  
  37366002.886   196359635.585        3167.264          40.000  
  25185047.943   132348282.146        -489.478          34.000  
  37737601.599   198312434.328        3236.826          37.000  
  24661048.616   112264996.736        -675.299          37.000  
  24161481.744   126969441.2812        203.547          33.000  
  22601019.590    88836159.723        6191.057          38.000  
  23974881.054    85027901.158        1035.506          36.000  
 15  2  5  9 51 48.9990000  0 14G23G 3G20G 9G17G 1G 6S20G 4S26G11G32
                                G10G31
  19867931.629   104406655.135        3366.305          51.000  
  20519185.961   107829020.890        1507.210          46.000  
  20111001.911   105684027.164        4752.180          47.000  
  20446209.383   107445534.843        5328.057          49.000  
  21688625.529   113974450.127        1230.213          44.000  
  22301340.722   117194291.392         -35.846          43.000  
  21297785.180   111920630.895        5801.994          44.000  
  37365400.190   196356468.780        3167.403          39.000  
  25185140.761   132348771.381        -489.733          33.000  
  37736985.747   198309196.806        3239.193          37.000  
  24661176.736   112265671.759        -673.258          37.000  
  24161442.430   126969234.9122        207.621          33.000  
  22599840.881    88829968.204        6191.475          38.000  
  23974683.588    85026865.380        1039.021          36.000  
 15  2  5  9 51 49.9990000  0 14G23G 3G20G 9G17G 1G 6S20G 4S26G11G32
                                G10G31
  19867291.171   104403289.228        3365.599          50.000  
  20518898.974   107827514.004        1506.862          46.000  
  20110097.658   105679275.294        4751.521          47.000  
  20445195.804   107440207.210        5327.221          49.000  
  21688391.975   113973220.226        1229.903          44.000  
  22301347.161   117194327.404         -36.684          43.000  
  21296681.523   111914829.588        5800.582          45.000  
  37364797.686   196353301.677        3167.453          39.000  
  25185233.613   132349260.345        -490.127          33.000  
  37736369.789   198305958.551        3237.526          36.000  
  24661305.484   112266346.539        -673.489          37.000  
  24161402.695   126969028.2892        206.966          32.000  
  22598662.433    88823776.598        6192.093          38.000  
  23974486.346    85025829.866        1033.832          36.000  
 15  2  5  9 51 50.9990000  0 14G23G 3G20G 9G17G 1G 6S20G 4S26G11G32
                                G10G31
  19866650.783   104399923.684        3365.573          50.000  
  20518612.494   107826007.228        1506.816          46.000  
  20109193.562   105674523.589        4751.668          47.000  
  20444181.999   107434879.880        5326.858          49.000  
  21688157.863   113971990.667        1229.348          44.000  
  22301354.246   117194363.494         -36.329          43.000  
  21295577.675   111909028.451        5801.323          45.000  
  37364195.008   196350134.525        3167.038          39.000  
  25185327.077   132349749.133        -489.338          33.000  
  37735753.551   198302720.191        3236.146          36.000  
  24661433.638   112267021.170        -674.883          37.000  
  24161363.065   126968821.5282        205.348          33.000  
  22597484.246    88817584.958        6191.265          37.000  
  23974290.048    85024794.705        1032.391          36.000  
 15  2  5  9 51 51.9990000  0 14G23G 3G20G 9G17G 1G 6S20G 4S26G11G32
                                G10G31
  19866010.429   104396558.361        3364.393          51.000  
  20518325.839   107824500.397        1506.309          46.000  
  20108289.291   105669771.873        4750.716          47.000  
  20443168.281   107429552.721        5326.738          49.000  
  21687923.681   113970761.301        1228.253          44.000  
  22301360.999   117194399.566         -36.692          43.000  
  21294473.826   111903227.358        5800.604          45.000  
  37363591.964   196346967.274        3168.218          40.000  
  25185420.017   132350237.613        -488.712          32.000  
  37735137.227   198299481.920        3237.372          37.000  
  24661562.263   112267695.493        -673.876          36.000  
  24161323.454   126968614.4432        207.223          32.000  
  22596306.304    88811393.185        6190.362          37.000  
  23974093.054    85023759.715        1035.639          36.000  
 15  2  5  9 51 52.9990000  0 14G23G 3G20G 9G17G 1G 6S20G 4S26G11G32
                                G10G31
  19865370.128   104393193.682        3364.323          50.000  
  20518039.167   107822993.930        1506.479          46.000  
  20107385.458   105665020.575        4751.354          47.000  
  20442154.772   107424226.146        5326.071          49.000  
  21687689.935   113969532.552        1228.177          44.000  
  22301367.944   117194435.992         -36.627          43.000  
  21293369.803   111897426.706        5800.594          44.000  
  37362989.198   196343800.066        3167.589          39.000  
  25185512.537   132350726.268        -492.310          32.000  
  37734521.166   198296243.731        3239.930          36.000  
  24661690.819   112268369.870        -673.373          37.000  
  24161284.174   126968407.5232        208.809          32.000  
  22595127.786    88805201.667        6192.041          37.000  
  23973895.342    85022725.352        1033.874          35.000  
 15  2  5  9 51 53.9990000  0 14G23G 3G20G 9G17G 1G 6S20G 4S26G11G32
                                G10G31
  19864729.950   104389829.251        3364.172          51.000  
  20517752.425   107821487.446        1506.731          46.000  
  20106481.117   105660269.300        4751.368          47.000  
  20441140.879   107418899.753        5326.120          49.000  
  21687456.085   113968304.007        1229.105          44.000  
  22301374.558   117194472.411         -36.392          43.000  
  21292266.042   111891626.098        5800.628          44.000  
  37362386.521   196340632.529        3170.076          40.000  
  25185605.251   132351214.682        -487.902          32.000  
  37733904.928   198293004.958        3238.322          37.000  
  24661819.078   112269043.973        -675.436          37.000  
  24161244.650   126968200.2282        210.070          32.000  
  22593950.158    88799010.010        6192.268          37.000  
  23973698.294    85021691.194        1032.531          35.000  
 15  2  5  9 51 54.9990000  0 14G23G 3G20G 9G17G 1G 6S20G 4S26G11G32
                                G10G31
  19864089.788   104386465.217        3363.533          51.000  
  20517465.648   107819981.083        1506.192          46.000  
  20105577.074   105655518.206        4750.163          47.000  
  20440127.300   107413573.707        5325.456          49.000  
  21687222.443   113967075.841        1227.480          44.000  
  22301381.572   117194508.963         -37.898          43.000  
  21291162.106   111885825.722        5799.606          44.000  
  37361783.562   196337464.820        3166.813          39.000  
  25185697.737   132351702.836        -489.160          32.000  
  37733288.918   198289766.081        3237.090          37.000  
  24661947.145   112269717.910        -675.596          37.000  
  24161204.635   126967993.389         205.130          33.000  
  22592771.204    88792818.365        6190.680          38.000  
  23973501.788    85020657.398        1033.975          35.000  
 15  2  5  9 51 55.9990000  0 14G23G 3G20G 9G17G 1G 6S20G 4S26G11G32
                                G10G31
  19863449.627   104383102.268        3362.627          50.000  
  20517179.098   107818475.524        1505.234          46.000  
  20104673.065   105650767.971        4750.153          47.000  
  20439114.053   107408248.701        5324.620          49.000  
  21686988.854   113965848.733        1226.319          44.000  
  22301388.570   117194546.320         -37.422          43.000  
  21290058.746   111880026.237        5798.965          45.000  
  37361180.867   196334297.646        3167.492          40.000  
  25185791.026   132352191.1743       -489.066          32.000  
  37732672.734   198286527.749        3240.393          37.000  
  24662075.823   112270392.453        -674.672          37.000  
  24161165.372   126967786.590         206.775          32.000  
  22591593.576    88786627.447        6192.012          37.000  
  23973304.565    85019624.655        1034.205          35.000  
 15  2  5  9 51 56.9990000  0 14G23G 3G20G 9G17G 1G 6S20G 4S26G11G32
                                G10G31
  19862809.919   104379739.737        3362.611          51.000  
  20516892.426   107816970.131        1505.444          46.000  
  20103769.231   105646017.935        4750.053          47.000  
  20438100.876   107402924.060        5324.437          49.000  
  21686755.598   113964622.022        1227.044          44.000  
  22301395.655   117194583.847         -38.107          43.000  
  21288955.037   111874226.984        5798.947          45.000  
  37360578.311   196331130.444        3168.084          39.000  
  25185883.809   132352679.8902       -489.218          32.000  
  37732056.357   198283289.5763       3237.354          37.000  
  24662204.012   112271066.831        -675.126          37.000  
  24161125.900   126967579.669         206.627          32.000  
  22590415.302    88780436.528        6190.670          38.000  
  23973108.512    85018592.298        1033.454          35.000  
 15  2  5  9 51 57.9990000  0 14G23G 3G20G 9G17G 1G 6S20G 4S26G11G32
                                G10G31
  19862170.176   104376377.884        3361.562          51.000  
  20516606.486   107815465.123        1505.307          46.000  
  20102865.484   105641268.340        4749.553          47.000  
  20437087.734   107397600.035        5323.786          49.000  
  21686522.218   113963395.950        1225.628          44.000  
  22301403.123   117194621.776         -38.320          43.000  
  21287851.939   111868428.200        5798.772          45.000  
  37359975.493   196327963.231        3166.458          40.000  
  25185977.203   132353168.7722       -487.002          32.000  
  37731439.648   198280051.476        3236.450          37.000  
  24662332.132   112271741.341        -673.865          37.000  
  24161086.287   126967372.925         204.713          33.000  
  22589236.976    88774245.924        6190.139          38.000  
  23972911.952    85017560.629        1032.097          35.000  
 15  2  5  9 51 58.9990000  0 14G23G 3G20G 9G17G 1G 6S20G 4S26G11G32
                                G10G31
  19861530.835   104373016.362        3360.884          51.000  
  20516319.831   107813960.171        1504.443          46.000  
  20101961.493   105636518.860        4748.619          47.000  
  20436074.783   107392276.274        5322.601          49.000  
  21686289.065   113962170.192        1224.542          44.000  
  22301410.190   117194659.777         -39.064          42.000  
  21286748.474   111862629.575        5798.113          45.000  
  37359372.710   196324795.892        3167.790          39.000  
  25186070.246   132353657.4502       -490.588          32.000  
  37730823.255   198276812.984        3239.770          36.000  
  24662460.409   112272415.663        -672.832          37.000  
  24161046.501   126967165.939         206.301          33.000  
  22588059.470    88768055.264        6189.427          38.000  
  23972715.653    85016529.225        1028.903          35.000  
 15  2  5  9 51 59.9990000  0 14G23G 3G20G 9G17G 1G 6S20G 4S26G11G32
                                G10G31
  19860891.389   104369655.693        3360.037          51.000  
  20516033.543   107812455.819        1503.785          46.000  
  20101057.885   105631770.003        4748.632          47.000  
  20435061.728   107386953.340        5322.860          49.000  
  21686055.965   113960945.249        1224.969          44.000  
  22301417.537   117194698.372         -38.193          42.000  
  21285645.271   111856831.611        5797.271          45.000  
  37358770.154   196321628.800        3166.573          40.000  
  25186163.239   132354146.4862       -489.602          32.000  
  37730206.913   198273574.872        3237.978          36.000  
  24662589.191   112273090.206        -674.272          37.000  
  24161007.570   126966959.311         205.518          33.000  
  22586881.528    88761865.090        6188.748          38.000  
  23972519.758    85015498.646        1029.882          35.000  
 15  2  5  9 52  0.9990000  0 14G23G 3G20G 9G17G 1G 6S20G 4S26G11G32
                                G10G31
  19860251.629   104366295.510        3359.319          50.000  
  20515747.097   107810951.670        1503.000          46.000  
  20100154.104   105627021.405        4748.194          47.000  
  20434049.144   107381630.808        5321.778          49.000  
  21685823.126   113959720.780        1223.808          44.000  
  22301424.831   117194737.155         -39.179          42.000  
  21284541.352   111851033.933        5796.502          44.000  
  37358167.424   196318461.818        3167.462          39.000  
  25186256.511   132354635.4942       -488.625          32.000  
  37729590.623   198270336.711        3236.043          36.000  
  24662717.276   112273764.821        -674.817          37.000  
  24160967.923   126966752.622         206.410          33.000  
  22585704.336    88755675.003        6189.757          38.000  
  23972323.826    85014468.531        1029.235          34.000  
 15  2  5  9 52  1.9990000  0 14G23G 3G20G 9G17G 1G 6S20G 4S26G11G32
                                G10G31
  19859612.515   104362935.788        3359.742          51.000  
  20515461.176   107809447.715        1504.227          46.000  
  20099250.758   105622273.049        4748.694          47.000  
  20433036.264   107376308.706        5322.752          49.000  
  21685590.393   113958496.729        1224.463          44.000  
  22301432.160   117194776.169         -39.391          42.000  
  21283438.272   111845236.531        5797.642          44.000  
  37357564.920   196315294.975        3167.766          40.000  
  25186349.607   132355124.3762       -488.511          32.000  
  37728974.300   198267098.638        3238.680          37.000  
  24662844.977   112274439.254        -674.042          37.000  
  24160928.853   126966545.850         208.079          32.000  
  22584526.569    88749485.016        6190.376          38.000  
  23972127.617    85013438.795        1030.769          35.000  
 15  2  5  9 52  2.9990000  0 14G23G 3G20G 9G17G 1G 6S20G 4S26G11G32
                                G10G31
  19858973.470   104359576.624        3358.176          51.000  
  20515175.411   107807944.035        1503.168          46.000  
  20098347.011   105617525.029        4746.772          47.000  
  20432023.575   107370987.099        5320.860          49.000  
  21685357.519   113957273.224        1222.656          44.000  
  22301439.559   117194815.459         -40.076          42.000  
  21282334.737   111839439.493        5796.648          44.000  
  37356962.206   196312127.839        3164.939          39.000  
  25186442.685   132355613.4012       -492.655          32.000  
  37728358.028   198263860.388        3239.518          37.000  
  24662973.724   112275113.759        -675.672          37.000  
  24160889.310   126966339.123         206.430          33.000  
  22583349.273    88743295.205        6190.217          38.000  
  23971931.859    85012409.638        1026.914          35.000  
 15  2  5  9 52  3.9990000  0 14G23G 3G20G 9G17G 1G 6S20G 4S26G11G32
                                G10G31
  19858334.425   104356217.530        3358.321          51.000  
  20514889.192   107806440.156        1503.565          46.000  
  20097443.858   105612776.843        4747.676          47.000  
  20431011.392   107365665.509        5320.951          49.000  
  21685124.681   113956049.741        1222.368          44.000  
  22301447.167   117194854.545         -39.157          42.000  
  21281231.395   111833642.338        5796.938          44.000  
  37356359.494   196308960.125        3167.385          40.000  
  25186536.064   132356101.9302       -486.550          32.000  
  37727741.668   198260621.406        3237.417          37.000  
  24663101.896   112275787.762        -674.751          37.000  
  24160850.098   126966131.988         203.777          33.000  
  22582171.785    88737105.074        6191.447          39.000  
  23971735.807    85011380.509        1030.326          35.000  
 15  2  5  9 52  4.9990000  0 14G23G 3G20G 9G17G 1G 6S20G 4S26G11G32
                                G10G31
  19857695.468   104352859.208        3358.153          51.000  
  20514602.921   107804936.779        1503.494          46.000  
  20096540.495   105608029.220        4747.439          47.000  
  20429999.070   107360344.641        5320.212          49.000  
  21684891.878   113954827.018        1222.795          44.000  
  22301454.723   117194894.165         -39.629          42.000  
  21280128.454   111827845.785        5796.436          44.000  
  37355756.868   196305792.659        3167.799          39.000  
  25186629.039   132356590.6792       -486.590          32.000  
  37727125.275   198257382.881        3240.950          37.000  
  24663230.417   112276462.051        -673.553          37.000  
  24160810.870   126965924.5623        204.070          33.000  
  22580994.488    88730915.329        6190.644          39.000  
  23971540.346    85010352.140        1028.316          35.000  
 15  2  5  9 52  5.9990000  0 14G23G 3G20G 9G17G 1G 6S20G 4S26G11G32
                                G10G31
  19857056.179   104349500.908        3358.390          51.000  
  20514317.296   107803433.165        1504.036          46.000  
  20095636.853   105603281.398        4748.283          47.000  
  20428986.399   107355023.756        5321.296          49.000  
  21684659.249   113953604.300        1223.642          44.000  
  22301462.314   117194933.532         -39.046          42.000  
  21279025.443   111822049.054        5797.280          45.000  
  37355153.946   196302624.851        3169.234          40.000  
  25186721.821   132357078.9662       -488.479          32.000  
  37726508.812   198254144.108        3241.388          36.000  
  24663358.536   112277135.763        -675.196          37.000  
  24160771.382   126965717.1572        208.125          33.000  
  22579816.878    88724725.270        6191.042          39.000  
  23971343.909    85009323.737        1028.025          34.000  
 15  2  5  9 52  6.9990000  0 14G23G 3G20G 9G17G 1G 6S20G 4S26G11G32
                                G10G31
  19856417.239   104346143.396        3356.315          51.000  
  20514031.269   107801930.069        1502.443          46.000  
  20094733.681   105598534.144        4746.366          47.000  
  20427973.640   107349703.598        5319.004          49.000  
  21684426.375   113952382.349        1220.468          44.000  
  22301470.201   117194973.417         -41.028          42.000  
  21277922.903   111816252.941        5795.470          45.000  
  37354550.987   196299457.423        3165.123          39.000  
  25186814.919   132357568.034        -485.915          32.000  
  37725892.156   198250905.440        3240.142          37.000  
  24663486.795   112277809.716        -674.387          37.000  
  24160731.979   126965509.9502        207.429          33.000  
  22578639.231    88718535.591        6188.196          39.000  
  23971147.802    85008296.095        1025.339          35.000  
 15  2  5  9 52  7.9990000  0 14G23G 3G20G 9G17G 1G 6S20G 4S26G11G32
                                G10G31
  19855778.526   104342786.787        3356.938          51.000  
  20513745.609   107800427.595        1502.730          46.000  
  20093830.232   105593787.578        4747.118          47.000  
  20426961.563   107344384.300        5319.637          49.000  
  21684194.113   113951161.278        1220.797          44.000  
  22301477.880   117195013.940         -39.375          42.000  
  21276820.224   111810457.544        5795.865          45.000  
  37353948.258   196296290.453        3166.808          40.000  
  25186907.787   132358057.004        -490.385          32.000  
  37725276.109   198247667.450        3236.249          36.000  
  24663615.386   112278484.056        -673.336          37.000  
  24160692.646   126965303.1462        207.510          34.000  
  22577461.970    88712346.436        6189.005          39.000  
  23970953.111    85007269.351        1027.873          35.000  
