     2.11           OBSERVATION DATA    M (MIXED)           RINEX VERSION / TYPE
RTKCONV 2.4.2       SAT                 20191005 105510 UTC PGM / RUN BY / DATE 
log: C:\Users\arnau\Desktop\u-center\COM3_191005_100358_st  COMMENT             
format: u-blox                                              COMMENT             
Example                                                     COMMENT             
                                                            MARKER NAME         
                                                            MARKER NUMBER       
ASNAT               ENAC                                    OBSERVER / AGENCY   
                                                            REC # / TYPE / VERS 
                                                            ANT # / TYPE        
  4627624.0171   119930.3655  4373207.8575                  APPROX POSITION XYZ 
        0.0000        0.0000        0.0000                  ANTENNA: DELTA H/E/N
     1     1                                                WAVELENGTH FACT L1/2
     4    C1    L1    D1    S1                              # / TYPES OF OBSERV 
  2019    10     5    10     4   32.0000000     GPS         TIME OF FIRST OBS   
  2019    10     5    10    29    3.0000000     GPS         TIME OF LAST OBS    
                                                            END OF HEADER       
 19 10  5 10  4 32.0000000  0 12G32G10G14G28G 3G18G17G 1G 8G11G27G22
  22672513.311      674055.8203      -1493.507          43.000  
  25120405.984     1020200.4963      -4062.330          36.000  
  22431649.073     -172098.8683        183.348          43.000  
  23461876.284       62579.6473       -186.137          29.000  
  22155998.279    -1166916.7923       2151.194          41.000  
  20006270.287     1175508.2213      -1043.733          47.000  
  25666009.971    -1808553.6743       2748.794          40.000  
  20597525.161     -192836.4473        366.161          43.000  
  21294768.015     2851173.8863      -2951.450          47.000  
  20128620.255     -183742.0223        304.901          43.000  
  24093569.315     2114445.2203      -4291.228          39.000  
  21127422.102    -1379681.1363        824.961          41.000  
 19 10  5 10  4 33.0000000  0 12G32G10G14G28G 3G18G17G 1G 8G11G27G22
  22672799.704      675558.2073      -1510.005          45.000  
  25121181.088     1024271.6153      -4078.861          36.000  
  22431615.533     -172273.6803        167.740          42.000  
  23461917.222       62773.7843       -202.007          30.000  
  22155590.781    -1169059.2933       2135.314          41.000  
  20006470.685     1176560.6733      -1059.805          47.000  
  25665488.594    -1811294.1923       2733.417          41.000  
  20597457.175     -193193.7003        350.185          44.000  
  21295331.448     2854134.1023      -2967.600          49.000  
  20128563.856     -184037.9223        288.148          44.000  
  24094387.765     2118745.2823      -4306.819          39.000  
  21127266.656    -1380497.5303        809.168          42.000  
 19 10  5 10  4 34.0000000  0 12G32G10G14G28G 3G18G17G 1G 8G11G27G22
  22673087.842      677067.6312      -1508.506          46.000  
  25121956.715     1028349.2892      -4075.507          36.000  
  22431583.320     -172441.3562        168.348          41.000  
  23461968.107       62975.6013       -200.526          31.000  
  22155183.703    -1171194.9482       2137.220          42.000  
  20006672.584     1177620.0742      -1058.292          48.000  
  25664967.705    -1814028.1492       2735.514          41.000  
  20597391.492     -193544.1412        351.484          47.000  
  21295896.207     2857101.3792      -2966.117          49.000  
  20128509.307     -184326.7662        289.561          44.000  
  24095207.367     2123051.9262      -4305.947          39.000  
  21127112.640    -1381306.9012        810.255          44.000  
 19 10  5 10  4 35.0000000  0 12G32G10G14G28G 3G18G17G 1G 8G11G27G22
  22673375.073      678575.6142      -1507.921          45.000  
  25122733.040     1032424.8762      -4076.083          35.000  
  22431551.107     -172610.5332        169.322          42.000  
  23462016.793       63175.8813       -198.987          30.000  
  22154776.938    -1173332.2792       2137.905          40.000  
  20006873.925     1178677.8332      -1057.966          48.000  
  25664447.234    -1816764.1562       2736.256          41.000  
  20597324.867     -193896.3272        352.420          45.000  
  21296460.966     2860066.9662      -2965.844          48.000  
  20128453.640     -184617.2062        290.875          44.000  
  24096027.318     2127356.7722      -4303.088          38.000  
  21126958.625    -1382117.9752        810.965          44.000  
 19 10  5 10  4 36.0000000  0 12G32G10G14G28G 3G18G17G 1G 8G11G27G22
  22673661.361      680083.7892      -1508.482          45.000  
  25123508.668     1036500.0692      -4075.782          35.000  
  22431518.336     -172779.5802        168.428          42.000  
  23462064.746       63375.6653       -200.322          29.000  
  22154369.859    -1175469.7072       2137.666          37.000  
  20007075.161     1179735.6092      -1058.624          48.000  
  25663926.904    -1819500.5892       2736.289          41.000  
  20597257.998     -194248.6502        352.284          45.000  
  21297025.375     2863032.6412      -2965.752          48.000  
  20128398.672     -184907.5502        289.748          43.000  
  24096846.466     2131661.2212      -4304.205          38.000  
  21126804.923    -1382928.9972        810.591          43.000  
 19 10  5 10  4 37.0000000  0 12G32G10G14G28G 3G18G17G 1G 8G11G27G22
  22673947.615      681592.6552      -1510.018          44.000  
  25124283.213     1040575.2572      -4078.157          34.000  
  22431486.367     -172947.9992        167.358          42.000  
  23462107.744       63576.5213       -201.642          26.000  
  22153962.048    -1177606.7642       2136.166          37.000  
  20007276.432     1180793.8442      -1059.187          47.000  
  25663406.364    -1822236.9662       2735.486          41.000  
  20597190.989     -194600.5252        351.132          45.000  
  21297589.366     2865998.7972      -2967.297          47.000  
  20128342.867     -185197.3772        288.597          43.000  
  24097665.614     2135965.8922      -4305.540          38.000  
  21126650.070    -1383739.5522        809.666          43.000  
 19 10  5 10  4 38.0000000  0 12G32G10G14G28G 3G18G17G 1G 8G11G27G22
  22674234.391      683102.3922      -1510.902          42.000  
  25125058.177     1044650.8323      -4076.448          34.000  
  22431454.014     -173115.6032        167.511          42.000  
  23462154.790       63777.0983       -200.124          26.000  
  22153555.597    -1179743.1902       2135.663          39.000  
  20007478.017     1181852.8062      -1058.880          48.000  
  25662885.998    -1824973.0422       2735.958          40.000  
  20597123.980     -194951.8142        350.902          45.000  
  21298153.462     2868965.6942      -2967.204          49.000  
  20128287.724     -185486.4012        289.002          44.000  
  24098484.727     2140271.0622      -4305.107          39.000  
  21126496.508    -1384549.3772        809.641          42.000  
 19 10  5 10  4 39.0000000  0 12G32G10G14G28G 3G18G17G 1G 8G11G27G22
  22674520.505      684612.8832      -1510.391          42.000  
  25125833.211     1048726.4372      -4076.610          36.000  
  22431421.592     -173282.5112        166.871          41.000  
  23462188.224       63978.9483       -202.480          28.000  
  22153149.356    -1181879.1182       2136.197          38.000  
  20007680.055     1182912.2652      -1059.737          48.000  
  25662365.458    -1827709.0652       2736.837          40.000  
  20597056.483     -195302.6682        350.863          46.000  
  21298717.907     2871933.1722      -2967.565          49.000  
  20128233.314     -185774.8402        287.936          43.000  
  24099304.224     2144576.3842      -4305.649          39.000  
  21126342.353    -1385358.6842        808.597          42.000  
 19 10  5 10  4 40.0000000  0 12G32G10G14G28G 3G18G17G 1G 8G11G27G22
  22674807.980      686124.0292      -1511.370          42.000  
  25126609.187     1052802.0922      -4076.153          35.000  
  22431389.728     -173448.8222        165.891          41.000  
  23462222.531       64181.6733       -203.690          30.000  
  22152742.836    -1184014.7192       2135.444          40.000  
  20007881.780     1183972.1732      -1060.054          48.000  
  25661843.976    -1830445.0012       2735.988          40.000  
  20596989.823     -195653.1742        350.373          46.000  
  21299282.491     2874901.1592      -2968.138          48.000  
  20128178.974     -186062.7322        287.564          43.000  
  24100123.722     2148881.9342      -4306.319          39.000  
  21126187.918    -1386167.5082        808.691          42.000  
 19 10  5 10  4 41.0000000  0 12G32G10G14G28G 3G18G17G 1G 8G11G27G22
  22675095.560      687635.6092      -1511.751          42.000  
  25127384.605     1056877.5692      -4075.872          35.000  
  22431358.212     -173614.7292        165.760          41.000  
  23462257.990       64384.9903       -204.461          30.000  
  22152336.560    -1186150.1422       2134.673          40.000  
  20008084.482     1185032.3302      -1060.343          48.000  
  25661322.668    -1833181.1222       2736.402          40.000  
  20596922.849     -196003.5192        350.317          45.000  
  21299847.529     2877869.4292      -2968.510          48.000  
  20128124.634     -186350.3022        287.220          43.000  
  24100943.463     2153187.4422      -4306.130          38.000  
  21126034.217    -1386976.0652        808.181          42.000  
 19 10  5 10  4 42.0000000  0 12G32G10G14G28G 3G18G17G 1G 8G11G27G22
  22675383.453      689147.8002      -1512.633          42.000  
  25128159.674     1060953.1132      -4075.487          35.000  
  22431326.383     -173780.0732        164.451          40.000  
  23462296.311       64589.1693       -203.115          31.000  
  22151929.551    -1188285.1972       2134.643          39.000  
  20008285.892     1186092.9212      -1060.525          48.000  
  25660801.535    -1835917.2542       2736.812          40.000  
  20596856.468     -196353.5302        350.006          45.000  
  21300412.777     2880838.1662      -2968.684          49.000  
  20128070.469     -186637.3542        286.863          43.000  
  24101762.367     2157493.0882      -4305.100          38.000  
  21125880.794    -1387784.1822        808.141          42.000  
 19 10  5 10  4 43.0000000  0 12G32G10G14G28G 3G18G17G 1G 8G11G27G22
  22675671.033      690660.718       -1512.972          41.000  
  25128934.848     1065028.7152      -4075.929          35.000  
  22431294.903     -173945.249         164.477          41.000  
  23462334.073       64793.7633       -203.674          31.000  
  22151523.903    -1190419.885        2134.232          39.000  
  20008488.384     1187153.516       -1060.990          48.000  
  25660280.576    -1838653.306        2735.821          40.000  
  20596790.192     -196703.648         349.180          45.000  
  21300977.989     2883806.965       -2969.256          48.000  
  20128015.256     -186923.826         286.494          43.000  
  24102581.620     2161799.000       -4305.292          38.000  
  21125727.651    -1388592.253         806.960          42.000  
 19 10  5 10  4 44.0000000  0 12G32G10G14G28G 3G18G17G 1G 8G11G27G22
  22675958.892      692174.174       -1514.116          42.000  
  25129710.300     1069104.2802      -4075.144          34.000  
  22431264.226     -174109.403         163.972          42.000  
  23462377.873       64998.8723       -206.153          29.000  
  22151118.535    -1192554.295        2134.875          42.000  
  20008690.632     1188214.992       -1061.544          49.000  
  25659760.629    -1841389.382        2735.749          40.000  
  20596723.742     -197052.969         349.577          45.000  
  21301542.574     2886776.689       -2970.429          48.000  
  20127960.428     -187209.825         286.012          43.000  
  24103400.838     2166104.971       -4306.848          38.000  
  21125574.194    -1389399.418         806.607          43.000  
 19 10  5 10  4 45.0000000  0 11G32G10G14G 3G18G17G 1G 8G11G27G22
  22676247.309      693688.313       -1514.309          43.000  
  25130484.253     1073179.9043      -4074.418          32.000  
  22431233.862     -174272.956         163.465          43.000  
  22150713.445    -1194688.236        2134.289          43.000  
  20008892.566     1189276.908       -1062.271          49.000  
  25659240.020    -1844125.407        2735.749          40.000  
  20596657.327     -197401.905         348.809          47.000  
  21302107.786     2889746.879       -2970.715          48.000  
  20127905.180     -187495.331         284.897          43.000  
  24104220.439     2170411.169       -4305.932          39.000  
  21125420.807    -1390206.129         806.236          43.000  
 19 10  5 10  4 46.0000000  0 12G32G10G14G28G 3G18G17G 1G 8G11G27G22
  22676535.901      695203.088       -1514.778          41.000  
  25131259.252     1077255.5112      -4075.609          32.000  
  22431202.626     -174435.944         162.093          42.000  
  23462454.689       65411.2123       -206.052          25.000  
  22150307.414    -1196821.846        2133.238          42.000  
  20009094.186     1190339.279       -1062.891          47.000  
  25658719.933    -1846861.430        2735.498          40.000  
  20596591.260     -197750.515         348.251          46.000  
  21302673.069     2892717.558       -2970.938          47.000  
  20127850.666     -187780.302         284.313          42.000  
  24105039.308     2174717.511       -4306.268          38.000  
  21125266.372    -1391012.377         806.459          42.000  
 19 10  5 10  4 47.0000000  0 12G32G10G14G28G 3G18G17G 1G 8G11G27G22
  22676824.667      696718.620       -1515.294          44.000  
  25132034.425     1081331.2312      -4076.764          33.000  
  22431172.228     -174598.184         162.495          42.000  
  23462477.130       65618.1533       -206.994          27.000  
  22149901.836    -1198954.963        2132.579          43.000  
  20009296.015     1191402.262       -1063.073          48.000  
  25658199.289    -1849597.283        2736.629          40.000  
  20596525.542     -198098.636         347.487          46.000  
  21303237.862     2895688.837       -2970.966          46.000  
  20127796.186     -188064.632         284.152          42.000  
  24105858.701     2179024.120       -4307.298          38.000  
  21125113.404    -1391818.055         806.290          42.000  
 19 10  5 10  4 48.0000000  0 12G32G10G14G28G 3G18G17G 1G 8G11G27G22
  22677113.642      698234.749       -1516.528          45.000  
  25132811.134     1085407.0122      -4075.319          34.000  
  22431142.283     -174759.839         160.823          41.000  
  23462506.935       65825.6933       -205.629          28.000  
  22149495.664    -1201087.763        2132.488          43.000  
  20009498.438     1192465.594       -1063.657          49.000  
  25657677.632    -1852333.144        2735.450          42.000  
  20596458.673     -198446.449         347.440          46.000  
  21303804.506     2898660.589       -2972.330          49.000  
  20127742.370     -188348.433         283.483          44.000  
  24106676.732     2183330.850       -4305.395          35.000  
  21124960.156    -1392623.317         804.618          44.000  
 19 10  5 10  4 49.0000000  0 11G32G10G14G 3G18G17G 1G 8G11G27G22
  22677402.513      699751.489       -1516.784          42.000  
  25133587.809     1089482.8072      -4076.516          36.000  
  22431111.746     -174920.949         161.206          41.000  
  22149089.947    -1203220.251        2133.248          43.000  
  20009700.651     1193529.351       -1063.817          48.000  
  25657157.685    -1855069.079        2736.095          41.000  
  20596393.095     -198793.956         347.404          48.000  
  21304370.032     2901632.823       -2972.194          47.000  
  20127688.693     -188631.800         283.360          42.000  
  24107494.903     2187637.828       -4308.022          34.000  
  21124806.978    -1393428.122         804.502          43.000  
 19 10  5 10  4 50.0000000  0 12G32G10G14G28G 3G18G17G 1G 8G11G27G22
  22677691.524      701268.706       -1517.194          42.000  
  25134363.785     1093558.4762      -4075.210          35.000  
  22431081.661     -175081.724         160.435          44.000  
  23462585.810       66243.8433       -213.643          27.000  
  22148682.659    -1205352.564        2132.400          38.000  
  20009902.515     1194593.399       -1063.936          49.000  
  25656636.971    -1857805.087        2736.380          41.000  
  20596327.692     -199141.244         347.426          47.000  
  21304935.350     2904605.370       -2972.692          47.000  
  20127634.772     -188914.758         282.233          43.000  
  24108313.213     2191944.658       -4306.439          34.000  
  21124654.149    -1394232.721         803.966          43.000  
 19 10  5 10  4 51.0000000  0 12G32G10G14G28G 3G18G17G 1G 8G11G27G22
  22677980.883      702786.612       -1518.533          44.000  
  25135139.168     1097634.0882      -4076.716          35.000  
  22431051.333     -175241.570         159.690          38.000  
  23462624.131       66455.2303       -208.333          27.000  
  22148277.255    -1207484.369        2131.849          41.000  
  20010104.972     1195657.913       -1064.460          48.000  
  25656117.164    -1860541.058        2736.127          41.000  
  20596261.660     -199488.207         346.532          47.000  
  21305501.574     2907578.468       -2973.816          43.000  
  20127580.920     -189197.228         282.584          43.000  
  24109132.536     2196251.7203      -4306.563          41.000  
  21124500.796    -1395036.748         803.670          42.000  
 19 10  5 10  4 52.0000000  0 11G32G10G14G 3G18G17G 1G 8G11G27G22
  22678269.510      704305.205       -1519.057          44.000  
  25135915.074     1101709.8222      -4076.051          37.000  
  22431021.353     -175401.225         160.391          36.000  
  22147871.294    -1209615.849        2131.228          40.000  
  20010307.325     1196722.898       -1064.967          49.000  
  25655596.833    -1863276.986        2735.311          41.000  
  20596196.082     -199834.751         346.952          47.000  
  21306066.647     2910551.979       -2973.558          49.000  
  20127526.790     -189479.087         281.160          43.000  
  24109953.848     2200558.8632      -4306.988          47.000  
  21124347.583    -1395840.269         803.219          44.000  
 19 10  5 10  4 53.0000000  0 11G32G10G14G 3G18G17G 1G 8G11G27G22
  22678557.683      705824.439       -1519.754          43.000  
  25136690.806     1105785.6522      -4076.048          32.000  
  22430991.060     -175559.6033        158.880          41.000  
  22147465.611    -1211746.992        2129.713          42.000  
  20010509.852     1197788.235       -1065.298          48.000  
  25655076.223    -1866012.880        2735.533          43.000  
  20596129.702     -200180.995         346.230          47.000  
  21306631.999     2913525.983       -2974.183          49.000  
  20127473.601     -189760.487         281.536          43.000  
  24110775.125     2204866.2782      -4307.171          47.000  
  21124194.615    -1396643.410         802.177          43.000  
 19 10  5 10  4 54.0000000  0 11G32G10G14G 3G18G17G 1G 8G11G27G22
  22678847.287      707344.182       -1520.019          45.000  
  25137466.469     1109861.2472      -4075.701          32.000  
  22430960.662     -175717.9283        158.133          41.000  
  22147059.998    -1213877.803        2130.924          41.000  
  20010712.484     1198854.014       -1065.980          48.000  
  25654555.753    -1868748.771        2737.299          42.000  
  20596063.286     -200526.957         345.980          47.000  
  21307197.421     2916500.463       -2974.117          48.000  
  20127420.064     -190041.412         280.796          43.000  
  24111594.727     2209173.8172      -4307.548          47.000  
  21124041.611    -1397446.115         802.953          43.000  
 19 10  5 10  4 55.0000000  0 11G32G10G14G 3G18G17G 1G 8G11G27G22
  22679136.542      708864.517       -1520.717          43.000  
  25138242.794     1113936.449       -4075.845          32.000  
  22430930.996     -175875.7572        158.140          41.000  
  22146655.048    -1216008.352        2130.006          41.000  
  20010914.907     1199920.149       -1066.328          48.000  
  25654034.515    -1871484.830        2736.635          41.000  
  20595997.324     -200872.624         345.630          47.000  
  21307763.576     2919475.340       -2975.416          48.000  
  20127366.911     -190321.893         280.283          43.000  
  24112414.154     2213481.4702      -4307.509          47.000  
  21123889.096    -1398248.436         801.600          43.000  
 19 10  5 10  4 56.0000000  0 11G32G10G14G 3G18G17G 1G 8G11G27G22
  22679425.308      710385.591       -1521.641          44.000  
  25139018.212     1118012.266       -4077.287          34.000  
  22430901.017     -176032.9882        156.935          41.000  
  22146250.308    -1218138.459        2129.879          42.000  
  20011117.748     1200986.783       -1066.351          48.000  
  25653513.835    -1874220.784        2735.812          42.000  
  20595931.328     -201217.880         344.741          47.000  
  21308329.557     2922450.758       -2975.748          48.000  
  20127313.478     -190601.780         279.673          43.000  
  24113233.791     2217789.3232      -4307.838          47.000  
  21123736.128    -1399050.240         801.888          43.000  
 19 10  5 10  4 57.0000000  0 11G32G10G14G 3G18G17G 1G 8G11G27G22
  22679715.644      711907.196       -1521.904          44.000  
  25139793.944     1122088.034       -4074.862          35.000  
  22430870.968     -176189.6672        156.943          39.000  
  22145844.137    -1220268.275        2129.211          41.000  
  20011321.043     1202053.805       -1066.939          48.000  
  25652993.016    -1876956.717        2735.869          42.000  
  20595865.785     -201562.837         345.063          46.000  
  21308896.060     2925426.638       -2975.720          48.000  
  20127261.093     -190881.199         279.021          43.000  
  24114053.602     2222097.3062      -4308.031          47.000  
  21123583.299    -1399851.630         801.149          43.000  
 19 10  5 10  4 58.0000000  0 11G32G10G14G 3G18G17G 1G 8G11G27G22
  22680004.795      713429.476       -1522.397          45.000  
  25140569.920     1126163.764       -4074.825          35.000  
  22430840.395     -176345.7442        155.939          40.000  
  22145438.628    -1222397.700        2130.087          41.000  
  20011524.478     1203121.275       -1067.678          48.000  
  25652472.930    -1879692.646        2736.146          42.000  
  20595799.788     -201907.453         344.600          46.000  
  21309462.006     2928403.007       -2976.810          48.000  
  20127207.660     -191160.102         278.442          43.000  
  24114873.169     2226405.4682      -4308.480          47.000  
  21123430.435    -1400652.568         800.505          43.000  
 19 10  5 10  4 59.0000000  0 11G32G10G14G 3G18G17G 1G 8G11G27G22
  22680294.189      714952.302       -1523.174          42.000  
  25141346.245     1130239.397       -4076.024          33.000  
  22430810.694     -176501.3272        155.174          39.000  
  22145033.016    -1224526.889        2128.525          38.000  
  20011727.633     1204189.070       -1068.002          46.000  
  25651952.913    -1882428.643        2735.461          40.000  
  20595734.594     -202251.819         343.917          44.000  
  21310028.545     2931379.751       -2977.367          46.000  
  20127154.402     -191438.583         278.159          41.000  
  24115693.364     2230713.6662      -4308.487          45.000  
  21123278.059    -1401453.133         800.067          41.000  
 19 10  5 10  5  0.0000000  0 11G32G10G14G 3G18G17G 1G 8G11G27G22
  22680584.002      716475.703       -1523.489          44.000  
  25142122.326     1134315.046       -4075.482          36.000  
  22430780.820     -176656.3832        154.934          39.000  
  22144627.158    -1226655.739        2128.635          40.000  
  20011931.312     1205257.266       -1068.402          48.000  
  25651432.129    -1885164.664        2736.153          42.000  
  20595668.737     -202595.893         343.888          46.000  
  21310594.595     2934356.931       -2977.449          48.000  
  20127101.737     -191716.586         278.010          43.000  
  24116513.245     2235021.9922      -4308.294          48.000  
  21123125.614    -1402253.302         799.646          43.000  
 19 10  5 10  5  1.0000000  0 12G32G10G14G28G 3G18G17G 1G 8G11G27G22
  22680874.618      717999.851       -1524.852          43.000  
  25142898.756     1138390.848       -4075.195          36.000  
  22430751.294     -176811.257         153.418          38.000  
  23463039.516       68592.9843       -215.957          27.000  
  22144221.999    -1228784.142        2127.024          39.000  
  20012135.131     1206326.033       -1069.122          48.000  
  25650911.345    -1887900.549        2735.377          42.000  
  20595603.298     -202939.494         343.093          46.000  
  21311161.483     2937334.719       -2978.028          47.000  
  20127049.631     -191993.959         276.971          43.000  
  24117333.510     2239330.584       -4308.797          47.000  
  21122973.937    -1403052.895         798.635          42.000  
 19 10  5 10  5  2.0000000  0 12G32G10G14G28G 3G18G17G 1G 8G11G27G22
  22681165.060      719524.790       -1525.422          44.000  
  25143674.418     1142466.762       -4076.798          38.000  
  22430721.489     -176964.889         152.316          40.000  
  23463080.593       68808.4133       -215.727          29.000  
  22143816.421    -1230912.052        2127.621          41.000  
  20012338.880     1207395.361       -1069.561          48.000  
  25650391.049    -1890636.305        2735.051          42.000  
  20595538.174     -203282.619         342.946          46.000  
  21311727.917     2940313.120       -2979.014          47.000  
  20126996.687     -192270.679         276.643          43.000  
  24118154.299     2243639.491       -4309.188          48.000  
  21122821.457    -1403851.916         798.103          43.000  
 19 10  5 10  5  3.0000000  0 12G32G10G14G28G 3G18G17G 1G 8G11G27G22
  22681455.326      721050.347       -1525.387          44.000  
  25144450.046     1146542.728       -4075.713          37.000  
  22430692.277     -177117.947         152.853          39.000  
  23463127.918       69024.5323       -214.662          31.000  
  22143411.751    -1233039.579        2128.118          40.000  
  20012542.733     1208465.128       -1069.494          49.000  
  25649870.684    -1893371.996        2735.903          42.000  
  20595472.701     -203625.416         342.931          46.000  
  21312294.839     2943291.972       -2978.934          48.000  
  20126943.987     -192546.887         276.269          43.000  
  24118974.389     2247948.537       -4309.179          48.000  
  21122669.117    -1404650.463         798.693          43.000  
 19 10  5 10  5  4.0000000  0 12G32G10G14G28G 3G18G17G 1G 8G11G27G22
  22681745.663      722576.415       -1526.313          44.000  
  25145225.882     1150618.584       -4075.868          39.000  
  22430663.066     -177270.514         153.145          39.000  
  23463167.356       69241.0012       -215.069          32.000  
  22143006.871    -1235166.883        2126.888          41.000  
  20012746.447     1209535.198       -1069.837          49.000  
  25649350.283    -1896107.809        2735.851          43.000  
  20595408.135     -203967.973         342.999          46.000  
  21312862.076     2946271.189       -2979.245          48.000  
  20126891.323     -192822.693         276.483          43.000  
  24119794.514     2252257.626       -4309.013          48.000  
  21122516.951    -1405448.683         798.257          42.000  
 19 10  5 10  5  5.0000000  0 12G32G10G14G28G 3G18G17G 1G 8G11G27G22
  22682036.454      724103.241       -1527.183          42.000  
  25146000.777     1154694.561       -4076.023          37.000  
  22430634.308     -177422.404         152.522          37.000  
  23463206.863       69458.1132       -217.994          31.000  
  22142602.130    -1237293.710        2127.015          39.000  
  20012950.754     1210605.824       -1070.829          46.000  
  25648829.848    -1898843.479        2735.719          40.000  
  20595342.976     -204310.087         342.280          44.000  
  21313429.557     2949251.003       -2979.947          45.000  
  20126838.902     -193097.873         275.516          40.000  
  24120614.989     2256566.981       -4309.607          45.000  
  21122364.924    -1406246.344         797.758          40.000  
 19 10  5 10  5  6.0000000  0 12G32G10G14G28G 3G18G17G 1G 8G11G27G22
  22682327.035      725630.552       -1527.661          45.000  
  25146776.509     1158770.465       -4075.491          38.000  
  22430604.991     -177573.846         149.847          39.000  
  23463249.791       69675.6842       -218.338          32.000  
  22142197.809    -1239420.332        2126.193          41.000  
  20013154.084     1211676.738       -1071.413          49.000  
  25648308.819    -1901579.302        2735.737          43.000  
  20595278.271     -204651.996         341.603          47.000  
  21313996.759     2952231.145       -2980.482          48.000  
  20126787.040     -193372.705         274.723          43.000  
  24121435.254     2260876.356       -4309.487          48.000  
  21122213.142    -1407043.709         797.279          42.000  
 19 10  5 10  5  7.0000000  0 12G32G10G14G28G 3G18G17G 1G 8G11G27G22
  22682618.000      727158.681       -1528.405          43.000  
  25147551.473     1162846.558       -4075.721          38.000  
  22430576.582     -177724.496         150.445          39.000  
  23463289.123       69894.0722       -219.390          31.000  
  22141793.732    -1241546.392        2125.562          41.000  
  20013358.286     1212748.288       -1071.743          48.000  
  25647788.768    -1904314.872        2735.858          43.000  
  20595213.914     -204993.362         341.420          46.000  
  21314563.821     2955211.960       -2981.306          47.000  
  20126733.956     -193646.824         273.719          43.000  
  24122255.170     2265186.083       -4309.777          48.000  
  21122061.954    -1407840.413         796.518          42.000  
 19 10  5 10  5  8.0000000  0 12G32G10G14G28G 3G18G17G 1G 8G11G27G22
  22682909.209      728687.579       -1529.379          44.000  
  25148327.135     1166922.788       -4076.813          39.000  
  22430547.545     -177874.466         148.655          39.000  
  23463330.446       70113.1423       -218.547          31.000  
  22141390.213    -1243671.965        2125.739          42.000  
  20013562.070     1213820.419       -1072.817          49.000  
  25647268.053    -1907050.316        2734.750          43.000  
  20595148.581     -205334.264         340.500          47.000  
  21315131.128     2958193.389       -2982.067          48.000  
  20126682.199     -193920.277         272.389          43.000  
  24123075.504     2269496.106       -4310.123          48.000  
  21121909.997    -1408636.548         796.215          42.000  
 19 10  5 10  5  9.0000000  0 12G32G10G14G28G 3G18G17G 1G 8G11G27G22
  22683200.313      730217.191       -1529.680          43.000  
  25149103.007     1170999.096       -4076.325          37.000  
  22430519.450     -178023.743         149.329          39.000  
  23463370.791       70332.8843       -218.372          30.000  
  22140986.380    -1245797.119        2125.031          42.000  
  20013766.168     1214893.043       -1072.531          48.000  
  25646747.897    -1909785.648        2735.291          43.000  
  20595083.771     -205674.762         340.232          46.000  
  21315698.818     2961175.354       -2982.073          47.000  
  20126630.232     -194193.142         272.932          43.000  
  24123895.734     2273806.345       -4309.897          47.000  
  21121758.285    -1409432.168         795.583          42.000  
 19 10  5 10  5 10.0000000  0 12G32G10G14G28G 3G18G17G 1G 8G11G27G22
  22683491.697      731747.396       -1530.583          44.000  
  25149879.332     1175075.414       -4075.829          38.000  
  22430491.704     -178172.478         148.865          39.000  
  23463411.589       70553.0682       -222.750          29.000  
  22140582.093    -1247921.943        2125.330          42.000  
  20013970.545     1215966.045       -1073.357          49.000  
  25646227.776    -1912521.012        2735.871          43.000  
  20595018.646     -206014.950         340.301          47.000  
  21316265.636     2964157.762       -2982.245          48.000  
  20126578.091     -194465.546         272.652          43.000  
  24124715.790     2278116.711       -4310.424          48.000  
  21121606.887    -1410227.331         795.629          42.000  
 19 10  5 10  5 11.0000000  0 12G32G10G14G28G 3G18G17G 1G 8G11G27G22
  22683783.220      733278.249       -1531.705          42.000  
  25150655.657     1179151.758       -4076.565          36.000  
  22430463.749     -178320.628         147.617          37.000  
  23463450.538       70773.3743       -219.126          27.000  
  22140178.435    -1250046.387        2124.262          40.000  
  20014174.817     1217039.523       -1073.941          46.000  
  25645706.887    -1915256.344        2735.255          42.000  
  20594954.430     -206354.761         339.779          44.000  
  21316833.641     2967140.679       -2982.651          45.000  
  20126526.404     -194737.387         272.283          40.000  
  24125535.811     2282427.267       -4310.657          46.000  
  21121455.698    -1411022.046         794.224          41.000  
 19 10  5 10  5 12.0000000  0 12G32G10G14G28G 3G18G17G 1G 8G11G27G22
  22684074.116      734809.723       -1531.693          43.000  
  25151431.668     1183228.133       -4075.619          37.000  
  22430435.375     -178468.204         146.743          38.000  
  23463486.381       70995.3733       -223.039          25.000  
  22139774.567    -1252170.491        2124.378          42.000  
  20014378.985     1218113.426       -1073.949          48.000  
  25645186.417    -1917991.647        2735.692          43.000  
  20594890.003     -206694.243         339.837          46.000  
  21317401.227     2970124.054       -2983.612          48.000  
  20126474.227     -195008.752         271.119          42.000  
  24126356.424     2286737.954       -4310.588          48.000  
  21121305.487    -1411816.321         793.972          42.000  
 19 10  5 10  5 13.0000000  0 11G32G10G14G 3G18G17G 1G 8G11G27G22
  22684365.429      736341.554       -1532.510          44.000  
  25152207.296     1187304.234       -4075.492          38.000  
  22430407.211     -178615.457         147.007          39.000  
  22139370.455    -1254294.499        2124.210          43.000  
  20014583.361     1219187.503       -1073.625          49.000  
  25644665.877    -1920727.235        2735.427          44.000  
  20594825.542     -207033.653         339.706          47.000  
  21317969.615     2973107.645       -2983.819          48.000  
  20126422.994     -195279.861         271.189          43.000  
  24127175.957     2291048.550       -4310.488          48.000  
  21121154.438    -1412610.402         793.754          43.000  
 19 10  5 10  5 14.0000000  0 11G32G10G14G 3G18G17G 1G 8G11G27G22
  22684656.499      737874.150       -1533.235          43.000  
  25152983.063     1191380.469       -4077.169          38.000  
  22430378.836     -178762.051         145.625          39.000  
  22138966.831    -1256418.055        2123.654          42.000  
  20014787.564     1220262.103       -1074.834          49.000  
  25644145.162    -1923462.684        2735.183          44.000  
  20594760.837     -207372.634         338.497          47.000  
  21318537.445     2976091.831       -2984.387          48.000  
  20126372.109     -195550.366         269.468          43.000  
  24127996.047     2295359.397       -4311.363          47.000  
  21121003.389    -1413403.943         792.539          43.000  
 19 10  5 10  5 15.0000000  0 11G32G10G14G 3G18G17G 1G 8G11G27G22
  22684948.162      739407.469       -1533.690          44.000  
  25153758.585     1195456.823       -4076.011          39.000  
  22430351.126     -178907.916         145.462          39.000  
  22138562.719    -1258541.136        2122.550          42.000  
  20014991.662     1221337.251       -1075.425          49.000  
  25643625.076    -1926198.009        2735.727          44.000  
  20594696.446     -207711.143         338.228          47.000  
  21319105.066     2979076.613       -2984.972          48.000  
  20126320.491     -195820.221         269.856          43.000  
  24128815.998     2299670.522       -4311.000          48.000  
  21120851.711    -1414196.907         792.697          43.000  
 19 10  5 10  5 16.0000000  0 11G32G10G14G 3G18G17G 1G 8G11G27G22
  22685239.616      740941.281       -1533.868          43.000  
  25154533.759     1199533.038       -4076.050          38.000  
  22430323.798     -179053.378         144.746          39.000  
  22138158.537    -1260664.002        2122.451          42.000  
  20015196.457     1222412.692       -1075.909          48.000  
  25643104.641    -1928933.459        2735.036          44.000  
  20594632.194     -208049.462         338.059          46.000  
  21319673.420     2982061.696       -2985.439          47.000  
  20126269.222     -196089.727         268.863          43.000  
  24129636.088     2303981.651       -4310.790          47.000  
  21120700.453    -1414989.581         792.135          42.000  
 19 10  5 10  5 17.0000000  0 11G32G10G14G 3G18G17G 1G 8G11G27G22
  22685531.662      742475.795       -1534.444          44.000  
  25155308.932     1203609.332       -4077.197          39.000  
  22430295.773     -179198.166         144.668          39.000  
  22137753.867    -1262786.441        2121.918          42.000  
  20015400.834     1223488.640       -1075.854          49.000  
  25642583.508    -1931668.815        2735.649          44.000  
  20594567.907     -208387.361         338.100          47.000  
  21320241.424     2985047.350       -2985.852          48.000  
  20126217.954     -196358.617         268.921          43.000  
  24130456.318     2308293.005       -4311.548          48.000  
  21120550.172    -1415781.725         791.955          42.000  
 19 10  5 10  5 18.0000000  0 11G32G10G14G 3G18G17G 1G 8G11G27G22
  22685824.023      744010.871       -1535.257          44.000  
  25156083.827     1207685.594       -4076.427          39.000  
  22430268.551     -179342.424         145.044          40.000  
  22137350.173    -1264908.609        2122.172          42.000  
  20015605.700     1224564.932       -1076.365          49.000  
  25642063.107    -1934404.231        2735.507          44.000  
  20594503.586     -208724.994         338.172          47.000  
  21320809.534     2988033.393       -2985.752          48.000  
  20126166.615     -196627.092         268.061          43.000  
  24131276.513     2312604.440       -4311.009          47.000  
  21120399.751    -1416573.501         792.026          42.000  
 19 10  5 10  5 19.0000000  0 11G32G10G14G 3G18G17G 1G 8G11G27G22
  22686116.978      745546.397       -1536.044          44.000  
  25156859.070     1211761.726       -4075.970          39.000  
  22430241.224     -179486.319         143.410          40.000  
  22136946.201    -1267030.565        2121.631          42.000  
  20015810.914     1225641.479       -1076.710          48.000  
  25641543.091    -1937139.797        2735.776          44.000  
  20594439.055     -209062.448         337.208          47.000  
  21321377.608     2991019.748       -2986.267          48.000  
  20126115.765     -196895.223         267.929          43.000  
  24132097.023     2316915.864       -4311.427          47.000  
  21120249.086    -1417364.979         790.676          42.000  
 19 10  5 10  5 20.0000000  0 11G32G10G14G 3G18G17G 1G 8G11G27G22
  22686409.478      747082.642       -1536.668          44.000  
  25157634.872     1215837.903       -4075.896          39.000  
  22430214.455     -179629.524         142.780          39.000  
  22136541.740    -1269152.102        2121.906          41.000  
  20016015.850     1226718.534       -1076.820          49.000  
  25641022.690    -1939875.264        2735.776          44.000  
  20594374.978     -209399.503         337.313          47.000  
  21321945.787     2994006.653       -2986.838          48.000  
  20126064.810     -197162.760         267.878          43.000  
  24132917.776     2321227.509       -4311.646          47.000  
  21120098.700    -1418155.949         791.090          43.000  
 19 10  5 10  5 21.0000000  0 11G32G10G14G 3G18G17G 1G 8G11G27G22
  22686701.804      748619.486       -1537.624          44.000  
  25158410.709     1219914.085       -4076.505          38.000  
  22430187.198     -179772.191         141.793          40.000  
  22136138.570    -1271273.321        2120.936          41.000  
  20016220.471     1227795.995       -1077.680          49.000  
  25640502.464    -1942610.761        2735.241          45.000  
  20594310.551     -209736.252         336.075          47.000  
  21322514.315     2996994.004       -2987.733          48.000  
  20126014.100     -197429.815         266.422          43.000  
  24133738.181     2325539.296       -4312.189          47.000  
  21119949.047    -1418946.492         790.141          43.000  
 19 10  5 10  5 22.0000000  0 11G32G10G14G 3G18G17G 1G 8G11G27G22
  22686994.340      750157.030       -1537.585          44.000  
  25159185.708     1223990.362       -4074.767          37.000  
  22430160.046     -179914.199         142.310          39.000  
  22135734.807    -1273394.121        2119.979          41.000  
  20016425.860     1228873.979       -1078.086          48.000  
  25639981.820    -1945346.135        2735.401          44.000  
  20594246.125     -210072.574         336.992          46.000  
  21323082.948     2999981.905       -2987.975          47.000  
  20125962.692     -197696.292         266.793          42.000  
  24134558.201     2329851.303       -4312.303          47.000  
  21119798.940    -1419736.509         790.183          43.000  
 19 10  5 10  5 23.0000000  0 12G32G10G14G28G 3G18G17G 1G 8G11G27G22
  22687288.027      751695.193       -1538.671          44.000  
  25159961.335     1228066.625       -4076.027          37.000  
  22430133.068     -180055.622         140.924          39.000  
  23463978.302       73469.5033       -227.537          26.000  
  22135331.009    -1275514.583        2119.625          40.000  
  20016631.005     1229952.382       -1078.878          47.000  
  25639461.873    -1948081.529        2734.846          43.000  
  20594181.874     -210408.584         335.630          45.000  
  21323651.720     3002970.248       -2989.050          47.000  
  20125912.121     -197962.263         265.591          42.000  
  24135379.478     2334163.443       -4312.484          46.000  
  21119648.624    -1420526.099         788.013          43.000  
 19 10  5 10  5 24.0000000  0 12G32G10G14G28G 3G18G17G 1G 8G11G27G22
  22687580.737      753234.219       -1538.777          44.000  
  25160736.927     1232143.143       -4076.180          37.000  
  22430106.578     -180196.254         140.494          39.000  
  23464019.136       73697.7763       -227.958          27.000  
  22134927.664    -1277634.424        2120.166          41.000  
  20016836.534     1231031.460       -1078.818          48.000  
  25638941.019    -1950816.660        2735.579          43.000  
  20594118.041     -210744.017         335.288          45.000  
  21324220.702     3005959.324       -2989.098          47.000  
  20125861.795     -198227.469         265.318          43.000  
  24136200.337     2338475.979       -4312.301          47.000  
  21119498.726    -1421314.991         788.952          42.000  
 19 10  5 10  5 25.0000000  0 12G32G10G14G28G 3G18G17G 1G 8G11G27G22
  22687874.005      754773.848       -1540.271          44.000  
  25161512.520     1236219.646       -4076.154          38.000  
  22430079.740     -180336.306         139.688          39.000  
  23464067.019       73926.5933       -228.983          28.000  
  22134525.088    -1279753.951        2119.247          41.000  
  20017041.504     1232110.932       -1079.787          48.000  
  25638420.304    -1953551.808        2734.985          44.000  
  20594053.894     -211079.131         335.205          45.000  
  21324789.684     3008948.845       -2989.726          48.000  
  20125811.643     -198492.210         264.106          43.000  
  24137020.462     2342788.630       -4312.977          47.000  
  21119348.619    -1422103.459         788.045          43.000  
 19 10  5 10  5 26.0000000  0 12G32G10G14G28G 3G18G17G 1G 8G11G27G22
  22688166.959      756314.092       -1540.706          44.000  
  25162287.379     1240296.153       -4077.526          38.000  
  22430052.727     -180475.779         138.603          39.000  
  23464109.807       74155.8693       -229.956          28.000  
  22134122.162    -1281873.146        2118.118          42.000  
  20017247.172     1233190.825       -1080.429          48.000  
  25637900.113    -1956286.954        2734.429          44.000  
  20593989.537     -211413.936         334.155          46.000  
  21325358.875     3011938.810       -2990.658          48.000  
  20125761.526     -198756.422         263.396          43.000  
  24137841.111     2347101.423       -4313.307          47.000  
  21119199.141    -1422891.497         787.359          43.000  
 19 10  5 10  5 27.0000000  0 12G32G10G14G28G 3G18G17G 1G 8G11G27G22
  22688460.402      757854.900       -1541.076          45.000  
  25163062.134     1244372.597       -4075.970          37.000  
  22430025.993     -180614.756         139.321          39.000  
  23464153.817       74385.7263       -229.560          29.000  
  22133719.376    -1283992.024        2119.369          42.000  
  20017452.840     1234271.068       -1080.539          48.000  
  25637379.259    -1959022.133        2735.596          44.000  
  20593925.949     -211748.440         334.624          45.000  
  21325928.764     3014929.181       -2990.647          48.000  
  20125711.164     -199020.192         263.748          43.000  
  24138662.074     2351414.327       -4313.208          47.000  
  21119049.313    -1423679.140         787.286          43.000  
 19 10  5 10  5 28.0000000  0 12G32G10G14G28G 3G18G17G 1G 8G11G27G22
  22688753.601      759396.381       -1542.251          44.000  
  25163837.063     1248449.099       -4077.270          36.000  
  22429999.294     -180753.099         138.424          38.000  
  23464202.293       74616.1363       -229.858          28.000  
  22133316.905    -1286110.537        2118.406          43.000  
  20017658.369     1235351.788       -1080.809          48.000  
  25636859.173    -1961757.264        2735.341          44.000  
  20593861.941     -212082.590         333.944          45.000  
  21326497.572     3017920.077       -2991.192          48.000  
  20125661.431     -199283.422         263.439          43.000  
  24139483.351     2355727.393       -4312.907          47.000  
  21118899.800    -1424466.315         787.192          43.000  
 19 10  5 10  5 29.0000000  0 12G32G10G14G28G 3G18G17G 1G 8G11G27G22
  22689046.520      760938.582       -1542.797          44.000  
  25164612.690     1252525.728       -4077.017          36.000  
  22429972.979     -180890.769         137.217          38.000  
  23464249.479       74847.2053       -231.678          28.000  
  22132914.642    -1288228.584        2117.469          42.000  
  20017864.491     1236433.049       -1081.559          48.000  
  25636338.947    -1964492.303        2734.719          44.000  
  20593798.318     -212416.302         333.166          45.000  
  21327066.658     3020911.529       -2991.984          48.000  
  20125611.524     -199546.041         262.102          43.000  
  24140304.035     2360040.729       -4313.524          48.000  
  21118750.007    -1425252.919         786.276          43.000  
 19 10  5 10  5 30.0000000  0 12G32G10G14G28G 3G18G17G 1G 8G11G27G22
  22689339.963      762481.233       -1543.118          44.000  
  25165387.724     1256602.148       -4077.420          36.000  
  22429947.118     -181028.042         137.243          38.000  
  23464291.534       75078.6453       -233.306          27.000  
  22132511.821    -1290346.463        2117.483          43.000  
  20018070.020     1237514.556       -1081.844          49.000  
  25635818.302    -1967227.486        2735.250          45.000  
  20593734.659     -212749.858         333.249          46.000  
  21327635.047     3023903.279       -2992.080          48.000  
  20125562.523     -199808.333         262.031          43.000  
  24141124.928     2364354.028       -4313.396          48.000  
  21118600.424    -1426039.298         785.687          43.000  
 19 10  5 10  5 31.0000000  0 12G32G10G14G28G 3G18G17G 1G 8G11G27G22
  22689633.511      764024.492       -1542.984          43.000  
  25166162.654     1260678.616       -4076.376          36.000  
  22429921.013     -181164.773         136.752          37.000  
  23464337.149       75310.6593       -234.716          25.000  
  22132108.966    -1292463.997        2117.788          42.000  
  20018276.351     1238596.497       -1081.878          47.000  
  25635297.762    -1969962.676        2735.648          44.000  
  20593671.699     -213083.069         332.774          45.000  
  21328204.308     3026895.496       -2992.281          47.000  
  20125511.918     -200070.119         262.200          43.000  
  24141945.402     2368667.462       -4312.877          47.000  
  21118450.806    -1426825.200         786.171          43.000  
 19 10  5 10  5 32.0000000  0 11G32G10G14G 3G18G17G 1G 8G11G27G22
  22689927.128      765568.548       -1544.593          44.000  
  25166937.862     1264755.251       -4076.500          37.000  
  22429895.291     -181300.731         135.559          39.000  
  22131706.633    -1294581.015        2116.638          44.000  
  20018482.892     1239679.014       -1082.902          49.000  
  25634777.118    -1972697.663        2735.202          44.000  
  20593608.110     -213415.789         332.216          46.000  
  21328774.022     3029888.373       -2993.499          48.000  
  20125462.638     -200331.227         260.889          43.000  
  24142766.854     2372981.232       -4313.981          48.000  
  21118301.222    -1427610.502         784.595          43.000  
 19 10  5 10  5 33.0000000  0 11G32G10G14G 3G18G17G 1G 8G11G27G22
  22690221.339      767113.402       -1545.281          44.000  
  25167712.931     1268832.074       -4076.469          36.000  
  22429869.116     -181435.951         133.750          39.000  
  22131303.917    -1296697.531        2115.873          42.000  
  20018688.944     1240762.120       -1083.850          48.000  
  25634256.508    -1975432.485        2734.196          44.000  
  20593545.080     -213748.009         332.065          46.000  
  21329343.248     3032881.868       -2994.240          47.000  
  20125413.254     -200591.667         259.759          43.000  
  24143587.363     2377295.294       -4314.463          47.000  
  21118152.267    -1428395.194         784.264          43.000  
 19 10  5 10  5 34.0000000  0 11G32G10G14G 3G18G17G 1G 8G11G27G22
  22690514.956      768658.823       -1545.916          44.000  
  25168487.965     1272908.839       -4076.058          37.000  
  22429844.406     -181570.653         134.501          39.000  
  22130900.154    -1298813.737        2116.113          43.000  
  20018895.310     1241845.599       -1083.501          49.000  
  25633736.177    -1978167.365        2735.398          45.000  
  20593481.596     -214079.957         331.827          46.000  
  21329912.998     3035875.771       -2994.310          48.000  
  20125363.486     -200851.651         260.252          43.000  
  24144408.535     2381609.456       -4313.985          48.000  
  21118003.452    -1429179.498         784.216          44.000  
 19 10  5 10  5 35.0000000  0 11G32G10G14G 3G18G17G 1G 8G11G27G22
  22690809.236      770204.719       -1546.026          44.000  
  25169263.383     1276985.389       -4075.035          36.000  
  22429819.278     -181704.938         134.068          39.000  
  22130496.845    -1300929.745        2115.088          42.000  
  20019101.746     1242929.348       -1084.094          48.000  
  25633215.847    -1980902.370        2734.981          44.000  
  20593418.741     -214411.714         331.695          45.000  
  21330483.446     3038870.000       -2994.297          48.000  
  20125313.718     -201111.274         259.215          43.000  
  24145229.498     2385923.619       -4314.162          47.000  
  21117854.253    -1429963.512         784.320          44.000  
 19 10  5 10  5 36.0000000  0 11G32G10G14G 3G18G17G 1G 8G11G27G22
  22691103.726      771751.228       -1547.579          44.000  
  25170038.452     1281062.026       -4076.286          36.000  
  22429794.254     -181838.653         132.572          40.000  
  22130094.617    -1303045.404        2115.308          42.000  
  20019307.938     1244013.523       -1084.984          49.000  
  25632694.923    -1983637.368        2734.942          44.000  
  20593355.676     -214743.147         330.754          46.000  
  21331053.370     3041864.685       -2995.486          48.000  
  20125264.055     -201370.400         257.969          42.000  
  24146050.217     2390237.923       -4314.560          48.000  
  21117705.367    -1430747.089         783.107          44.000  
 19 10  5 10  5 37.0000000  0 11G32G10G14G 3G18G17G 1G 8G11G27G22
  22691398.530      773298.435       -1547.812          43.000  
  25170813.974     1285138.688       -4076.972          36.000  
  22429769.370     -181971.715         132.545          39.000  
  22129692.390    -1305160.657        2115.203          42.000  
  20019514.304     1245098.202       -1085.222          48.000  
  25632174.872    -1986372.309        2734.689          44.000  
  20593292.715     -215074.180         330.482          45.000  
  21331623.364     3044859.905       -2995.600          48.000  
  20125214.845     -201628.943         258.153          43.000  
  24146871.703     2394552.442       -4314.934          47.000  
  21117556.587    -1431530.149         782.957          43.000  
 19 10  5 10  5 38.0000000  0 11G32G10G14G 3G18G17G 1G 8G11G27G22
  22691693.369      774846.384       -1547.738          44.000  
  25171589.741     1289215.527       -4076.475          36.000  
  22429743.858     -182104.071         132.824          39.000  
  22129289.743    -1307275.435        2114.671          42.000  
  20019720.426     1246183.448       -1085.181          48.000  
  25631654.541    -1989107.096        2735.027          44.000  
  20593230.104     -215404.740         330.813          46.000  
  21332193.741     3047855.708       -2995.798          48.000  
  20125165.147     -201886.842         258.132          43.000  
  24147692.876     2398867.239       -4314.690          48.000  
  21117408.155    -1432312.651         782.343          44.000  
 19 10  5 10  5 39.0000000  0 11G32G10G14G 3G18G17G 1G 8G11G27G22
  22691987.929      776394.731       -1549.142          44.000  
  25172365.997     1293292.128       -4076.472          36.000  
  22429718.311     -182236.082         132.436          39.000  
  22128887.655    -1309390.064        2115.471          42.000  
  20019926.583     1247268.874       -1085.613          48.000  
  25631134.420    -1991842.094        2735.378          44.000  
  20593167.423     -215735.201         330.391          46.000  
  21332763.561     3050851.753       -2995.913          48.000  
  20125115.798     -202144.471         257.555          43.000  
  24148514.083     2403181.955       -4314.381          48.000  
  21117259.375    -1433094.934         782.549          44.000  
 19 10  5 10  5 40.0000000  0 11G32G10G14G 3G18G17G 1G 8G11G27G22
  22692282.419      777943.871       -1550.138          43.000  
  25173142.078     1297368.903       -4076.976          36.000  
  22429692.485     -182367.360         130.741          39.000  
  22128485.637    -1311504.191        2113.981          42.000  
  20020133.403     1248354.891       -1086.306          48.000  
  25630613.356    -1994576.927        2734.263          44.000  
  20593104.776     -216065.164         329.708          46.000  
  21333333.834     3053848.427       -2997.036          48.000  
  20125067.461     -202401.424         256.697          42.000  
  24149335.499     2407496.984       -4315.216          47.000  
  21117110.594    -1433876.579         781.455          44.000  
 19 10  5 10  5 41.0000000  0 11G32G10G14G 3G18G17G 1G 8G11G27G22
  22692577.223      779493.929       -1550.007          44.000  
  25173918.089     1301445.970       -4077.148          36.000  
  22429666.937     -182497.764         130.166          39.000  
  22128083.514    -1313617.679        2113.375          42.000  
  20020340.153     1249441.621       -1086.791          48.000  
  25630093.270    -1997311.460        2734.847          44.000  
  20593042.095     -216394.509         328.842          46.000  
  21333904.351     3056845.887       -2997.284          48.000  
  20125018.670     -202657.574         255.999          42.000  
  24150156.323     2411812.434       -4315.360          48.000  
  21116961.744    -1434657.532         780.907          44.000  
 19 10  5 10  5 42.0000000  0 12G32G10G14G28G 3G18G17G 1G 8G11G27G22
  22692872.446      781044.635       -1551.024          43.000  
  25174694.240     1305523.133       -4077.156          36.000  
  22429641.879     -182627.545         129.599          38.000  
  23464833.712       77901.7533       -236.845          26.000  
  22127680.763    -1315730.748        2112.746          42.000  
  20020546.729     1250528.817       -1087.432          48.000  
  25629573.393    -2000045.939        2734.410          43.000  
  20592980.147     -216723.452         328.672          45.000  
  21334474.520     3059843.859       -2998.337          47.000  
  20124970.054     -202913.179         254.908          42.000  
  24150977.565     2416128.088       -4316.115          47.000  
  21116812.998    -1435437.980         779.698          43.000  
 19 10  5 10  5 43.0000000  0 12G32G10G14G28G 3G18G17G 1G 8G11G27G22
  22693167.424      782595.857       -1551.571          42.000  
  25175470.425     1309600.118       -4077.304          36.000  
  22429616.855     -182756.890         128.243          38.000  
  23464874.371       78142.5223       -238.615          25.000  
  22127278.606    -1317843.622        2112.246          41.000  
  20020753.584     1251616.328       -1087.221          47.000  
  25629052.399    -2002780.519        2734.737          42.000  
  20592917.815     -217052.205         328.304          45.000  
  21335045.316     3062842.194       -2998.775          47.000  
  20124921.751     -203168.395         255.135          41.000  
  24151798.912     2420443.781       -4315.805          46.000  
  21116664.601    -1436218.103         779.675          42.000  
 19 10  5 10  5 44.0000000  0 11G32G10G14G 3G18G17G 1G 8G11G27G22
  22693462.717      784147.708       -1552.096          43.000  
  25176246.681     1313677.192       -4075.847          36.000  
  22429592.530     -182885.608         127.176          37.000  
  22126876.448    -1319956.129        2112.261          41.000  
  20020960.683     1252704.274       -1088.277          47.000  
  25628531.720    -2005515.090        2734.298          43.000  
  20592855.831     -217380.597         328.198          45.000  
  21335616.322     3065840.995       -2999.093          47.000  
  20124873.798     -203423.103         253.694          42.000  
  24152620.468     2424759.631       -4315.888          47.000  
  21116516.589    -1436997.759         779.633          43.000  
 19 10  5 10  5 45.0000000  0 11G32G10G14G 3G18G17G 1G 8G11G27G22
  22693757.870      785700.177       -1552.138          44.000  
  25177022.832     1317754.218       -4077.457          37.000  
  22429568.169     -183013.763         127.410          38.000  
  22126474.290    -1322068.285        2112.215          42.000  
  20021168.027     1253792.619       -1088.295          49.000  
  25628010.866    -2008249.642        2734.901          44.000  
  20592793.639     -217708.663         328.018          47.000  
  21336187.049     3068840.250       -2999.480          48.000  
  20124825.845     -203677.292         254.292          43.000  
  24153441.954     2429075.596       -4315.862          48.000  
  21116367.180    -1437777.000         778.982          43.000  
 19 10  5 10  5 46.0000000  0 11G32G10G14G 3G18G17G 1G 8G11G27G22
  22694053.825      787253.463       -1554.148          44.000  
  25177798.982     1321831.407       -4077.632          37.000  
  22429544.472     -183141.156         127.319          38.000  
  22126073.075    -1324179.915        2111.168          42.000  
  20021375.056     1254881.591       -1089.417          48.000  
  25627490.605    -2010984.003        2734.305          43.000  
  20592731.586     -218036.223         327.245          47.000  
  21336758.265     3071840.165       -3000.450          48.000  
  20124776.915     -203930.785         253.023          42.000  
  24154263.127     2433391.903       -4316.754          48.000  
  21116219.062    -1438555.602         778.340          43.000  
 19 10  5 10  5 47.0000000  0 12G32G10G14G28G 3G18G17G 1G 8G11G27G22
  22694349.432      788807.285       -1554.191          44.000  
  25178574.994     1325908.568       -4076.808          37.000  
  22429520.425     -183268.076         125.597          39.000  
  23465041.893       79106.6303       -241.650          26.000  
  22125671.825    -1326291.257        2110.429          43.000  
  20021581.806     1255970.900       -1089.309          48.000  
  25626970.798    -2013718.433        2734.338          44.000  
  20592670.022     -218363.513         327.066          48.000  
  21337329.061     3074840.455       -3000.887          49.000  
  20124728.857     -204183.874         252.583          43.000  
  24155084.334     2437708.283       -4316.527          48.000  
  21116070.526    -1439333.861         777.769          43.000  
 19 10  5 10  5 48.0000000  0 12G32G10G14G28G 3G18G17G 1G 8G11G27G22
  22694644.480      790361.808       -1554.490          44.000  
  25179351.249     1329985.805       -4077.177          38.000  
  22429496.135     -183394.312         125.768          39.000  
  23465085.938       79348.8763       -242.237          27.000  
  22125270.539    -1328402.192        2111.216          43.000  
  20021789.185     1257060.699       -1089.908          49.000  
  25626450.188    -2016452.783        2734.484          44.000  
  20592608.108     -218690.397         327.164          48.000  
  21337899.963     3077841.274       -3000.870          49.000  
  20124680.659     -204436.370         252.667          43.000  
  24155905.820     2442024.881       -4316.303          48.000  
  21115922.513    -1440111.562         777.796          43.000  
 19 10  5 10  5 49.0000000  0 12G32G10G14G28G 3G18G17G 1G 8G11G27G22
  22694940.331      791916.886       -1555.721          44.000  
  25180127.225     1334062.993       -4077.139          37.000  
  22429472.612     -183520.057         125.718          39.000  
  23465132.460       79591.6173       -243.047          28.000  
  22124869.010    -1330512.828        2110.432          43.000  
  20021996.772     1258150.857       -1090.454          48.000  
  25625929.369    -2019187.170        2734.257          43.000  
  20592546.265     -219017.028         326.613          47.000  
  21338471.283     3080842.497       -3001.399          48.000  
  20124632.531     -204688.414         251.844          43.000  
  24156727.342     2446341.552       -4316.918          48.000  
  21115774.326    -1440888.905         776.941          43.000  
 19 10  5 10  5 50.0000000  0 12G32G10G14G28G 3G18G17G 1G 8G11G27G22
  22695235.973      793472.417       -1555.607          44.000  
  25180903.446     1338139.994       -4075.657          37.000  
  22429449.438     -183645.382         124.624          39.000  
  23465178.528       79834.8263       -243.560          28.000  
  22124466.922    -1332623.298        2110.605          43.000  
  20022204.221     1259241.290       -1090.737          48.000  
  25625408.864    -2021921.724        2734.520          43.000  
  20592484.212     -219343.488         326.158          47.000  
  21339043.092     3083844.008       -3001.497          49.000  
  20124584.613     -204940.136         252.014          43.000  
  24157548.968     2450658.199       -4316.527          48.000  
  21115626.593    -1441665.976         776.967          43.000  
 19 10  5 10  5 51.0000000  0 12G32G10G14G28G 3G18G17G 1G 8G11G27G22
  22695532.592      795028.549       -1556.983          42.000  
  25181679.213     1342216.989       -4076.830          35.000  
  22429426.578     -183770.166         123.887          39.000  
  23465223.829       80078.5593       -243.749          28.000  
  22124065.218    -1334733.429        2109.853          42.000  
  20022412.332     1260332.124       -1091.359          47.000  
  25624889.022    -2024656.274        2734.290          42.000  
  20592421.914     -219669.647         325.652          46.000  
  21339613.818     3086845.984       -3002.447          47.000  
  20124536.834     -205191.371         249.685          42.000  
  24158370.559     2454974.978       -4317.388          47.000  
  21115478.720    -1442442.633         775.776          41.000  
 19 10  5 10  5 52.0000000  0 12G32G10G14G28G 3G18G17G 1G 8G11G27G22
  22695828.547      796585.277       -1557.197          43.000  
  25182455.468     1346293.972       -4077.043          36.000  
  22429403.265     -183894.394         124.298          39.000  
  23465270.596       80322.8253       -243.634          28.000  
  22123663.619    -1336843.238        2110.215          42.000  
  20022620.164     1261423.352       -1091.195          48.000  
  25624368.482    -2027390.849        2735.118          42.000  
  20592359.582     -219995.478         326.115          46.000  
  21340185.138     3089848.390       -3002.529          47.000  
  20124489.509     -205442.124         250.910          42.000  
  24159192.499     2459291.864       -4316.657          47.000  
  21115330.742    -1443218.851         776.169          42.000  
 19 10  5 10  5 53.0000000  0 12G32G10G14G28G 3G18G17G 1G 8G11G27G22
  22696124.608      798142.633       -1558.197          44.000  
  25183232.282     1350370.979       -4077.125          38.000  
  22429379.812     -184018.027         122.066          39.000  
  23465317.676       80567.6753       -244.648          28.000  
  22123261.705    -1338952.696        2108.894          43.000  
  20022828.310     1262515.023       -1092.290          49.000  
  25623848.326    -2030125.397        2734.390          43.000  
  20592297.704     -220320.973         324.947          47.000  
  21340756.075     3092851.297       -3003.462          48.000  
  20124441.940     -205692.362         249.342          43.000  
  24160013.672     2463608.924       -4317.760          48.000  
  21115183.183    -1443994.630         774.854          43.000  
 19 10  5 10  5 54.0000000  0 12G32G10G14G28G 3G18G17G 1G 8G11G27G22
  22696421.436      799700.573       -1558.744          39.000  
  25184008.607     1354447.927       -4078.598          36.000  
  22429356.324     -184141.127         122.799          36.000  
  23465362.663       80813.0863       -244.939          28.000  
  22122859.827    -1341061.843        2108.204          38.000  
  20023036.072     1263607.077       -1092.294          45.000  
  25623327.855    -2032859.961        2734.742          40.000  
  20592235.651     -220646.175         324.824          43.000  
  21341326.941     3095854.615       -3003.218          44.000  
  20124395.069     -205942.123         248.553          40.000  
  24160835.123     2467926.086       -4317.366          44.000  
  21115035.240    -1444770.013         775.313          40.000  
 19 10  5 10  5 55.0000000  0 12G32G10G14G28G 3G18G17G 1G 8G11G27G22
  22696717.845      801259.135       -1559.635          43.000  
  25184785.352     1358524.898       -4078.522          36.000  
  22429333.429     -184263.680         122.063          38.000  
  23465407.615       81058.9653       -245.597          27.000  
  22122458.472    -1343170.610        2108.847          42.000  
  20023244.393     1264699.554       -1092.860          48.000  
  25622807.839    -2035594.534        2734.685          42.000  
  20592173.877     -220971.051         324.729          47.000  
  21341898.575     3098858.425       -3004.105          47.000  
  20124347.395     -206191.388         248.788          43.000  
  24161657.028     2472243.371       -4317.474          48.000  
  21114887.716    -1445544.949         773.975          42.000  
 19 10  5 10  5 56.0000000  0 12G32G10G14G28G 3G18G17G 1G 8G11G27G22
  22697014.708      802818.266       -1560.087          44.000  
  25185561.293     1362601.839       -4076.550          37.000  
  22429310.046     -184385.701         121.587          40.000  
  23465451.659       81305.3563       -241.413          25.000  
  22122057.012    -1345279.110        2108.672          42.000  
  20023452.086     1265792.385       -1093.607          48.000  
  25622286.810    -2038329.147        2734.292          42.000  
  20592111.545     -221295.646         323.873          47.000  
  21342469.686     3101862.631       -3004.637          47.000  
  20124300.384     -206440.190         248.547          43.000  
  24162478.899     2476560.771       -4317.416          48.000  
  21114739.703    -1446319.483         774.475          43.000  
 19 10  5 10  5 57.0000000  0 12G32G10G14G28G 3G18G17G 1G 8G11G27G22
  22697311.921      804378.059       -1559.952          44.000  
  25186337.583     1366678.808       -4076.463          38.000  
  22429286.523     -184507.087         121.031          40.000  
  23465492.702       81552.2333       -241.930          25.000  
  22121655.692    -1347387.229        2108.253          42.000  
  20023659.604     1266885.681       -1093.394          48.000  
  25621765.991    -2041063.705        2734.926          43.000  
  20592049.282     -221619.850         324.431          47.000  
  21343041.565     3104867.358       -3005.007          47.000  
  20124253.024     -206688.442         248.198          43.000  
  24163300.071     2480878.338       -4317.320          48.000  
  21114592.388    -1447093.551         773.628          43.000  
 19 10  5 10  5 58.0000000  0 11G32G10G14G 3G18G17G 1G 8G11G27G22
  22697608.644      805938.236       -1560.356          44.000  
  25187113.525     1370755.548       -4076.818          38.000  
  22429263.314     -184628.145         121.541          40.000  
  22121254.232    -1349495.212        2107.812          42.000  
  20023867.820     1267979.185       -1093.665          48.000  
  25621245.416    -2043798.479        2734.866          43.000  
  20591987.195     -221943.983         324.389          47.000  
  21343613.199     3107872.313       -3004.379          48.000  
  20124205.943     -206936.429         248.415          43.000  
  24164121.034     2485195.829       -4317.391          47.000  
  21114444.585    -1447867.408         773.621          43.000  
 19 10  5 10  5 59.0000000  0 11G32G10G14G 3G18G17G 1G 8G11G27G22
  22697905.577      807498.944       -1560.669          44.000  
  25187888.943     1374832.186       -4075.552          38.000  
  22429240.314     -184748.740         120.197          40.000  
  22120853.331    -1351602.964        2107.843          42.000  
  20024075.477     1269073.008       -1094.115          48.000  
  25620724.981    -2046533.362        2734.462          43.000  
  20591925.595     -222267.882         323.437          47.000  
  21344185.531     3110877.613       -3005.408          48.000  
  20124158.095     -207184.018         247.247          43.000  
  24164942.590     2489513.353       -4317.487          48.000  
  21114297.410    -1448640.931         773.372          43.000  
 19 10  5 10  6  0.0000000  0 11G32G10G14G 3G18G17G 1G 8G11G27G22
  22698202.091      809060.268       -1562.385          43.000  
  25188664.849     1378908.838       -4076.643          37.000  
  22429217.629     -184868.753         119.243          39.000  
  22120452.011    -1353710.355        2107.380          42.000  
  20024283.519     1270167.256       -1094.786          48.000  
  25620204.441    -2049268.197        2734.283          42.000  
  20591864.066     -222591.432         322.988          46.000  
  21344757.689     3113883.394       -3006.400          47.000  
  20124111.328     -207431.087         246.388          42.000  
  24165764.705     2493831.025       -4317.741          47.000  
  21114150.583    -1449413.988         772.433          42.000  
 19 10  5 10  6  1.0000000  0 11G32G10G14G 3G18G17G 1G 8G11G27G22
  22698499.129      810622.220       -1563.116          43.000  
  25189441.663     1382985.481       -4077.705          37.000  
  22429193.932     -184988.168         118.555          39.000  
  22120051.109    -1355817.389        2106.154          42.000  
  20024491.700     1271261.944       -1095.728          48.000  
  25619684.110    -2052003.014        2734.555          42.000  
  20591802.222     -222914.635         322.760          46.000  
  21345329.847     3116889.643       -3007.467          47.000  
  20124064.632     -207677.628         245.611          42.000  
  24166586.226     2498148.848       -4318.670          47.000  
  21114003.827    -1450186.602         771.892          43.000  
 19 10  5 10  6  2.0000000  0 11G32G10G14G 3G18G17G 1G 8G11G27G22
  22698796.236      812184.760       -1562.501          43.000  
  25190217.918     1387062.114       -4076.086          37.000  
  22429171.596     -185107.086         118.454          39.000  
  22119650.766    -1357924.111        2107.051          42.000  
  20024700.090     1272357.015       -1095.250          48.000  
  25619163.221    -2054737.863        2734.685          42.000  
  20591740.448     -223237.557         322.904          46.000  
  21345902.144     3119896.327       -3007.169          47.000  
  20124017.481     -207923.704         246.383          43.000  
  24167407.992     2502466.787       -4318.272          46.000  
  21113857.176    -1450958.823         771.904          43.000  
 19 10  5 10  6  3.0000000  0 11G32G10G14G 3G18G17G 1G 8G11G27G22
  22699093.658      813747.749       -1564.076          42.000  
  25190993.860     1391138.623       -4076.615          37.000  
  22429148.561     -185225.557         117.606          37.000  
  22119249.656    -1360030.651        2106.016          41.000  
  20024908.341     1273452.345       -1095.830          47.000  
  25618642.193    -2057472.859        2734.267          41.000  
  20591679.408     -223560.316         321.843          45.000  
  21346473.953     3122903.322       -3007.178          46.000  
  20123970.680     -208169.451         244.403          42.000  
  24168229.339     2506784.688       -4318.349          46.000  
  21113710.629    -1451730.740         772.030          43.000  
 19 10  5 10  6  4.0000000  0 11G32G10G14G 3G18G17G 1G 8G11G27G22
  22699391.114      815311.411       -1563.640          43.000  
  25191769.801     1395215.108       -4076.720          37.000  
  22429126.050     -185343.415         117.793          39.000  
  22118849.487    -1362136.812        2106.447          42.000  
  20025116.767     1274548.117       -1095.591          48.000  
  25618122.072    -2060207.842        2734.875          42.000  
  20591618.157     -223882.704         322.409          47.000  
  21347046.180     3125910.787       -3007.604          47.000  
  20123923.599     -208414.644         245.480          43.000  
  24169051.279     2511102.774       -4318.236          47.000  
  21113564.117    -1452502.213         771.250          43.000  
 19 10  5 10  6  5.0000000  0 11G32G10G14G 3G18G17G 1G 8G11G27G22
  22699688.780      816875.667       -1564.780          43.000  
  25192545.777     1399291.600       -4076.654          37.000  
  22429104.028     -185460.706         116.729          38.000  
  22118448.726    -1364242.628        2106.287          41.000  
  20025325.297     1275644.336       -1096.152          47.000  
  25617601.148    -2062942.784        2735.065          41.000  
  20591556.628     -224204.762         321.792          45.000  
  21347618.373     3128918.715       -3008.097          46.000  
  20123877.530     -208659.349         244.077          41.000  
  24169873.010     2515420.994       -4318.466          45.000  
  21113417.290    -1453273.233         770.675          42.000  
 19 10  5 10  6  6.0000000  0 11G32G10G14G 3G18G17G 1G 8G11G27G22
  22699986.166      818440.636       -1564.549          44.000  
  25193322.173     1403368.200       -4076.055          37.000  
  22429081.762     -185577.338         117.360          38.000  
  22118048.278    -1366348.017        2105.536          42.000  
  20025534.280     1276741.053       -1096.936          48.000  
  25617081.236    -2065677.639        2735.350          43.000  
  20591495.482     -224526.406         321.588          46.000  
  21348190.775     3131927.201       -3008.341          48.000  
  20123831.113     -208903.440         244.677          44.000  
  24170694.357     2519739.448       -4318.155          47.000  
  21113270.778    -1454043.719         770.988          44.000  
 19 10  5 10  6  7.0000000  0 12G32G10G14G28G 3G18G17G 1G 8G11G27G22
  22700284.181      820006.103       -1565.809          43.000  
  25194097.730     1407444.721       -4075.095          37.000  
  22429059.181     -185693.522         115.214          39.000  
  23466008.007       84038.8723       -252.324          27.000  
  22117647.935    -1368453.171        2104.692          42.000  
  20025742.880     1277838.073       -1097.546          48.000  
  25616559.963    -2068412.587        2734.678          43.000  
  20591433.499     -224847.830         321.009          46.000  
  21348763.421     3134936.039       -3009.156          48.000  
  20123784.486     -209147.157         243.320          43.000  
  24171515.285     2524057.920       -4318.702          46.000  
  21113124.720    -1454813.901         770.034          44.000  
 19 10  5 10  6  8.0000000  0 12G32G10G14G28G 3G18G17G 1G 8G11G27G22
  22700582.789      821571.971       -1566.243          44.000  
  25194873.532     1411520.982       -4075.810          37.000  
  22429037.229     -185809.325         114.510          38.000  
  23466047.375       84291.3793       -252.305          27.000  
  22117247.383    -1370558.171        2104.663          43.000  
  20025952.074     1278935.298       -1097.796          48.000  
  25616039.702    -2071147.757        2734.240          43.000  
  20591372.388     -225169.144         320.458          46.000  
  21349336.277     3137945.131       -3009.838          48.000  
  20123738.068     -209390.579         242.519          43.000  
  24172336.806     2528376.326       -4319.002          47.000  
  21112977.545    -1455583.834         769.265          43.000  
 19 10  5 10  6  9.0000000  0 12G32G10G14G28G 3G18G17G 1G 8G11G27G22
  22700881.188      823138.643       -1567.257          43.000  
  25195649.334     1415597.426       -4077.480          37.000  
  22429014.544     -185924.403         115.359          38.000  
  23466086.219       84544.5643       -254.588          27.000  
  22116846.272    -1372662.664        2104.483          42.000  
  20026161.057     1280033.101       -1098.466          47.000  
  25615519.476    -2073882.729        2734.546          42.000  
  20591311.452     -225489.925         320.479          46.000  
  21349909.237     3140954.842       -3009.927          47.000  
  20123692.000     -209633.335         241.708          43.000  
  24173158.851     2532695.047       -4319.229          46.000  
  21112831.522    -1456353.172         768.908          42.000  
 19 10  5 10  6 10.0000000  0 12G32G10G14G28G 3G18G17G 1G 8G11G27G22
  22701179.552      824706.012       -1567.143          42.000  
  25196425.031     1419673.964       -4077.150          36.000  
  22428993.080     -186038.813         114.076          38.000  
  23466132.602       84798.4543       -252.627          27.000  
  22116445.650    -1374766.728        2103.980          42.000  
  20026370.041     1281131.392       -1098.343          47.000  
  25614999.285    -2076617.637        2736.024          41.000  
  20591250.621     -225810.334         320.100          45.000  
  21350481.988     3143965.106       -3010.156          47.000  
  20123645.791     -209875.494         241.901          42.000  
  24173980.931     2537013.993       -4318.537          46.000  
  21112685.708    -1457121.998         768.415          42.000  
 19 10  5 10  6 11.0000000  0 12G32G10G14G28G 3G18G17G 1G 8G11G27G22
  22701478.020      826273.989       -1568.990          43.000  
  25197200.902     1423750.473       -4076.121          36.000  
  22428971.651     -186152.697         113.035          38.000  
  23466183.626       85052.8213       -255.074          26.000  
  22116044.993    -1376870.466        2104.023          41.000  
  20026579.479     1282230.105       -1098.814          48.000  
  25614478.885    -2079352.531        2734.928          42.000  
  20591189.650     -226130.417         319.718          45.000  
  21351055.123     3146975.809       -3011.229          47.000  
  20123600.526     -210117.161         241.397          42.000  
  24174802.417     2541333.056       -4319.295          46.000  
  21112538.846    -1457890.372         767.684          42.000  
 19 10  5 10  6 12.0000000  0 12G32G10G14G28G 3G18G17G 1G 8G11G27G22
  22701776.594      827842.461       -1568.625          43.000  
  25197976.495     1427826.932       -4076.066          36.000  
  22428950.711     -186266.084         113.985          39.000  
  23466228.194       85307.7403       -253.847          26.000  
  22115643.568    -1378973.970        2104.165          41.000  
  20026788.532     1283329.140       -1098.738          47.000  
  25613957.961    -2082087.535        2734.938          43.000  
  20591129.028     -226450.278         320.303          45.000  
  21351628.014     3149986.884       -3010.888          47.000  
  20123554.492     -210358.444         241.438          42.000  
  24175624.008     2545652.145       -4319.030          45.000  
  21112392.334    -1458658.422         768.375          43.000  
 19 10  5 10  6 13.0000000  0 12G32G10G14G28G 3G18G17G 1G 8G11G27G22
  22702075.341      829411.464       -1569.066          44.000  
  25198752.506     1431903.7023      -4076.047          35.000  
  22428929.666     -186379.033         113.531          39.000  
  23466274.158       85563.0113       -255.646          26.000  
  22115243.086    -1381077.251        2103.340          41.000  
  20026997.656     1284428.506       -1099.417          48.000  
  25613437.386    -2084822.623        2735.411          42.000  
  20591068.441     -226769.909         319.564          46.000  
  21352200.835     3152998.309       -3011.217          48.000  
  20123508.877     -210599.310         240.751          42.000  
  24176446.332     2549971.275       -4318.889          46.000  
  21112246.555    -1459426.132         767.665          43.000  
 19 10  5 10  6 14.0000000  0 12G32G10G14G28G 3G18G17G 1G 8G11G27G22
  22702374.298      830981.160       -1570.102          44.000  
  25199527.644     1435980.0852      -4076.496          36.000  
  22428908.725     -186491.300         111.038          40.000  
  23466319.249       85818.9703       -255.506          26.000  
  22114843.092    -1383180.066        2102.089          42.000  
  20027207.198     1285528.378       -1100.594          48.000  
  25612916.602    -2087557.610        2734.701          43.000  
  20591008.098     -227089.130         318.841          46.000  
  21352773.691     3156010.279       -3012.366          47.000  
  20123463.157     -210839.580         239.913          43.000  
  24177268.307     2554290.629       -4319.583          46.000  
  21112100.672    -1460193.310         767.448          43.000  
 19 10  5 10  6 15.0000000  0 12G32G10G14G28G 3G18G17G 1G 8G11G27G22
  22702672.941      832551.601       -1570.916          44.000  
  25200302.958     1440056.6082      -4076.867          36.000  
  22428887.820     -186602.874         111.526          40.000  
  23466366.888       86075.6563       -255.851          25.000  
  22114443.273    -1385282.398        2102.107          42.000  
  20027416.705     1286628.807       -1100.621          48.000  
  25612396.201    -2090292.474        2734.994          43.000  
  20590947.441     -227407.893         318.002          46.000  
  21353347.384     3159022.843       -3012.441          48.000  
  20123417.473     -211079.236         239.579          43.000  
  24178089.968     2558610.257       -4319.928          47.000  
  21111954.753    -1460959.939         766.712          44.000  
 19 10  5 10  6 16.0000000  0 12G32G10G14G28G 3G18G17G 1G 8G11G27G22
  22702971.585      834122.540       -1571.178          44.000  
  25201077.817     1444133.0242      -4076.867          36.000  
  22428865.693     -186714.001         109.734          40.000  
  23466412.747       86332.9433       -260.589          25.000  
  22114043.453    -1387384.514        2101.845          42.000  
  20027625.689     1287729.531       -1101.111          48.000  
  25611876.010    -2093027.429        2734.900          43.000  
  20590886.644     -227726.428         318.593          46.000  
  21353920.414     3162035.739       -3013.269          47.000  
  20123371.299     -211318.472         239.068          43.000  
  24178911.594     2562929.921       -4319.661          47.000  
  21111809.183    -1461726.234         766.003          44.000  
 19 10  5 10  6 17.0000000  0 12G32G10G14G28G 3G18G17G 1G 8G11G27G22
  22703270.716      835694.108       -1571.755          43.000  
  25201853.095     1448209.4522      -4075.957          36.000  
  22428844.578     -186824.535         110.218          38.000  
  23466458.153       86590.3493       -258.579          24.000  
  22113643.145    -1389486.266        2101.392          40.000  
  20027835.650     1288830.672       -1101.512          47.000  
  25611355.436    -2095762.395        2735.023          42.000  
  20590826.127     -228044.633         317.713          45.000  
  21354494.038     3165049.088       -3013.770          46.000  
  20123326.069     -211557.216         238.391          42.000  
  24179733.639     2567249.709       -4320.468          45.000  
  21111663.788    -1462492.095         765.532          42.000  
 19 10  5 10  6 18.0000000  0 11G32G10G14G 3G18G17G 1G 8G11G27G22
  22703570.371      837266.420       -1572.558          43.000  
  25202628.758     1452285.9762      -4076.121          35.000  
  22428823.882     -186934.367         109.750          39.000  
  22113243.186    -1391587.545        2100.970          42.000  
  20028045.297     1289932.369       -1102.072          48.000  
  25610835.210    -2098497.205        2735.102          43.000  
  20590766.168     -228362.377         317.497          46.000  
  21355068.185     3168063.039       -3014.111          47.000  
  20123280.872     -211795.321         237.652          42.000  
  24180555.684     2571569.785       -4319.924          46.000  
  21111518.358    -1463257.364         764.854          43.000  
 19 10  5 10  6 19.0000000  0 11G32G10G14G 3G18G17G 1G 8G11G27G22
  22703869.573      838839.272       -1573.160          45.000  
  25203404.175     1456362.4373      -4077.264          37.000  
  22428803.501     -187043.697         108.832          40.000  
  22112843.122    -1393688.573        2100.514          42.000  
  20028254.839     1291034.399       -1101.896          49.000  
  25610314.809    -2101232.100        2734.878          43.000  
  20590705.581     -228679.867         317.451          47.000  
  21355641.878     3171077.384       -3014.437          48.000  
  20123235.851     -212033.000         238.127          43.000  
  24181377.973     2575889.912       -4320.306          47.000  
  21111372.648    -1464022.310         764.885          44.000  
 19 10  5 10  6 20.0000000  0 11G32G10G14G 3G18G17G 1G 8G11G27G22
  22704169.018      840412.466       -1573.507          43.000  
  25204179.035     1460438.6362      -4076.567          34.000  
  22428782.944     -187152.731         108.732          38.000  
  22112443.094    -1395789.522        2099.942          41.000  
  20028464.556     1292136.557       -1102.535          48.000  
  25609794.583    -2103967.240        2734.906          42.000  
  20590644.889     -228997.329         317.531          46.000  
  21356216.200     3174091.897       -3015.052          48.000  
  20123190.306     -212270.465         237.054          42.000  
  24182199.878     2580209.897       -4320.050          46.000  
  21111226.869    -1464787.074         764.610          43.000  
 19 10  5 10  6 21.0000000  0 11G32G10G14G 3G18G17G 1G 8G11G27G22
  22704468.499      841986.314       -1574.237          44.000  
  25204954.872     1464514.8642      -4076.140          35.000  
  22428762.458     -187261.167         108.388          40.000  
  22112043.449    -1397890.069        2100.310          42.000  
  20028674.342     1293239.205       -1102.967          48.000  
  25609273.869    -2106702.336        2735.125          43.000  
  20590584.930     -229314.408         316.733          47.000  
  21356790.661     3177106.920       -3015.473          49.000  
  20123144.900     -212507.375         236.910          43.000  
  24183022.377     2584530.062       -4320.465          47.000  
  21111081.614    -1465551.362         763.982          44.000  
 19 10  5 10  6 22.0000000  0 11G32G10G14G 3G18G17G 1G 8G11G27G22
  22704768.119      843560.748       -1574.437          44.000  
  25205729.906     1468591.0442      -4077.103          35.000  
  22428742.355     -187369.047         107.105          40.000  
  22111643.769    -1399990.311        2100.273          41.000  
  20028883.745     1294342.222       -1103.543          49.000  
  25608753.259    -2109437.453        2734.889          43.000  
  20590524.971     -229631.184         316.563          47.000  
  21357364.215     3180122.379       -3015.742          49.000  
  20123099.425     -212743.816         236.647          43.000  
  24183844.422     2588850.337       -4320.406          47.000  
  21110936.567    -1466315.243         763.557          44.000  
 19 10  5 10  6 23.0000000  0 11G32G10G14G 3G18G17G 1G 8G11G27G22
  22705068.158      845135.821       -1575.342          44.000  
  25206505.184     1472667.2312      -4077.388          35.000  
  22428721.903     -187476.336         106.775          39.000  
  22111243.426    -1402090.192        2100.023          42.000  
  20029093.636     1295445.684       -1103.511          47.000  
  25608232.754    -2112172.556        2735.002          43.000  
  20590464.349     -229947.620         316.385          46.000  
  21357938.118     3183138.314       -3016.147          48.000  
  20123054.718     -212979.729         235.622          42.000  
  24184666.711     2593170.751       -4320.363          47.000  
  21110791.102    -1467078.668         763.218          43.000  
 19 10  5 10  6 24.0000000  0 11G32G10G14G 3G18G17G 1G 8G11G27G22
  22705368.093      846711.511       -1576.642          44.000  
  25207280.567     1476743.4612      -4076.415          35.000  
  22428701.871     -187583.048         106.966          38.000  
  22110843.851    -1404189.716        2099.157          42.000  
  20029303.353     1296549.570       -1104.319          49.000  
  25607712.668    -2114907.630        2735.082          43.000  
  20590404.146     -230263.728         315.963          47.000  
  21358511.706     3186154.728       -3016.888          48.000  
  20123009.801     -213215.130         235.262          43.000  
  24185489.454     2597491.312       -4320.593          48.000  
  21110645.986    -1467841.654         762.475          44.000  
 19 10  5 10  6 25.0000000  0 11G32G10G14G 3G18G17G 1G 8G11G27G22
  22705668.865      848287.796       -1576.551          44.000  
  25208055.880     1480819.6622      -4077.168          35.000  
  22428681.489     -187689.242         105.782          39.000  
  22110443.962    -1406288.938        2100.137          42.000  
  20029513.279     1297653.860       -1104.244          49.000  
  25607191.848    -2117642.732        2735.553          44.000  
  20590343.663     -230579.530         315.819          47.000  
  21359085.295     3189171.556       -3016.740          49.000  
  20122964.640     -213450.075         234.675          43.000  
  24186311.429     2601811.988       -4320.417          48.000  
  21110501.080    -1468604.229         762.417          44.000  
 19 10  5 10  6 26.0000000  0 11G32G10G14G 3G18G17G 1G 8G11G27G22
  22705969.078      849864.761       -1577.656          44.000  
  25208831.368     1484895.9522      -4074.864          34.000  
  22428661.805     -187794.788         105.883          39.000  
  22110043.759    -1408387.734        2099.167          41.000  
  20029723.345     1298758.649       -1104.704          48.000  
  25606671.274    -2120377.756        2735.186          43.000  
  20590282.971     -230894.932         315.215          46.000  
  21359659.372     3192188.923       -3017.561          48.000  
  20122920.491     -213684.427         233.737          43.000  
  24187133.927     2606132.869       -4320.812          48.000  
  21110356.557    -1469366.295         761.901          44.000  
 19 10  5 10  6 27.0000000  0 11G32G10G14G 3G18G17G 1G 8G11G27G22
  22706269.047      851442.462       -1577.911          44.000  
  25209606.611     1488972.2722      -4076.154          34.000  
  22428641.563     -187899.650         105.015          39.000  
  22109643.869    -1410486.062        2099.026          41.000  
  20029933.515     1299863.962       -1105.604          48.000  
  25606151.397    -2123112.642        2735.219          43.000  
  20590223.082     -231209.890         314.628          46.000  
  21360233.380     3195206.860       -3018.358          48.000  
  20122875.574     -213918.160         233.602          43.000  
  24187956.321     2610454.021       -4321.188          48.000  
  21110212.244    -1470127.798         761.235          44.000  
 19 10  5 10  6 28.0000000  0 11G32G10G14G 3G18G17G 1G 8G11G27G22
  22706568.772      853020.652       -1578.480          43.000  
  25210381.889     1493048.5723      -4074.660          35.000  
  22428621.914     -188004.056         103.729          39.000  
  22109245.062    -1412584.193        2097.706          41.000  
  20030144.139     1300969.578       -1106.037          47.000  
  25605630.682    -2125847.667        2734.987          42.000  
  20590163.647     -231524.647         313.829          45.000  
  21360807.317     3198225.127       -3018.369          47.000  
  20122831.285     -214151.521         232.771          41.000  
  24188779.308     2614775.164       -4321.228          47.000  
  21110066.988    -1470889.000         761.042          43.000  
 19 10  5 10  6 29.0000000  0 11G32G10G14G 3G18G17G 1G 8G11G27G22
  22706869.370      854599.335       -1579.174          42.000  
  25211157.342     1497124.6662      -4074.262          31.000  
  22428602.055     -188108.033         104.130          39.000  
  22108846.429    -1414682.091        2097.513          40.000  
  20030355.357     1302075.476       -1106.464          46.000  
  25605110.282    -2128582.812        2734.453          42.000  
  20590104.002     -231839.205         314.150          44.000  
  21361382.162     3201243.736       -3018.974          45.000  
  20122787.729     -214384.498         232.459          41.000  
  24189601.842     2619096.317       -4321.492          46.000  
  21109923.233    -1471649.882         760.072          42.000  
 19 10  5 10  6 30.0000000  0 11G32G10G14G 3G18G17G 1G 8G11G27G22
  22707169.758      856178.721       -1579.297          44.000  
  25211932.969     1501200.8862      -4075.348          33.000  
  22428582.651     -188211.312         102.796          39.000  
  22108448.320    -1416779.516        2097.407          42.000  
  20030566.016     1303181.888       -1106.427          48.000  
  25604590.196    -2131317.821        2735.443          44.000  
  20590044.497     -232153.315         313.869          46.000  
  21361957.007     3204262.902       -3019.241          48.000  
  20122743.580     -214616.866         231.927          43.000  
  24190424.899     2623417.727       -4321.278          48.000  
  21109778.327    -1472410.231         759.962          44.000  
 19 10  5 10  6 31.0000000  0 11G32G10G14G 3G18G17G 1G 8G11G27G22
  22707470.879      857758.745       -1580.251          44.000  
  25212708.806     1505277.1002      -4075.840          34.000  
  22428562.408     -188314.009         102.841          41.000  
  22108049.966    -1418876.597        2096.938          42.000  
  20030776.675     1304288.764       -1106.574          49.000  
  25604069.656    -2134052.815        2734.798          44.000  
  20589984.922     -232467.086         313.796          46.000  
  21362531.818     3207282.550       -3019.762          48.000  
  20122699.990     -214848.713         232.305          43.000  
  24191247.467     2627739.280       -4321.769          48.000  
  21109633.350    -1473170.108         760.081          44.000  
 19 10  5 10  6 32.0000000  0 11G32G10G14G 3G18G17G 1G 8G11G27G22
  22707771.686      859339.410       -1580.612          43.000  
  25213484.503     1509353.3662      -4075.913          34.000  
  22428543.108     -188416.153         101.297          39.000  
  22107651.473    -1420973.310        2096.903          42.000  
  20030987.508     1305396.051       -1107.712          48.000  
  25603549.569    -2136787.789        2734.732          43.000  
  20589924.963     -232780.514         312.906          46.000  
  21363106.593     3210302.653       -3020.239          48.000  
  20122655.631     -215080.046         231.174          43.000  
  24192069.861     2632060.985       -4321.831          48.000  
  21109488.409    -1473929.546         759.332          44.000  
 19 10  5 10  6 33.0000000  0 11G32G10G14G 3G18G17G 1G 8G11G27G22
  22708072.493      860920.662       -1581.535          44.000  
  25214259.677     1513429.5722      -4076.160          34.000  
  22428524.227     -188517.703         100.719          40.000  
  22107252.666    -1423069.707        2095.740          42.000  
  20031197.888     1306503.747       -1108.111          49.000  
  25603028.680    -2139522.780        2734.457          44.000  
  20589865.108     -233093.645         312.747          46.000  
  21363681.159     3213323.188       -3021.071          48.000  
  20122611.761     -215310.880         230.544          43.000  
  24192891.801     2636382.810       -4322.137          48.000  
  21109343.851    -1474688.564         758.601          44.000  
 19 10  5 10  6 34.0000000  0 12G32G10G14G28G 3G18G17G 1G 8G11G27G22
  22708374.207      862502.542       -1582.459          44.000  
  25215034.431     1517505.8352      -4078.564          35.000  
  22428505.311     -188618.695         100.139          39.000  
  23467321.624       91037.9593       -266.079          29.000  
  22106853.580    -1425165.721        2095.911          42.000  
  20031409.385     1307611.861       -1108.729          48.000  
  25602508.873    -2142257.714        2734.650          43.000  
  20589806.266     -233406.411         312.756          46.000  
  21364256.388     3216344.237       -3021.437          47.000  
  20122567.996     -215541.202         229.693          43.000  
  24193713.986     2640704.792       -4322.309          48.000  
  21109200.096    -1475447.120         757.903          43.000  
 19 10  5 10  6 35.0000000  0 12G32G10G14G28G 3G18G17G 1G 8G11G27G22
  22708675.851      864085.152       -1582.849          45.000  
  25215809.954     1521582.1842      -4076.361          35.000  
  22428485.348     -188718.958         100.336          40.000  
  23467375.197       91306.9073       -267.465          29.000  
  22106455.051    -1427261.314        2094.796          42.000  
  20031620.742     1308720.521       -1108.957          49.000  
  25601988.333    -2144992.536        2734.938          44.000  
  20589746.552     -233718.746         311.923          47.000  
  21364831.372     3219365.822       -3021.832          48.000  
  20122524.824     -215770.917         229.225          44.000  
  24194536.310     2645027.014       -4322.288          48.000  
  21109056.237    -1476205.133         757.622          45.000  
 19 10  5 10  6 36.0000000  0 12G32G10G14G28G 3G18G17G 1G 8G11G27G22
  22708977.077      865668.429       -1583.920          45.000  
  25216585.686     1525658.6102      -4074.935          35.000  
  22428466.502     -188818.603          99.031          40.000  
  23467419.346       91575.0843       -268.290          29.000  
  22106056.384    -1429356.493        2094.913          43.000  
  20031831.541     1309829.657       -1109.240          49.000  
  25601468.317    -2147727.307        2735.135          44.000  
  20589686.977     -234030.714         311.805          47.000  
  21365406.497     3222387.922       -3022.096          48.000  
  20122481.338     -216000.057         229.421          44.000  
  24195358.878     2649349.430       -4322.609          48.000  
  21108911.819    -1476962.649         757.878          45.000  
 19 10  5 10  6 37.0000000  0 12G32G10G14G28G 3G18G17G 1G 8G11G27G22
  22709278.512      867251.940       -1583.760          44.000  
  25217360.999     1529734.097       -4075.000          35.000  
  22428447.481     -188918.079          98.738          40.000  
  23467470.510       91843.4593       -268.506          29.000  
  22105657.716    -1431451.716        2094.584          42.000  
  20032042.828     1310938.822       -1109.687          49.000  
  25600946.765    -2150462.443        2734.792          44.000  
  20589627.751     -234342.730         311.662          47.000  
  21365980.958     3225410.094       -3022.704          48.000  
  20122436.910     -216229.099         228.294          43.000  
  24196181.342     2653671.598       -4322.596          48.000  
  21108767.680    -1477720.117         756.900          45.000  
 19 10  5 10  6 38.0000000  0 12G32G10G14G28G 3G18G17G 1G 8G11G27G22
  22709579.912      868836.178       -1584.603          44.000  
  25218136.661     1533810.246       -4074.062          35.000  
  22428428.705     -189016.861          98.477          39.000  
  23467517.032       92112.5133       -269.118          28.000  
  22105258.420    -1433546.467        2094.616          42.000  
  20032253.836     1312048.524       -1109.924          49.000  
  25600425.980    -2153197.477        2734.883          44.000  
  20589568.455     -234654.294         311.709          47.000  
  21366555.314     3228432.875       -3022.623          47.000  
  20122393.634     -216457.500         228.517          43.000  
  24197003.387     2657994.028       -4322.450          48.000  
  21108623.157    -1478477.028         756.934          44.000  
 19 10  5 10  6 39.0000000  0 12G32G10G14G28G 3G18G17G 1G 8G11G27G22
  22709880.963      870421.050       -1584.792          43.000  
  25218912.149     1537886.378       -4075.046          35.000  
  22428409.928     -189115.040          98.262          39.000  
  23467563.589       92382.2053       -269.842          28.000  
  22104860.102    -1435640.867        2094.874          42.000  
  20032464.425     1313158.671       -1109.959          48.000  
  25599905.580    -2155932.448        2735.661          44.000  
  20589508.845     -234965.500         311.925          46.000  
  21367129.845     3231456.133       -3023.382          47.000  
  20122349.799     -216685.379         228.350          43.000  
  24197825.815     2662316.593       -4322.049          47.000  
  21108478.565    -1479233.476         756.979          44.000  
 19 10  5 10  6 40.0000000  0 12G32G10G14G28G 3G18G17G 1G 8G11G27G22
  22710182.084      872006.597       -1585.954          44.000  
  25219687.881     1541962.582       -4075.706          36.000  
  22428391.187     -189212.618          96.924          40.000  
  23467612.450       92652.4983       -269.801          27.000  
  22104461.399    -1437734.862        2093.814          42.000  
  20032675.398     1314269.285       -1111.048          49.000  
  25599385.110    -2158667.392        2734.664          44.000  
  20589449.863     -235276.352         310.132          47.000  
  21367705.144     3234479.902       -3023.933          48.000  
  20122306.592     -216912.727         226.912          43.000  
  24198647.965     2666639.356       -4322.964          48.000  
  21108334.845    -1479989.443         755.294          44.000  
 19 10  5 10  6 41.0000000  0 12G32G10G14G28G 3G18G17G 1G 8G11G27G22
  22710483.938      873592.625       -1586.133          44.000  
  25220463.369     1546038.662       -4075.374          36.000  
  22428371.887     -189309.712          97.290          40.000  
  23467664.486       92923.1813       -270.369          26.000  
  22104063.185    -1439828.633        2093.711          42.000  
  20032886.790     1315380.202       -1110.697          49.000  
  25598864.500    -2161402.429        2735.658          44.000  
  20589390.812     -235586.972         311.145          47.000  
  21368280.931     3237504.005       -3023.965          48.000  
  20122262.827     -217139.666         227.327          43.000  
  24199470.603     2670962.117       -4321.875          48.000  
  21108190.915    -1480745.109         755.683          44.000  
 19 10  5 10  6 42.0000000  0 11G32G10G14G 3G18G17G 1G 8G11G27G22
  22710785.513      875179.316       -1587.264          44.000  
  25221239.275     1550114.761       -4076.067          36.000  
  22428354.227     -189406.226          96.222          40.000  
  22103665.355    -1441922.010        2092.863          42.000  
  20033098.391     1316491.563       -1111.983          48.000  
  25598344.099    -2164137.425        2735.099          43.000  
  20589331.411     -235897.251         310.187          47.000  
  21368856.509     3240528.583       -3024.836          47.000  
  20122219.166     -217366.067         226.566          43.000  
  24200293.555     2675285.061       -4323.134          47.000  
  21108046.951    -1481500.284         754.817          43.000  
 19 10  5 10  6 43.0000000  0 11G32G10G14G 3G18G17G 1G 8G11G27G22
  22711087.227      876766.602       -1587.467          44.000  
  25222015.182     1554190.869       -4076.032          36.000  
  22428335.974     -189502.221          95.107          40.000  
  22103266.792    -1444015.055        2092.599          43.000  
  20033309.818     1317603.321       -1111.984          49.000  
  25597823.315    -2166872.444        2734.823          44.000  
  20589272.953     -236207.213         310.035          47.000  
  21369432.087     3243553.591       -3025.391          48.000  
  20122176.169     -217592.001         225.502          43.000  
  24201115.251     2679608.126       -4323.570          48.000  
  21107902.533    -1482255.044         754.472          44.000  
 19 10  5 10  6 44.0000000  0 11G32G10G14G 3G18G17G 1G 8G11G27G22
  22711388.872      878354.389       -1588.200          43.000  
  25222790.739     1558266.823       -4076.566          36.000  
  22428317.512     -189597.682          94.470          39.000  
  22102868.752    -1446107.885        2092.587          42.000  
  20033521.071     1318715.398       -1112.492          48.000  
  25597302.810    -2169607.547        2735.069          43.000  
  20589214.495     -236516.950         309.657          46.000  
  21370007.596     3246578.961       -3025.745          47.000  
  20122133.102     -217817.513         225.363          41.000  
  24201937.401     2683931.214       -4323.567          46.000  
  21107758.290    -1483009.462         753.973          43.000  
 19 10  5 10  6 45.0000000  0 11G32G10G14G 3G18G17G 1G 8G11G27G22
  22711691.005      879942.645       -1588.079          44.000  
  25223566.297     1562342.645       -4076.123          36.000  
  22428299.538     -189692.731          94.388          39.000  
  22102470.957    -1448200.484        2093.338          43.000  
  20033732.951     1319827.756       -1112.207          49.000  
  25596782.724    -2172342.761        2735.501          43.000  
  20589156.141     -236826.515         309.483          47.000  
  21370583.348     3249604.642       -3026.074          48.000  
  20122090.733     -218042.674         225.122          43.000  
  24202759.865     2688254.308       -4322.972          47.000  
  21107614.535    -1483763.587         754.556          44.000  
 19 10  5 10  6 46.0000000  0 11G32G10G14G 3G18G17G 1G 8G11G27G22
  22711993.522      881531.684       -1589.314          44.000  
  25224341.889     1566418.637       -4075.708          37.000  
  22428280.971     -189787.054          94.137          39.000  
  22102072.988    -1450292.603        2092.031          43.000  
  20033944.483     1320940.685       -1113.148          49.000  
  25596262.114    -2175077.829        2735.043          43.000  
  20589096.636     -237135.584         308.691          47.000  
  21371159.624     3252630.953       -3026.451          48.000  
  20122047.910     -218267.175         223.993          43.000  
  24203582.468     2692577.697       -4323.631          47.000  
  21107471.094    -1484517.127         753.643          44.000  
 19 10  5 10  6 47.0000000  0 11G32G10G14G 3G18G17G 1G 8G11G27G22
  22712295.724      883121.229       -1589.588          44.000  
  25225117.272     1570494.523       -4075.788          37.000  
  22428262.788     -189880.901          93.784          40.000  
  22101675.890    -1452384.484        2091.185          43.000  
  20034156.363     1322053.941       -1113.412          49.000  
  25595741.679    -2177812.998        2734.858          43.000  
  20589037.933     -237444.429         308.623          47.000  
  21371735.516     3255657.601       -3027.068          48.000  
  20122005.331     -218491.273         224.016          43.000  
  24204404.792     2696901.100       -4323.738          47.000  
  21107327.583    -1485270.333         752.889          44.000  
 19 10  5 10  6 48.0000000  0 11G32G10G14G 3G18G17G 1G 8G11G27G22
  22712598.067      884711.380       -1590.424          44.000  
  25225893.248     1574570.389       -4076.274          37.000  
  22428245.163     -189974.240          92.394          39.000  
  22101278.235    -1454476.000        2091.289          44.000  
  20034368.663     1323167.602       -1113.966          49.000  
  25595221.418    -2180548.163        2734.818          43.000  
  20588979.091     -237752.955         307.859          47.000  
  21372311.827     3258684.716       -3027.632          47.000  
  20121963.241     -218714.867         223.354          43.000  
  24205227.709     2701224.647       -4323.538          47.000  
  21107184.422    -1486023.104         752.341          44.000  
 19 10  5 10  6 49.0000000  0 11G32G10G14G 3G18G17G 1G 8G11G27G22
  22712901.107      886301.907       -1591.303          44.000  
  25226669.225     1578646.032       -4075.025          38.000  
  22428227.888     -190067.195          92.887          40.000  
  22100880.021    -1456567.427        2091.087          43.000  
  20034580.787     1324281.449       -1114.551          48.000  
  25594700.878    -2183283.551        2735.087          44.000  
  20588920.109     -238061.371         307.608          47.000  
  21372888.626     3261712.034       -3027.957          48.000  
  20121920.942     -218938.211         223.054          43.000  
  24206050.522     2705548.083       -4323.861          47.000  
  21107041.993    -1486775.686         751.747          44.000  
 19 10  5 10  6 50.0000000  0 11G32G10G14G 3G18G17G 1G 8G11G27G22
  22713203.799      887893.096       -1590.936          43.000  
  25227445.306     1582721.645       -4075.267          38.000  
  22428209.705     -190159.564          92.004          40.000  
  22100482.400    -1458658.471        2090.897          43.000  
  20034793.087     1325395.750       -1114.048          48.000  
  25594180.373    -2186018.906        2735.587          43.000  
  20588860.814     -238369.444         308.134          46.000  
  21373464.972     3264739.846       -3027.981          48.000  
  20121878.608     -219160.990         223.056          43.000  
  24206873.649     2709871.677       -4323.536          47.000  
  21106898.727    -1487527.789         752.069          43.000  
 19 10  5 10  6 51.0000000  0 12G32G10G14G 3G18G17G 1G 8G11G27G22S27
  22713506.421      889484.899       -1592.424          44.000  
  25228221.352     1586797.372       -4075.409          38.000  
  22428193.685     -190251.329          91.301          40.000  
  22100084.500    -1460749.142        2089.910          43.000  
  20035005.037     1326510.481       -1114.555          49.000  
  25593659.798    -2188754.229        2735.452          42.000  
  20588802.076     -238677.164         307.506          46.000  
  21374041.737     3267768.139       -3028.563          48.000  
  20121836.553     -219383.252         221.533          43.000  
  24207696.357     2714195.447       -4323.753          47.000  
  21106755.809    -1488279.422         751.957          43.000  
  39885509.266      172776.1562       -674.714          35.000  
 19 10  5 10  6 52.0000000  0 12G32G10G14G 3G18G17G 1G 8G11G27G22S27
  22713809.705      891077.396       -1592.587          44.000  
  25228996.351     1590873.084       -4075.745          38.000  
  22428176.724     -190342.441          91.085          40.000  
  22099687.124    -1462839.391        2090.675          43.000  
  20035217.162     1327625.706       -1114.832          49.000  
  25593139.153    -2191489.469        2735.683          43.000  
  20588743.757     -238984.487         307.560          46.000  
  21374617.978     3270796.972       -3028.903          48.000  
  20121794.463     -219604.949         222.094          43.000  
  24208519.693     2718519.409       -4323.577          47.000  
  21106613.102    -1489030.558         751.136          44.000  
  39885637.804      173449.9342       -674.179          35.000  
 19 10  5 10  6 53.0000000  0 12G32G10G14G 3G18G17G 1G 8G11G27G22S27
  22714112.536      892670.119       -1593.017          44.000  
  25229772.048     1594948.451       -4074.945          39.000  
  22428160.041     -190433.377          91.590          40.000  
  22099288.282    -1464929.695        2090.454          43.000  
  20035430.020     1328740.958       -1115.221          49.000  
  25592619.032    -2194225.093        2735.796          43.000  
  20588684.741     -239291.874         307.292          46.000  
  21375194.045     3273825.873       -3028.768          48.000  
  20121752.268     -219826.523         221.440          43.000  
  24209342.575     2722843.122       -4323.501          48.000  
  21106469.975    -1489781.651         751.498          44.000  
  39885765.854      174123.3342       -672.889          35.000  
 19 10  5 10  6 54.0000000  0 12G32G10G14G 3G18G17G 1G 8G11G27G22S27
  22714416.449      894263.399       -1593.474          44.000  
  25230547.431     1599023.749       -4075.903          39.000  
  22428142.382     -190523.824          89.541          39.000  
  22098890.452    -1467019.717        2090.016          43.000  
  20035642.040     1329856.552       -1116.025          49.000  
  25592097.899    -2196960.764        2735.700          43.000  
  20588626.387     -239598.993         306.898          46.000  
  21375770.286     3276855.171       -3029.487          48.000  
  20121709.725     -220047.658         221.124          43.000  
  24210164.934     2727166.902       -4323.974          47.000  
  21106327.023    -1490532.372         750.723          44.000  
  39885894.427      174796.5742       -674.177          35.000  
 19 10  5 10  6 55.0000000  0 12G32G10G14G 3G18G17G 1G 8G11G27G22S27
  22714719.281      895857.355       -1594.715          44.000  
  25231323.302     1603099.088       -4076.164          39.000  
  22428124.164     -190613.627          89.174          39.000  
  22098492.657    -1469109.313        2089.338          43.000  
  20035854.653     1330972.631       -1116.145          49.000  
  25591577.289    -2199696.389        2735.473          43.000  
  20588567.755     -239905.721         305.970          46.000  
  21376346.317     3279884.977       -3030.620          48.000  
  20121667.460     -220268.221         220.641          43.000  
  24210988.026     2731490.878       -4324.188          48.000  
  21106184.105    -1491282.589         749.250          44.000  
  39886022.477      175469.9562       -674.799          35.000  
 19 10  5 10  6 56.0000000  0 12G32G10G14G 3G18G17G 1G 8G11G27G22S27
  22715023.333      897451.905       -1594.914          44.000  
  25232098.860     1607174.424       -4075.368          38.000  
  22428106.609     -190702.849          88.936          39.000  
  22098095.350    -1471198.589        2089.620          43.000  
  20036067.441     1332089.104       -1116.656          49.000  
  25591056.505    -2202432.025        2735.644          43.000  
  20588509.122     -240212.125         306.692          46.000  
  21376923.396     3282915.236       -3030.024          48.000  
  20121625.475     -220488.312         219.378          43.000  
  24211810.839     2735814.987       -4323.872          47.000  
  21106041.223    -1492032.384         749.870          44.000  
  39886150.108      176143.2832       -674.325          35.000  
 19 10  5 10  6 57.0000000  0 12G32G10G14G 3G18G17G 1G 8G11G27G22S27
  22715327.002      899046.994       -1594.730          44.000  
  25232874.557     1611249.650       -4075.344          38.000  
  22428089.089     -190791.608          88.019          39.000  
  22097697.904    -1473287.598        2089.272          43.000  
  20036280.299     1333205.927       -1116.938          48.000  
  25590535.825    -2205167.722        2735.744          43.000  
  20588451.048     -240518.295         305.637          46.000  
  21377500.196     3285945.841       -3030.636          48.000  
  20121584.013     -220707.949         219.813          43.000  
  24212633.791     2740139.138       -4324.335          47.000  
  21105898.410    -1492781.837         749.072          44.000  
  39886278.158      176816.5542       -674.553          34.000  
 19 10  5 10  6 58.0000000  0 12G32G10G14G 3G18G17G 1G 8G11G27G22S27
  22715630.496      900642.532       -1596.304          44.000  
  25233649.556     1615324.745       -4075.334          39.000  
  22428072.162     -190879.899          87.628          39.000  
  22097300.563    -1475376.426        2088.509          43.000  
  20036492.913     1334323.007       -1117.308          49.000  
  25590015.285    -2207903.570        2735.805          43.000  
  20588392.869     -240824.275         305.911          46.000  
  21378077.239     3288976.739       -3030.981          48.000  
  20121542.342     -220927.258         218.737          43.000  
  24213456.953     2744463.252       -4324.300          48.000  
  21105756.052    -1493530.985         748.967          44.000  
  39886405.754      177489.5452       -674.355          35.000  
 19 10  5 10  6 59.0000000  0 12G32G10G14G 3G18G17G 1G 8G11G27G22S27
  22715934.025      902238.820       -1596.226          44.000  
  25234424.729     1619399.936       -4074.880          38.000  
  22428055.549     -190967.533          87.466          38.000  
  22096903.116    -1477464.787        2088.550          43.000  
  20036704.758     1335440.663       -1117.424          49.000  
  25589495.129    -2210639.272        2735.728          43.000  
  20588334.969     -241129.829         305.674          46.000  
  21378654.493     3292008.232       -3031.475          48.000  
  20121500.915     -221145.929         218.720          43.000  
  24214279.730     2748787.638       -4324.118          48.000  
  21105614.181    -1494279.603         748.638          44.000  
  39886533.978      178162.8462       -673.079          35.000  
 19 10  5 10  7  0.0000000  0 12G32G10G14G 3G18G17G 1G 8G11G27G22S27
  22716237.694      903835.847       -1597.011          43.000  
  25235200.322     1623475.276       -4075.449          38.000  
  22428039.076     -191054.437          86.807          37.000  
  22096505.810    -1479552.642        2087.604          42.000  
  20036918.000     1336558.851       -1118.346          48.000  
  25588974.275    -2213374.834        2735.521          42.000  
  20588277.802     -241434.908         304.949          46.000  
  21379231.816     3295040.311       -3032.332          47.000  
  20121459.314     -221363.950         217.954          42.000  
  24215103.206     2753112.281       -4324.429          47.000  
  21105472.311    -1495027.612         748.352          44.000  
  39886662.028      178836.3022       -673.122          34.000  
 19 10  5 10  7  1.0000000  0 12G32G10G14G 3G18G17G 1G 8G11G27G22S27
  22716541.607      905433.437       -1597.336          44.000  
  25235975.740     1627550.524       -4074.543          38.000  
  22428022.534     -191140.852          86.218          37.000  
  22096108.503    -1481640.233        2087.402          42.000  
  20037130.404     1337677.405       -1118.628          49.000  
  25588454.328    -2216110.445        2736.097          43.000  
  20588220.007     -241739.700         305.028          47.000  
  21379809.243     3298072.796       -3032.510          49.000  
  20121417.015     -221581.562         218.050          43.000  
  24215926.333     2757437.009       -4324.570          48.000  
  21105330.231    -1495775.267         747.404          45.000  
  39886789.624      179509.7862       -673.925          34.000  
 19 10  5 10  7  2.0000000  0 12G32G10G14G 3G18G17G 1G 8G11G27G22S27
  22716845.275      907031.447       -1597.405          44.000  
  25236751.576     1631625.622       -4075.422          39.000  
  22428004.699     -191226.896          86.388          38.000  
  22095710.568    -1483727.650        2087.317          43.000  
  20037343.611     1338796.210       -1118.807          48.000  
  25587934.102    -2218846.213        2735.797          43.000  
  20588162.142     -242044.354         304.986          47.000  
  21380386.287     3301105.549       -3032.539          49.000  
  20121375.623     -221798.816         217.866          43.000  
  24216749.215     2761761.696       -4324.453          48.000  
  21105188.501    -1496522.650         747.597          45.000  
  39886918.127      180183.0032       -672.788          34.000  
 19 10  5 10  7  3.0000000  0 12G32G10G14G 3G18G17G 1G 8G11G27G22S27
  22717148.630      908630.040       -1599.202          44.000  
  25237526.820     1635700.641       -4075.975          38.000  
  22427988.157     -191312.374          85.165          37.000  
  22095313.646    -1485814.769        2085.992          43.000  
  20037555.840     1339915.367       -1119.817          49.000  
  25587413.248    -2221582.019        2734.969          43.000  
  20588103.998     -242348.736         303.818          47.000  
  21380962.772     3304138.721       -3033.640          48.000  
  20121334.510     -222015.616         216.497          43.000  
  24217572.377     2766086.467       -4325.356          48.000  
  21105046.351    -1497269.662         746.068          44.000  
  39887046.177      180856.2033       -673.728          34.000  
 19 10  5 10  7  4.0000000  0 12G32G10G14G 3G18G17G 1G 8G11G27G22S27
  22717453.276      910229.337       -1599.790          43.000  
  25238301.993     1639775.771       -4074.874          38.000  
  22427971.684     -191397.209          83.390          38.000  
  22094916.514    -1487901.427        2086.358          43.000  
  20037768.733     1341035.040       -1120.061          48.000  
  25586892.813    -2224317.710        2735.205          43.000  
  20588046.098     -242652.684         303.738          46.000  
  21381540.444     3307172.430       -3034.128          48.000  
  20121293.607     -222231.821         216.077          43.000  
  24218395.225     2770411.482       -4325.303          48.000  
  21104904.725    -1498016.112         745.840          44.000  
  39887174.296      181529.3273       -673.529          34.000  
 19 10  5 10  7  5.0000000  0 12G32G10G14G 3G18G17G 1G 8G11G27G22S27
  22717757.887      911829.054       -1600.153          42.000  
  25239076.992     1643850.707       -4074.844          36.000  
  22427956.188     -191481.652          84.116          38.000  
  22094519.626    -1489987.941        2086.699          41.000  
  20037982.289     1342154.956       -1120.017          47.000  
  25586372.133    -2227053.571        2736.322          42.000  
  20587987.919     -242956.504         303.964          45.000  
  21382116.825     3310206.405       -3034.062          47.000  
  20121252.389     -222447.707         215.611          42.000  
  24219218.980     2774736.421       -4324.929          47.000  
  21104762.331    -1498762.327         745.680          43.000  
  39887302.695      182202.1363       -672.950          34.000  
 19 10  5 10  7  6.0000000  0 12G32G10G14G 3G18G17G 1G 8G11G27G22S27
  22718062.358      913429.211       -1600.472          43.000  
  25239852.236     1647925.487       -4073.824          38.000  
  22427940.413     -191565.681          83.596          38.000  
  22094122.738    -1492074.275        2086.197          42.000  
  20038195.460     1343275.124       -1120.462          48.000  
  25585851.105    -2229789.624        2736.269          43.000  
  20587930.298     -243260.156         303.646          46.000  
  21382693.276     3313240.687       -3034.699          47.000  
  20121211.486     -222663.258         215.373          43.000  
  24220041.478     2779061.341       -4324.921          48.000  
  21104620.636    -1499508.274         745.738          44.000  
  39887430.849      182874.7672       -671.532          34.000  
 19 10  5 10  7  7.0000000  0 12G32G10G14G 3G18G17G 1G 8G11G27G22S27
  22718366.865      915030.131       -1600.706          43.000  
  25240627.793     1652000.375       -4073.538          38.000  
  22427924.254     -191649.006          83.597          39.000  
  22093725.711    -1494160.139        2085.507          43.000  
  20038408.877     1344395.862       -1120.427          49.000  
  25585330.704    -2232525.495        2736.358          43.000  
  20587872.747     -243563.351         303.311          47.000  
  21383270.075     3316275.564       -3034.816          48.000  
  20121170.583     -222878.169         214.730          43.000  
  24220864.745     2783386.527       -4324.890          48.000  
  21104478.800    -1500253.655         745.449          44.000  
  39887558.515      183547.4472       -671.729          34.000  
 19 10  5 10  7  8.0000000  0 12G32G10G14G 3G18G17G 1G 8G11G27G22S27
  22718671.685      916631.845       -1602.110          43.000  
  25241403.525     1656075.439       -4074.735          37.000  
  22427909.002     -191731.602          82.381          39.000  
  22093328.893    -1496245.453        2085.090          42.000  
  20038622.118     1345517.187       -1121.721          48.000  
  25584810.199    -2235261.182        2735.836          43.000  
  20587815.720     -243866.015         302.382          47.000  
  21383847.817     3319311.074       -3035.967          47.000  
  20121130.063     -223092.376         213.455          43.000  
  24221688.151     2787712.033       -4325.954          48.000  
  21104337.174    -1500998.411         744.792          44.000  
  39887686.495      184220.3812       -673.809          34.000  
 19 10  5 10  7  9.0000000  0 12G32G10G14G 3G18G17G 1G 8G11G27G22S27
  22718976.226      918234.269       -1602.688          40.000  
  25242179.397     1660150.601       -4074.914          35.000  
  22427893.960     -191813.514          81.845          37.000  
  22092932.110    -1498330.330        2084.269          40.000  
  20038835.185     1346639.011       -1121.694          46.000  
  25584289.415    -2237996.771        2735.322          41.000  
  20587757.750     -244168.275         301.920          44.000  
  21384425.175     3322347.144       -3036.087          45.000  
  20121089.753     -223305.986         213.597          40.000  
  24222511.557     2792037.759       -4326.060          46.000  
  21104195.095    -1501742.634         744.231          41.000  
  39887815.068      184893.4712       -671.872          33.000  
 19 10  5 10  7 10.0000000  0 12G32G10G14G 3G18G17G 1G 8G11G27G22S27
  22719281.710      919837.228       -1602.888          43.000  
  25242955.129     1664225.696       -4074.643          36.000  
  22427879.756     -191894.898          81.316          39.000  
  22092536.025    -1500414.930        2084.568          41.000  
  20039048.741     1347761.174       -1122.449          48.000  
  25583769.189    -2240732.415        2735.803          43.000  
  20587700.583     -244470.255         301.889          46.000  
  21385003.405     3325383.601       -3036.400          47.000  
  20121049.199     -223519.168         213.166          42.000  
  24223334.858     2796363.561       -4325.618          48.000  
  21104053.608    -1502486.475         743.842          43.000  
  39887943.537      185566.4072       -671.925          33.000  
 19 10  5 10  7 11.0000000  0 12G32G10G14G 3G18G17G 1G 8G11G27G22S27
  22719587.438      921440.708       -1603.874          42.000  
  25243730.721     1668300.634       -4074.930          36.000  
  22427864.923     -191975.859          80.959          39.000  
  22092140.079    -1502499.297        2084.278          42.000  
  20039262.995     1348883.653       -1122.896          47.000  
  25583248.370    -2243468.165        2735.443          42.000  
  20587643.451     -244772.038         301.557          45.000  
  21385581.775     3328420.407       -3037.409          46.000  
  20121008.261     -223731.972         212.282          41.000  
  24224158.334     2800689.358       -4326.162          47.000  
  21103911.878    -1503230.005         743.405          43.000  
  39888071.726      186239.2923       -674.124          33.000  
 19 10  5 10  7 12.0000000  0 12G32G10G14G 3G18G17G 1G 8G11G27G22S27
  22719893.096      923044.692       -1604.815          43.000  
  25244506.942     1672375.515       -4075.871          38.000  
  22427850.544     -192056.332          79.511          40.000  
  22091743.680    -1504583.414        2083.870          43.000  
  20039477.353     1350006.486       -1123.142          49.000  
  25582728.318    -2246203.990        2735.585          44.000  
  20587586.599     -245073.573         301.316          47.000  
  21386160.390     3331457.571       -3037.415          48.000  
  20120967.253     -223944.334         211.582          43.000  
  24224982.019     2805015.221       -4326.109          49.000  
  21103770.845    -1503973.197         743.247          45.000  
  39888199.147      186912.0292       -671.308          34.000  
 19 10  5 10  7 13.0000000  0 12G32G10G14G 3G18G17G 1G 8G11G27G22S27
  22720199.382      924649.573       -1604.619          42.000  
  25245282.569     1676450.691       -4074.091          37.000  
  22427835.921     -192135.934          80.128          39.000  
  22091347.246    -1506666.905        2083.489          42.000  
  20039691.363     1351130.012       -1123.282          48.000  
  25582208.093    -2248939.513        2736.568          42.000  
  20587529.781     -245374.499         301.502          46.000  
  21386739.248     3334495.505       -3037.541          47.000  
  20120928.129     -224155.923         212.356          42.000  
  24225805.250     2809341.495       -4325.688          47.000  
  21103630.266    -1504715.664         743.123          43.000  
  39888327.162      187585.1302       -672.024          34.000  
 19 10  5 10  7 14.0000000  0 12G32G10G14G 3G18G17G 1G 8G11G27G22S27
  22720505.005      926254.877       -1605.493          42.000  
  25246057.917     1680525.638       -4074.512          37.000  
  22427821.053     -192215.146          78.904          39.000  
  22090951.685    -1508750.230        2083.457          43.000  
  20039905.268     1352253.755       -1123.894          48.000  
  25581687.413    -2251675.228        2735.737          42.000  
  20587472.021     -245675.285         301.061          46.000  
  21387317.514     3337533.665       -3038.132          48.000  
  20120888.273     -224367.193         211.448          43.000  
  24226628.552     2813667.707       -4326.160          48.000  
  21103489.198    -1505457.879         742.239          43.000  
  39888455.142      188257.9242       -671.672          34.000  
 19 10  5 10  7 15.0000000  0 12G32G10G14G 3G18G17G 1G 8G11G27G22S27
  22720810.768      927860.541       -1605.988          40.000  
  25246833.789     1684600.333       -4075.400          35.000  
  22427805.732     -192294.051          78.873          37.000  
  22090555.111    -1510833.469        2083.211          40.000  
  20040118.719     1353377.665       -1124.199          45.000  
  25581166.768    -2254411.187        2735.688          40.000  
  20587415.168     -245975.995         300.660          43.000  
  21387896.267     3340572.039       -3038.339          44.000  
  20120848.382     -224578.209         211.247          40.000  
  24227451.783     2817993.803       -4326.540          45.000  
  21103347.712    -1506199.923         741.308          41.000  
  39888583.715      188930.4132       -672.394          30.000  
 19 10  5 10  7 16.0000000  0 12G32G10G14G 3G18G17G 1G 8G11G27G22S27
  22721116.810      929466.854       -1606.419          43.000  
  25247609.137     1688675.071       -4074.537          37.000  
  22427790.795     -192372.356          78.327          38.000  
  22090159.305    -1512916.340        2083.076          43.000  
  20040332.868     1354502.028       -1124.378          48.000  
  25580646.089    -2257147.117        2736.092          43.000  
  20587358.105     -246276.353         300.133          46.000  
  21388474.847     3343610.890       -3038.959          48.000  
  20120808.526     -224788.702         209.717          43.000  
  24228274.491     2822320.050       -4326.524          48.000  
  21103205.877    -1506941.498         741.198          43.000  
  39888711.730      189602.9562       -671.284          34.000  
 19 10  5 10  7 17.0000000  0 12G32G10G14G 3G18G17G 1G 8G11G27G22S27
  22721422.398      931073.859       -1607.121          43.000  
  25248384.031     1692749.877       -4074.135          37.000  
  22427775.299     -192450.012          78.016          38.000  
  22089762.941    -1514998.778        2081.830          43.000  
  20040546.703     1355626.890       -1125.039          49.000  
  25580125.060    -2259882.938        2735.760          42.000  
  20587300.694     -246576.296         300.031          46.000  
  21389053.391     3346650.279       -3039.669          48.000  
  20120768.111     -224998.620         209.419          43.000  
  24229097.234     2826646.504       -4326.746          48.000  
  21103065.088    -1507682.559         741.097          43.000  
  39888839.361      190275.5472       -672.143          34.000  
 19 10  5 10  7 18.0000000  0 12G32G10G14G 3G18G17G 1G 8G11G27G22S27
  22721727.916      932681.317       -1607.836          43.000  
  25249158.960     1696824.486       -4075.379          37.000  
  22427760.222     -192527.238          75.183          38.000  
  22089366.681    -1517081.002        2082.026          43.000  
  20040760.782     1356752.016       -1125.699          48.000  
  25579604.415    -2262618.924        2735.600          42.000  
  20587243.353     -246876.081         299.397          46.000  
  21389631.657     3349689.984       -3039.965          48.000  
  20120728.429     -225208.154         209.615          42.000  
  24229920.884     2830972.941       -4326.546          48.000  
  21102923.637    -1508423.314         740.586          43.000  
  39888966.887      190947.9462       -673.277          33.000  
 19 10  5 10  7 19.0000000  0 12G32G10G14G 3G18G17G 1G 8G11G27G22S27
  22722033.958      934289.290       -1608.093          42.000  
  25249935.216     1700899.000       -4074.538          36.000  
  22427745.424     -192604.000          76.885          37.000  
  22088970.352    -1519163.023        2081.777          42.000  
  20040975.664     1357877.440       -1125.798          47.000  
  25579083.771    -2265354.995        2736.036          41.000  
  20587185.907     -247175.623         299.474          45.000  
  21390210.201     3352730.041       -3040.124          46.000  
  20120688.329     -225417.340         208.725          41.000  
  24230744.151     2835299.415       -4326.900          46.000  
  21102782.918    -1509163.774         739.961          42.000  
  39889094.623      191620.2582       -672.912          33.000  
 19 10  5 10  7 20.0000000  0 12G32G10G14G 3G18G17G 1G 8G11G27G22S27
  22722340.593      935897.861       -1608.319          43.000  
  25250710.948     1704973.544       -4074.270          36.000  
  22427730.417     -192680.185          77.514          38.000  
  22088574.407    -1521244.663        2081.374          43.000  
  20041189.150     1359003.283       -1125.926          48.000  
  25578562.882    -2268091.035        2736.553          41.000  
  20587129.543     -247474.841         299.239          46.000  
  21390788.362     3355770.528       -3040.552          47.000  
  20120648.158     -225625.970         209.020          42.000  
  24231566.824     2839626.022       -4326.763          47.000  
  21102642.095    -1509903.761         740.125          42.000  
  39889222.323      192292.6292       -671.380          33.000  
 19 10  5 10  7 21.0000000  0 12G32G10G14G 3G18G17G 1G 8G11G27G22S27
  22722647.333      937507.101       -1609.224          41.000  
  25251486.401     1709048.074       -4075.059          36.000  
  22427715.654     -192755.771          75.102          37.000  
  22088178.461    -1523325.932        2081.750          42.000  
  20041403.718     1360129.566       -1126.450          47.000  
  25578042.411    -2270827.038        2736.515          40.000  
  20587072.445     -247773.715         298.476          44.000  
  21391366.383     3358811.506       -3041.165          45.000  
  20120608.930     -225834.077         208.432          40.000  
  24232390.613     2843952.811       -4326.476          45.000  
  21102501.028    -1510643.287         739.467          41.000  
  39889350.234      192965.0342       -672.056          33.000  
 19 10  5 10  7 22.0000000  0 12G32G10G14G 3G18G17G 1G 8G11G27G22S27
  22722953.375      939116.831       -1609.995          43.000  
  25252262.237     1713122.528       -4074.566          36.000  
  22427701.589     -192830.885          75.268          39.000  
  22087782.620    -1525406.962        2081.144          44.000  
  20041618.146     1361256.156       -1126.706          49.000  
  25577521.732    -2273563.130        2737.178          42.000  
  20587015.662     -248072.351         298.413          47.000  
  21391944.892     3361852.831       -3041.381          48.000  
  20120569.493     -226041.779         207.542          43.000  
  24233214.194     2848279.595       -4326.754          48.000  
  21102360.204    -1511382.498         738.934          44.000  
  39889478.318      193637.4173       -672.691          34.000  
 19 10  5 10  7 23.0000000  0 12G32G10G14G 3G18G17G 1G 8G11G27G22S27
  22723258.545      940726.915       -1610.347          43.000  
  25253037.551     1717196.693       -4074.376          36.000  
  22427687.734     -192905.687          73.687          38.000  
  22087386.117    -1527487.910        2080.967          44.000  
  20041832.121     1362382.922       -1126.868          49.000  
  25577000.843    -2276299.494        2736.349          42.000  
  20586958.181     -248370.926         298.474          47.000  
  21392523.611     3364894.358       -3041.527          48.000  
  20120529.846     -226249.240         207.072          43.000  
  24234037.216     2852606.260       -4326.687          47.000  
  21102218.858    -1512121.522         738.976          44.000  
  39889606.368      194309.5882       -670.908          34.000  
 19 10  5 10  7 24.0000000  0 12G32G10G14G 3G18G17G 1G 8G11G27G22S27
  22723564.517      942337.759       -1611.030          43.000  
  25253812.899     1721271.011       -4074.117          37.000  
  22427673.006     -192979.764          73.752          37.000  
  22086989.752    -1529568.360        2079.707          44.000  
  20042046.724     1363510.262       -1128.039          49.000  
  25576480.303    -2279035.675        2736.271          42.000  
  20586901.678     -248669.027         297.688          47.000  
  21393102.540     3367936.469       -3042.422          48.000  
  20120491.141     -226456.034         206.428          43.000  
  24234860.622     2856933.205       -4327.349          47.000  
  21102078.593    -1512859.966         737.918          44.000  
  39889734.627      194981.9192       -674.668          34.000  
 19 10  5 10  7 25.0000000  0 12G32G10G14G 3G18G17G 1G 8G11G27G22S27
  22723870.873      943949.400       -1611.794          41.000  
  25254588.840     1725345.491       -4074.309          34.000  
  22427659.046     -193053.088          73.792          36.000  
  22086593.598    -1531648.280        2079.720          39.000  
  20042261.326     1364638.203       -1127.882          45.000  
  25575959.588    -2281771.672        2735.731          39.000  
  20586844.825     -248966.600         297.614          43.000  
  21393681.748     3370979.246       -3042.582          45.000  
  20120451.285     -226662.158         205.347          40.000  
  24235683.993     2861260.486       -4326.581          44.000  
  21101938.502    -1513597.773         738.158          40.000  
  39889862.502      195654.2432       -673.803          33.000  
 19 10  5 10  7 26.0000000  0 12G32G10G14G 3G18G17G 1G 8G11G27G22S27
  22724178.555      945561.579       -1612.675          43.000  
  25255364.572     1729419.885       -4074.962          37.000  
  22427645.016     -193125.952          71.878          38.000  
  22086197.268    -1533727.913        2079.426          42.000  
  20042475.755     1365766.467       -1128.809          47.000  
  25575439.328    -2284507.740        2735.592          41.000  
  20586788.286     -249263.949         296.638          46.000  
  21394261.269     3374022.382       -3043.811          47.000  
  20120412.301     -226867.830         204.881          42.000  
  24236507.050     2865587.794       -4327.964          46.000  
  21101798.237    -1514335.238         736.964          43.000  
  39889990.377      196326.4282       -672.095          33.000  
 19 10  5 10  7 27.0000000  0 12G32G10G14G 3G18G17G 1G 8G11G27G22S27
  22724485.225      947174.046       -1612.447          43.000  
  25256140.513     1733493.979       -4073.604          37.000  
  22427631.195     -193198.539          72.259          38.000  
  22085800.834    -1535807.549        2079.779          42.000  
  20042690.916     1366894.842       -1128.591          48.000  
  25574919.102    -2287244.104        2736.551          41.000  
  20586731.887     -249561.279         297.324          45.000  
  21394841.349     3377065.653       -3043.310          48.000  
  20120372.829     -227073.331         205.312          42.000  
  24237330.840     2869914.917       -4327.388          46.000  
  21101658.426    -1515072.575         737.341          43.000  
  39890118.706      196998.2792       -670.479          34.000  
 19 10  5 10  7 28.0000000  0 12G32G10G14G 3G18G17G 1G 8G11G27G22S27
  22724792.523      948787.239       -1613.778          43.000  
  25256915.966     1737568.152       -4075.081          36.000  
  22427618.282     -193270.441          70.891          38.000  
  22085404.714    -1537886.723        2078.702          42.000  
  20042905.519     1368023.733       -1129.301          48.000  
  25574398.248    -2289980.353        2736.297          41.000  
  20586675.453     -249858.165         296.573          46.000  
  21395420.278     3380109.477       -3044.403          47.000  
  20120334.124     -227278.219         204.471          42.000  
  24238154.211     2874242.278       -4327.496          46.000  
  21101518.615    -1515809.387         736.519          43.000  
  39890246.826      197670.3072       -672.718          33.000  
 19 10  5 10  7 29.0000000  0 12G32G10G14G 3G18G17G 1G 8G11G27G22S27
  22725099.717      950401.225       -1613.783          44.000  
  25257691.384     1741642.529       -4073.625          36.000  
  22427605.683     -193341.603          70.471          40.000  
  22085008.594    -1539965.366        2078.968          42.000  
  20043119.947     1369153.230       -1129.488          48.000  
  25573877.882    -2292716.407        2736.605          42.000  
  20586618.949     -250154.550         296.491          47.000  
  21396000.009     3383153.931       -3044.577          48.000  
  20120295.280     -227482.417         203.757          43.000  
  24238977.757     2878569.949       -4327.467          46.000  
  21101378.595    -1516545.579         735.772          45.000  
  39890374.526      198342.5222       -670.448          34.000  
 19 10  5 10  7 30.0000000  0 13G32G10G14G28G 3G18G17G 1G 8G11G27G22
                                S27
  22725406.492      952015.732       -1615.067          44.000  
  25258467.186     1745716.800       -4073.856          36.000  
  22427592.525     -193412.261          70.279          39.000  
  23470338.383      106819.5743       -296.238          28.000  
  22084612.788    -1542043.754        2077.818          42.000  
  20043334.829     1370283.055       -1130.196          48.000  
  25573356.923    -2295452.538        2736.107          42.000  
  20586562.271     -250450.688         295.864          47.000  
  21396579.426     3386198.781       -3044.916          48.000  
  20120256.505     -227686.182         203.197          43.000  
  24239800.883     2882897.673       -4327.524          47.000  
  21101239.098    -1517281.400         735.334          45.000  
  39890502.297      199014.6392       -671.507          35.000  
 19 10  5 10  7 31.0000000  0 13G32G10G14G28G 3G18G17G 1G 8G11G27G22
                                S27
  22725713.406      953630.595       -1615.106          44.000  
  25259242.813     1749790.765       -4073.393          36.000  
  22427578.321     -193482.602          70.641          39.000  
  23470396.841      107116.3323       -296.958          29.000  
  22084217.297    -1544122.028        2078.399          42.000  
  20043549.536     1371413.047       -1129.514          48.000  
  25572835.860    -2298188.903        2736.709          42.000  
  20586505.976     -250746.759         296.378          46.000  
  21397158.599     3389243.808       -3045.214          48.000  
  20120217.557     -227889.712         203.751          42.000  
  24240624.324     2887225.273       -4327.244          46.000  
  21101099.007    -1518017.047         736.231          44.000  
  39890630.102      199686.4532       -671.659          34.000  
 19 10  5 10  7 32.0000000  0 13G32G10G14G28G 3G18G17G 1G 8G11G27G22
                                S27
  22726020.740      955245.998       -1615.538          45.000  
  25260018.545     1753864.689       -4073.037          36.000  
  22427564.221     -193552.459          68.612          39.000  
  23470451.740      107413.4993       -298.178          29.000  
  22083821.735    -1546200.055        2077.687          42.000  
  20043764.418     1372543.389       -1130.313          48.000  
  25572315.459    -2300925.329        2736.600          42.000  
  20586449.787     -251042.567         295.433          46.000  
  21397738.435     3392289.230       -3045.454          48.000  
  20120178.852     -228092.803         202.806          43.000  
  24241447.625     2891552.934       -4327.724          47.000  
  21100958.393    -1518752.320         735.447          45.000  
  39890757.768      200358.1752       -672.906          34.000  
 19 10  5 10  7 33.0000000  0 13G32G10G14G28G 3G18G17G 1G 8G11G27G22
                                S27
  22726328.596      956862.359       -1616.845          43.000  
  25260793.823     1757938.945       -4073.706          36.000  
  22427551.308     -193621.372          68.787          36.000  
  23470512.467      107711.6023       -298.854          28.000  
  22083426.592    -1548277.374        2076.889          40.000  
  20043979.300     1373674.479       -1131.234          46.000  
  25571794.675    -2303661.433        2736.105          41.000  
  20586393.737     -251337.708         295.049          44.000  
  21398317.677     3395335.428       -3046.540          46.000  
  20120140.322     -228295.059         201.792          41.000  
  24242271.136     2895881.052       -4327.939          45.000  
  21100819.036    -1519486.834         734.538          43.000  
  39890885.434      201030.0582       -671.573          34.000  
 19 10  5 10  7 34.0000000  0 13G32G10G14G28G 3G18G17G 1G 8G11G27G22
                                S27
  22726636.279      958479.410       -1617.388          43.000  
  25261569.241     1762013.273       -4074.988          36.000  
  22427538.290     -193689.651          68.204          39.000  
  23470571.553      108010.3813       -299.766          28.000  
  22083031.938    -1550354.248        2076.672          41.000  
  20044195.020     1374806.094       -1132.142          47.000  
  25571274.135    -2306397.438        2735.500          41.000  
  20586337.687     -251632.429         294.193          45.000  
  21398896.815     3398382.188       -3047.211          47.000  
  20120101.862     -228496.697         201.673          42.000  
  24243094.193     2900209.405       -4328.853          45.000  
  21100679.085    -1520220.809         733.418          43.000  
  39891013.204      201702.1212       -672.473          34.000  
 19 10  5 10  7 35.0000000  0 12G32G10G14G 3G18G17G 1G 8G11G27G22S27
  22726943.682      960097.025       -1617.667          42.000  
  25262344.659     1766087.591       -4074.028          34.000  
  22427525.621     -193757.379          67.709          36.000  
  22082636.656    -1552430.858        2076.232          39.000  
  20044409.797     1375938.079       -1132.261          45.000  
  25570753.037    -2309133.439        2735.541          39.000  
  20586281.532     -251926.869         294.672          43.000  
  21399476.302     3401429.361       -3047.037          45.000  
  20120063.646     -228697.909         200.596          40.000  
  24243918.541     2904537.834       -4328.595          44.000  
  21100538.890    -1520954.397         734.146          42.000  
  39891140.766      202374.1402       -671.236          34.000  
 19 10  5 10  7 36.0000000  0 12G32G10G14G 3G18G17G 1G 8G11G27G22S27
  22727251.887      961715.152       -1618.476          44.000  
  25263119.693     1770161.746       -4074.210          36.000  
  22427512.917     -193824.635          68.244          38.000  
  22082241.443    -1554507.205        2076.156          42.000  
  20044625.342     1377070.374       -1132.383          48.000  
  25570232.148    -2311869.566        2736.268          42.000  
  20586225.691     -252221.094         294.066          46.000  
  21400055.998     3404476.862       -3047.885          48.000  
  20120025.255     -228898.678         200.666          42.000  
  24244742.366     2908866.287       -4328.322          47.000  
  21100399.707    -1521687.653         733.198          44.000  
  39891268.362      203046.0762       -671.373          34.000  
 19 10  5 10  7 37.0000000  0 12G32G10G14G 3G18G17G 1G 8G11G27G22S27
  22727559.814      963333.920       -1619.368          44.000  
  25263894.797     1774235.931       -4074.318          36.000  
  22427500.144     -193891.295          66.663          37.000  
  22081845.987    -1556583.190        2075.253          42.000  
  20044841.550     1378203.105       -1133.145          48.000  
  25569712.027    -2314605.628        2736.697          41.000  
  20586170.060     -252514.976         293.751          46.000  
  21400635.764     3407524.847       -3048.327          47.000  
  20119987.214     -229098.953         199.834          42.000  
  24245566.680     2913194.892       -4329.222          46.000  
  21100259.722    -1522420.445         732.067          43.000  
  39891396.446      203718.1552       -671.547          34.000  
 19 10  5 10  7 38.0000000  0 12G32G10G14G 3G18G17G 1G 8G11G27G22S27
  22727868.089      964953.570       -1620.068          44.000  
  25264670.284     1778310.365       -4074.740          36.000  
  22427487.684     -193957.161          65.391          38.000  
  22081451.193    -1558658.528        2075.270          42.000  
  20045057.863     1379336.498       -1133.636          48.000  
  25569192.010    -2317341.427        2735.958          42.000  
  20586114.394     -252808.238         293.004          46.000  
  21401216.228     3410573.549       -3049.089          48.000  
  20119949.416     -229298.425         199.476          42.000  
  24246390.365     2917523.898       -4329.152          47.000  
  21100120.818    -1523152.537         731.441          43.000  
  39891523.798      204390.3342       -669.722          34.000  
 19 10  5 10  7 39.0000000  0 12G32G10G14G 3G18G17G 1G 8G11G27G22S27
  22728176.749      966573.849       -1620.973          44.000  
  25265445.423     1782384.857       -4074.883          36.000  
  22427475.016     -194022.388          63.839          38.000  
  22081056.678    -1560733.527        2074.160          42.000  
  20045273.932     1380470.336       -1134.813          48.000  
  25568671.330    -2320077.178        2735.651          41.000  
  20586058.692     -253101.167         292.306          46.000  
  21401797.006     3413622.705       -3049.965          47.000  
  20119911.201     -229497.404         197.903          42.000  
  24247214.120     2921853.057       -4329.836          47.000  
  21099981.495    -1523884.175         731.085          43.000  
  39891651.917      205062.3312       -671.538          34.000  
 19 10  5 10  7 40.0000000  0 12G32G10G14G 3G18G17G 1G 8G11G27G22S27
  22728485.234      968194.763       -1621.550          44.000  
  25266220.073     1786459.347       -4072.727          36.000  
  22427461.928     -194087.040          64.430          38.000  
  22080661.850    -1562808.144        2074.091          43.000  
  20045489.861     1381604.614       -1134.652          48.000  
  25568150.581    -2322812.915        2735.453          42.000  
  20586003.096     -253393.742         292.331          46.000  
  21402377.470     3416672.352       -3050.312          48.000  
  20119873.299     -229695.824         198.205          43.000  
  24248038.189     2926182.363       -4329.794          47.000  
  21099841.545    -1524615.341         731.292          44.000  
  39891779.443      205734.3942       -671.155          34.000  
 19 10  5 10  7 41.0000000  0 12G32G10G14G 3G18G17G 1G 8G11G27G22S27
  22728794.207      969816.235       -1621.626          44.000  
  25266995.072     1790533.779       -4074.311          36.000  
  22427449.573     -194151.142          63.957          38.000  
  22080267.475    -1564882.468        2074.171          43.000  
  20045705.650     1382739.285       -1135.025          48.000  
  25567629.971    -2325548.704        2735.741          42.000  
  20585947.639     -253686.027         292.188          47.000  
  21402958.039     3419722.409       -3050.224          48.000  
  20119835.467     -229893.799         197.719          43.000  
  24248861.630     2930511.765       -4329.376          48.000  
  21099702.536    -1525346.131         730.205          44.000  
  39891907.703      206406.4722       -671.597          34.000  
 19 10  5 10  7 42.0000000  0 12G32G10G14G 3G18G17G 1G 8G11G27G22S27
  22729102.657      971438.396       -1622.581          44.000  
  25267770.420     1794608.250       -4074.564          36.000  
  22427437.323     -194214.621          62.826          38.000  
  22079872.367    -1566956.374        2073.191          43.000  
  20045921.684     1383874.456       -1135.710          48.000  
  25567109.257    -2328284.382        2735.025          42.000  
  20585892.392     -253977.920         291.683          47.000  
  21403538.712     3422772.979       -3051.001          48.000  
  20119798.123     -230091.201         196.663          42.000  
  24249686.118     2934841.358       -4330.360          48.000  
  21099563.179    -1526076.410         729.410          44.000  
  39892035.682      207078.6632       -670.978          34.000  
 19 10  5 10  7 43.0000000  0 12G32G10G14G 3G18G17G 1G 8G11G27G22S27
  22729411.387      973061.188       -1622.956          44.000  
  25268545.664     1798682.778       -4074.429          35.000  
  22427425.143     -194277.495          62.538          38.000  
  22079477.643    -1569029.906        2073.279          42.000  
  20046137.508     1385010.070       -1135.764          48.000  
  25566588.996    -2331020.040        2735.739          42.000  
  20585836.761     -254269.452         291.523          47.000  
  21404119.107     3425824.043       -3051.120          48.000  
  20119760.361     -230288.071         196.280          42.000  
  24250509.733     2939171.108       -4330.320          48.000  
  21099424.624    -1526806.217         730.103          43.000  
  39892163.837      207750.9912       -670.438          34.000  
 19 10  5 10  7 44.0000000  0 12G32G10G14G 3G18G17G 1G 8G11G27G22S27
  22729719.627      974684.505       -1624.152          42.000  
  25269320.872     1802757.189       -4073.670          35.000  
  22427413.521     -194339.892          61.598          37.000  
  22079083.163    -1571103.184        2072.902          41.000  
  20046353.647     1386145.996       -1136.529          46.000  
  25566068.002    -2333755.760        2735.353          40.000  
  20585781.025     -254560.758         290.405          45.000  
  21404699.920     3428875.462       -3051.859          46.000  
  20119722.319     -230484.539         194.694          41.000  
  24251333.348     2943500.881       -4330.601          46.000  
  21099285.546    -1527535.706         728.712          42.000  
  39892291.817      208423.2082       -672.435          33.000  
 19 10  5 10  7 45.0000000  0 12G32G10G14G 3G18G17G 1G 8G11G27G22S27
  22730029.055      976308.652       -1624.572          44.000  
  25270096.604     1806831.833       -4074.875          35.000  
  22427402.248     -194401.498          61.606          38.000  
  22078688.474    -1573175.888        2072.240          42.000  
  20046569.994     1387282.574       -1136.806          48.000  
  25565547.602    -2336491.265        2735.458          42.000  
  20585725.289     -254851.518         290.375          46.000  
  21405280.593     3431927.577       -3052.525          48.000  
  20119685.325     -230680.239         195.592          42.000  
  24252157.627     2947831.036       -4330.301          48.000  
  21099147.131    -1528264.521         728.424          43.000  
  39892420.181      209095.5372       -673.406          34.000  
 19 10  5 10  7 46.0000000  0 12G32G10G14G 3G18G17G 1G 8G11G27G22S27
  22730338.168      977933.380       -1625.442          43.000  
  25270872.720     1810906.390       -4073.080          36.000  
  22427390.312     -194462.579          60.079          38.000  
  22078293.436    -1575248.287        2072.331          41.000  
  20046786.412     1388419.524       -1137.267          48.000  
  25565027.167    -2339226.772        2734.993          41.000  
  20585670.111     -255141.957         290.221          46.000  
  21405861.301     3434980.110       -3053.023          48.000  
  20119648.679     -230875.507         194.678          42.000  
  24252982.150     2952161.268       -4330.184          48.000  
  21099008.646    -1528992.931         728.058          44.000  
  39892547.462      209767.8272       -671.743          34.000  
 19 10  5 10  7 47.0000000  0 12G32G10G14G 3G18G17G 1G 8G11G27G22S27
  22730647.525      979558.938       -1626.180          44.000  
  25271648.243     1814981.199       -4073.068          35.000  
  22427378.516     -194522.842          58.746          38.000  
  22077899.376    -1577320.118        2071.619          42.000  
  20047002.830     1389557.121       -1138.136          48.000  
  25564506.801    -2341962.068        2735.589          42.000  
  20585614.305     -255431.862         289.216          46.000  
  21406442.149     3438033.336       -3053.739          48.000  
  20119611.650     -231070.025         194.535          42.000  
  24253806.219     2956491.852       -4330.639          47.000  
  21098871.033    -1529720.693         727.646          43.000  
  39892675.442      210440.4502       -674.700          34.000  
 19 10  5 10  7 48.0000000  0 12G32G10G14G 3G18G17G 1G 8G11G27G22S27
  22730957.127      981185.188       -1626.240          43.000  
  25272423.242     1819056.046       -4074.867          36.000  
  22427367.034     -194582.444          60.230          38.000  
  22077505.105    -1579391.532        2071.081          42.000  
  20047219.352     1390695.211       -1138.196          47.000  
  25563986.087    -2344697.251        2735.139          42.000  
  20585559.267     -255721.372         289.731          45.000  
  21407023.521     3441087.079       -3053.988          47.000  
  20119575.668     -231263.975         193.844          42.000  
  24254630.288     2960822.628       -4330.663          47.000  
  21098732.479    -1530447.935         727.087          43.000  
  39892803.213      211113.1042       -671.650          34.000  
 19 10  5 10  7 49.0000000  0 12G32G10G14G 3G18G17G 1G 8G11G27G22S27
  22731267.113      982812.034       -1626.805          44.000  
  25273198.520     1823130.915       -4074.923          36.000  
  22427356.145     -194641.511          58.757          38.000  
  22077111.219    -1581462.593        2070.999          43.000  
  20047436.049     1391833.731       -1138.718          49.000  
  25563465.651    -2347432.449        2735.349          42.000  
  20585504.299     -256010.561         288.844          46.000  
  21407604.788     3444141.275       -3054.237          48.000  
  20119539.057     -231457.429         193.003          43.000  
  24255454.636     2965153.537       -4331.045          49.000  
  21098594.412    -1531174.762         726.891          44.000  
  39892930.983      211785.6752       -671.828          34.000  
 19 10  5 10  7 50.0000000  0 12G32G10G14G 3G18G17G 1G 8G11G27G22S27
  22731576.086      984439.860       -1627.758          42.000  
  25273973.728     1827206.119       -4074.616          33.000  
  22427345.221     -194699.611          58.820          36.000  
  22076717.856    -1583532.963        2069.902          41.000  
  20047652.466     1392972.994       -1139.436          46.000  
  25562945.321    -2350167.263        2735.368          40.000  
  20585449.017     -256299.059         288.265          44.000  
  21408186.159     3447196.276       -3054.910          45.000  
  20119502.028     -231650.000         192.404          41.000  
  24256278.880     2969484.945       -4331.142          46.000  
  21098455.718    -1531900.779         726.125          42.000  
  39893059.382      212458.5482       -672.240          31.000  
 19 10  5 10  7 51.0000000  0 12G32G10G14G 3G18G17G 1G 8G11G27G22S27
  22731886.491      986068.555       -1628.518          44.000  
  25274749.216     1831281.553       -4074.468          35.000  
  22427334.332     -194756.873          58.152          38.000  
  22076324.773    -1585602.689        2069.829          44.000  
  20047869.303     1394112.938       -1140.128          49.000  
  25562424.920    -2352901.823        2734.993          43.000  
  20585394.083     -256586.971         288.016          46.000  
  21408766.693     3450251.972       -3055.976          48.000  
  20119466.360     -231841.810         191.427          43.000  
  24257103.298     2973816.741       -4331.176          48.000  
  21098318.071    -1532626.104         725.260          44.000  
  39893187.606      213131.7132       -673.649          33.000  
 19 10  5 10  7 52.0000000  0 12G32G10G14G 3G18G17G 1G 8G11G27G22S27
  22732196.651      987697.882       -1629.425          44.000  
  25275524.425     1835357.013       -4074.835          35.000  
  22427323.827     -194813.569          56.887          38.000  
  22075930.467    -1587672.069        2069.054          43.000  
  20048085.825     1395253.318       -1140.712          49.000  
  25561904.520    -2355636.371        2733.900          43.000  
  20585339.046     -256874.516         287.413          46.000  
  21409348.309     3453308.147       -3056.434          48.000  
  20119430.203     -232033.091         190.807          43.000  
  24257927.297     2978148.679       -4332.179          48.000  
  21098179.865    -1533350.972         724.756          45.000  
  39893315.237      213804.9422       -673.519          34.000  
 19 10  5 10  7 53.0000000  0 12G32G10G14G 3G18G17G 1G 8G11G27G22S27
  22732506.253      989328.127       -1630.595          44.000  
  25276299.703     1839432.823       -4073.513          36.000  
  22427313.496     -194869.355          55.678          38.000  
  22075536.895    -1589740.774        2068.823          43.000  
  20048303.045     1396394.436       -1141.101          49.000  
  25561384.154    -2358370.588        2734.165          43.000  
  20585284.357     -257161.445         286.484          46.000  
  21409929.820     3456365.103       -3056.444          48.000  
  20119394.151     -232223.546         190.148          44.000  
  24258751.331     2982481.066       -4332.196          48.000  
  21098042.776    -1534075.085         724.292          45.000  
  39893443.147      214478.3552       -673.257          34.000  
 19 10  5 10  7 54.0000000  0 12G32G10G14G 3G18G17G 1G 8G11G27G22S27
  22732816.587      990959.169       -1631.811          44.000  
  25277074.353     1843508.767       -4076.711          36.000  
  22427302.852     -194924.385          54.942          38.000  
  22075142.381    -1591808.967        2067.328          43.000  
  20048519.812     1397536.149       -1142.017          49.000  
  25560864.243    -2361104.592        2733.965          43.000  
  20585229.737     -257447.851         286.231          46.000  
  21410511.924     3459422.691       -3058.455          48.000  
  20119358.029     -232413.308         189.005          44.000  
  24259575.784     2986813.762       -4332.897          48.000  
  21097904.710    -1534798.580         723.165          45.000  
  39893571.371      215151.9262       -674.409          35.000  
 19 10  5 10  7 55.0000000  0 12G32G10G14G 3G18G17G 1G 8G11G27G22S27
  22733127.515      992590.981       -1632.065          44.000  
  25277849.980     1847584.838       -4076.917          35.000  
  22427292.382     -194978.699          53.051          39.000  
  22074749.297    -1593876.658        2067.110          43.000  
  20048737.032     1398678.449       -1142.650          48.000  
  25560344.191    -2363838.449        2733.326          43.000  
  20585175.921     -257733.765         285.595          46.000  
  21411094.308     3462480.879       -3058.515          48.000  
  20119321.802     -232602.414         188.485          44.000  
  24260400.586     2991146.750       -4332.978          48.000  
  21097767.098    -1535521.487         722.843          45.000  
  39893699.910      215825.6402       -674.386          35.000  
 19 10  5 10  7 56.0000000  0 12G32G10G14G 3G18G17G 1G 8G11G27G22S27
  22733438.408      994223.625       -1632.992          44.000  
  25278625.468     1851661.161       -4076.975          35.000  
  22427282.714     -195032.213          52.370          38.000  
  22074356.004    -1595943.758        2066.273          43.000  
  20048954.881     1399821.399       -1143.594          48.000  
  25559823.791    -2366572.047        2733.058          43.000  
  20585121.511     -258019.130         284.913          47.000  
  21411677.180     3465539.751       -3059.038          48.000  
  20119285.680     -232790.789         187.883          43.000  
  24261224.934     2995480.090       -4333.347          48.000  
  21097630.323    -1536243.737         721.793          44.000  
  39893828.029      216499.6252       -674.915          34.000  
 19 10  5 10  7 57.0000000  0 12G32G10G14G 3G18G17G 1G 8G11G27G22S27
  22733749.092      995857.048       -1633.844          44.000  
  25279400.572     1855737.615       -4074.788          35.000  
  22427272.977     -195085.002          51.704          39.000  
  22073962.990    -1598010.353        2066.415          43.000  
  20049172.764     1400964.931       -1143.925          48.000  
  25559303.705    -2369305.476        2733.270          43.000  
  20585067.939     -258303.999         284.249          47.000  
  21412259.633     3468599.230       -3059.964          48.000  
  20119250.116     -232978.489         187.031          43.000  
  24262049.667     2999813.726       -4334.019          48.000  
  21097492.780    -1536965.377         721.437          44.000  
  39893956.568      217173.8052       -674.677          34.000  
 19 10  5 10  7 58.0000000  0 12G32G10G14G 3G18G17G 1G 8G11G27G22S27
  22734059.811      997491.418       -1634.886          43.000  
  25280175.396     1859814.427       -4075.522          35.000  
  22427263.100     -195136.873          51.605          38.000  
  22073569.942    -1600076.269        2065.645          42.000  
  20049390.403     1402109.210       -1144.657          48.000  
  25558783.793    -2372038.573        2733.475          43.000  
  20585013.983     -258588.211         284.104          46.000  
  21412842.436     3471659.499       -3060.373          48.000  
  20119214.029     -233165.348         186.732          42.000  
  24262874.120     3004147.819       -4333.780          47.000  
  21097354.889    -1537686.263         720.433          43.000  
  39894085.071      217848.2612       -674.519          34.000  
 19 10  5 10  7 59.0000000  0 12G32G10G14G 3G18G17G 1G 8G11G27G22S27
  22734371.681      999126.646       -1635.619          42.000  
  25280950.430     1863891.453       -4078.419          34.000  
  22427253.642     -195187.914          51.613          38.000  
  22073177.312    -1602141.594        2064.942          42.000  
  20049608.601     1403254.157       -1145.593          46.000  
  25558263.951    -2374771.428        2732.355          42.000  
  20584960.585     -258871.850         283.266          45.000  
  21413425.378     3474720.470       -3061.388          46.000  
  20119178.780     -233351.463         185.953          41.000  
  24263699.340     3008482.294       -4334.707          46.000  
  21097218.184    -1538406.458         719.765          43.000  
  39894214.063      218522.9652       -675.898          34.000  
 19 10  5 10  8  0.0000000  0 12G32G10G14G 3G18G17G 1G 8G11G27G22S27
  22734683.900     1000762.650       -1636.601          43.000  
  25281725.639     1867968.665       -4077.182          33.000  
  22427244.359     -195238.223          49.701          38.000  
  22072784.717    -1604206.381        2064.738          43.000  
  20049827.182     1404399.714       -1145.125          48.000  
  25557744.423    -2377504.073        2732.582          43.000  
  20584906.804     -259154.970         283.280          46.000  
  21414007.761     3477782.076       -3061.744          48.000  
  20119143.147     -233536.880         185.432          43.000  
  24264524.073     3012817.061       -4335.036          47.000  
  21097081.723    -1539126.032         719.435          44.000  
  39894342.357      219197.7322       -674.170          34.000  
 19 10  5 10  8  1.0000000  0 12G32G10G14G 3G18G17G 1G 8G11G27G22S27
  22734995.387     1002399.599       -1637.338          44.000  
  25282500.603     1872046.195       -4077.026          34.000  
  22427234.866     -195287.593          49.222          39.000  
  22072391.319    -1606270.494        2064.053          44.000  
  20050045.519     1405546.016       -1146.836          48.000  
  25557224.860    -2380236.361        2732.274          43.000  
  20584853.406     -259437.441         282.278          47.000  
  21414590.215     3480844.448       -3062.801          48.000  
  20119107.932     -233721.472         184.144          43.000  
  24265349.398     3017152.303       -4335.544          48.000  
  21096944.459    -1539844.835         718.256          45.000  
  39894470.686      219872.9262       -674.954          34.000  
 19 10  5 10  8  2.0000000  0 12G32G10G14G 3G18G17G 1G 8G11G27G22S27
  22735307.571     1004037.628       -1638.353          44.000  
  25283275.462     1876124.146       -4077.350          35.000  
  22427225.512     -195335.954          48.142          39.000  
  22071998.305    -1608333.799        2063.130          43.000  
  20050263.752     1406693.199       -1147.258          49.000  
  25556705.158    -2382968.185        2731.756          43.000  
  20584799.520     -259719.120         281.768          47.000  
  21415172.424     3483907.741       -3063.563          49.000  
  20119072.578     -233905.095         183.475          43.000  
  24266173.711     3021488.133       -4335.704          48.000  
  21096807.685    -1540562.745         717.714          45.000  
  39894599.364      220548.4532       -674.726          34.000  
 19 10  5 10  8  3.0000000  0 12G32G10G14G 3G18G17G 1G 8G11G27G22S27
  22735620.418     1005676.660       -1639.219          44.000  
  25284051.159     1880202.541       -4078.679          34.000  
  22427215.391     -195383.354          47.265          38.000  
  22071605.954    -1610396.372        2062.350          44.000  
  20050482.508     1407841.180       -1148.015          48.000  
  25556185.490    -2385699.596        2731.416          44.000  
  20584746.017     -260000.066         281.169          47.000  
  21415755.645     3486971.883       -3064.194          48.000  
  20119037.538     -234087.806         182.970          43.000  
  24266999.177     3025824.487       -4336.381          47.000  
  21096671.608    -1541279.812         717.051          44.000  
  39894728.460      221224.4672       -676.488          34.000  
 19 10  5 10  8  4.0000000  0 12G32G10G14G 3G18G17G 1G 8G11G27G22S27
  22735932.114     1007316.482       -1640.369          43.000  
  25284826.752     1884281.067       -4078.231          34.000  
  22427206.177     -195430.004          45.666          38.000  
  22071213.639    -1612458.389        2061.945          42.000  
  20050701.159     1408989.756       -1148.703          48.000  
  25555664.985    -2388430.793        2731.290          42.000  
  20584692.550     -260280.519         280.125          46.000  
  21416338.796     3490036.648       -3065.291          47.000  
  20119003.475     -234269.848         181.330          42.000  
  24267824.397     3030161.146       -4337.192          47.000  
  21096535.740    -1541996.273         716.005          43.000  
  39894856.964      221900.7332       -676.002          34.000  
 19 10  5 10  8  5.0000000  0 12G32G10G14G 3G18G17G 1G 8G11G27G22S27
  22736244.717     1008957.256       -1641.119          45.000  
  25285602.693     1888359.941       -4077.170          35.000  
  22427196.719     -195475.712          45.671          37.000  
  22070821.602    -1614519.736        2061.530          44.000  
  20050920.089     1410139.090       -1149.635          49.000  
  25555145.876    -2391161.654        2731.327          43.000  
  20584639.955     -260560.297         279.789          47.000  
  21416921.843     3493102.206       -3065.650          48.000  
  20118968.854     -234451.030         180.965          43.000  
  24268650.037     3034498.277       -4336.533          48.000  
  21096400.048    -1542711.961         715.655          45.000  
  39894985.467      222577.3462       -676.296          34.000  
 19 10  5 10  8  6.0000000  0 12G32G10G14G 3G18G17G 1G 8G11G27G22S27
  22736556.588     1010598.795       -1642.321          45.000  
  25286378.390     1892438.930       -4079.658          35.000  
  22427187.576     -195520.704          43.779          38.000  
  22070429.321    -1616580.596        2060.380          44.000  
  20051138.880     1411289.008       -1150.839          49.000  
  25554625.929    -2393892.335        2729.884          44.000  
  20584586.522     -260839.600         278.131          47.000  
  21417505.413     3496168.373       -3066.950          49.000  
  20118934.128     -234631.560         179.950          43.000  
  24269475.013     3038835.679       -4337.862          48.000  
  21096263.517    -1543427.054         714.315          45.000  
  39895114.215      223254.0482       -677.738          34.000  
 19 10  5 10  8  7.0000000  0 12G32G10G14G 3G18G17G 1G 8G11G27G22S27
  22736868.493     1012241.333       -1643.349          44.000  
  25287154.541     1896518.340       -4079.798          35.000  
  22427178.711     -195564.752          44.538          38.000  
  22070038.018    -1618640.695        2059.671          44.000  
  20051357.846     1412439.715       -1151.390          49.000  
  25554106.192    -2396622.636        2729.685          44.000  
  20584533.578     -261118.182         278.444          47.000  
  21418089.158     3499235.382       -3067.378          49.000  
  20118900.170     -234811.186         179.414          43.000  
  24270300.444     3043173.597       -4338.502          48.000  
  21096127.405    -1544141.330         713.936          44.000  
  39895243.067      223930.9912       -677.764          34.000  
 19 10  5 10  8  8.0000000  0 12G32G10G14G 3G18G17G 1G 8G11G27G22S27
  22737180.782     1013884.747       -1643.938          44.000  
  25287930.273     1900597.970       -4078.809          35.000  
  22427170.649     -195607.930          41.788          38.000  
  22069646.016    -1620700.183        2059.421          43.000  
  20051576.567     1413591.102       -1151.456          49.000  
  25553586.525    -2399352.630        2730.065          44.000  
  20584480.285     -261396.160         278.099          47.000  
  21418673.356     3502303.095       -3068.195          49.000  
  20118865.444     -234990.046         178.801          43.000  
  24271125.664     3047511.901       -4338.292          48.000  
  21095990.910    -1544854.893         713.355          45.000  
  39895372.234      224608.2112       -677.129          35.000  
 19 10  5 10  8  9.0000000  0 12G32G10G14G 3G18G17G 1G 8G11G27G22S27
  22737493.246     1015529.136       -1645.156          44.000  
  25288705.516     1904677.975       -4081.758          35.000  
  22427162.482     -195650.188          41.729          38.000  
  22069253.491    -1622758.977        2058.070          43.000  
  20051795.532     1414743.266       -1152.624          49.000  
  25553066.892    -2402082.267        2728.631          44.000  
  20584427.062     -261673.457         276.503          47.000  
  21419256.961     3505371.638       -3069.321          49.000  
  20118831.800     -235168.029         177.411          43.000  
  24271951.339     3051850.706       -4339.536          48.000  
  21095855.775    -1545567.659         712.103          45.000  
  39895501.400      225285.8092       -676.834          34.000  
 19 10  5 10  8 10.0000000  0 12G32G10G14G 3G18G17G 1G 8G11G27G22S27
  22737806.651     1017174.617       -1645.998          42.000  
  25289482.644     1908758.441       -4080.403          34.000  
  22427155.153     -195691.376          40.289          36.000  
  22068861.908    -1624816.920        2057.877          41.000  
  20052014.742     1415896.338       -1153.121          47.000  
  25552547.853    -2404811.380        2729.656          43.000  
  20584374.293     -261949.934         276.494          45.000  
  21419840.636     3508441.111       -3069.714          47.000  
  20118798.470     -235345.024         177.328          41.000  
  24272777.013     3056190.135       -4339.396          46.000  
  21095720.047    -1546279.504         711.399          43.000  
  39895630.567      225963.9422       -679.124          32.000  
 19 10  5 10  8 11.0000000  0 12G32G10G14G 3G18G17G 1G 8G11G27G22S27
  22738119.639     1018821.074       -1647.653          43.000  
  25290259.598     1912839.263       -4081.939          36.000  
  22427148.243     -195731.607          40.059          38.000  
  22068469.452    -1626874.148        2056.461          43.000  
  20052234.440     1417050.179       -1154.444          48.000  
  25552028.395    -2407540.119        2728.872          44.000  
  20584322.396     -262225.720         275.187          46.000  
  21420425.044     3511511.398       -3070.997          48.000  
  20118765.035     -235521.144         175.346          43.000  
  24273602.723     3060530.056       -4340.366          47.000  
  21095584.738    -1546990.557         710.358          44.000  
  39895759.629      226642.3112       -678.259          34.000  
 19 10  5 10  8 12.0000000  0 12G32G10G14G 3G18G17G 1G 8G11G27G22S27
  22738432.556     1020468.581       -1647.666          44.000  
  25291036.865     1916920.545       -4082.806          36.000  
  22427140.809     -195770.863          39.317          38.000  
  22068078.218    -1628930.616        2056.309          43.000  
  20052453.789     1418204.867       -1154.821          49.000  
  25551509.111    -2410268.422        2728.458          44.000  
  20584269.487     -262500.738         275.066          47.000  
  21421009.277     3514582.560       -3071.138          49.000  
  20118731.950     -235696.350         174.817          43.000  
  24274428.467     3064870.520       -4340.393          47.000  
  21095449.639    -1547700.729         710.229          45.000  
  39895888.586      227321.1082       -678.410          34.000  
 19 10  5 10  8 13.0000000  0 12G32G10G14G 3G18G17G 1G 8G11G27G22S27
  22738746.311     1022116.870       -1648.353          44.000  
  25291813.610     1921002.4903      -4080.180          36.000  
  22427134.143     -195809.366          38.093          38.000  
  22067687.124    -1630986.544        2055.411          42.000  
  20052673.592     1419360.158       -1155.378          49.000  
  25550990.211    -2412996.537        2728.316          44.000  
  20584216.752     -262775.275         274.263          47.000  
  21421593.790     3517654.359       -3071.917          49.000  
  20118698.375     -235870.856         174.325          43.000  
  24275254.840     3069211.289       -4341.050          47.000  
  21095314.749    -1548410.309         709.081          44.000  
  39896017.997      228000.1862       -677.804          34.000  
 19 10  5 10  8 14.0000000  0 13G32G10G14G28G 3G18G17G 1G 8G11G27G22
                                S27
  22739060.275     1023766.112       -1649.854          43.000  
  25292590.389     1925084.1942      -4082.345          35.000  
  22427127.652     -195846.943          36.846          38.000  
  23472931.311      120499.0433       -329.986          29.000  
  22067295.297    -1633041.816        2054.308          41.000  
  20052893.255     1420516.213       -1157.247          48.000  
  25550470.998    -2415724.298        2727.314          43.000  
  20584164.785     -263049.134         273.014          46.000  
  21422178.930     3520726.953       -3073.533          48.000  
  20118664.976     -236044.509         172.413          42.000  
  24276080.968     3073552.530       -4342.293          46.000  
  21095180.242    -1549119.112         707.603          44.000  
  39896146.675      228679.4752       -681.325          34.000  
 19 10  5 10  8 15.0000000  0 13G32G10G14G28G 3G18G17G 1G 8G11G27G22
                                S27
  22739374.379     1025416.561       -1651.039          44.000  
  25293367.726     1929166.5732      -4082.217          35.000  
  22427120.881     -195883.338          35.870          38.000  
  23472991.584      120829.0073       -330.648          30.000  
  22066903.749    -1635096.095        2053.802          43.000  
  20053113.582     1421673.300       -1157.224          49.000  
  25549952.168    -2418451.426        2726.571          43.000  
  20584112.889     -263322.044         272.922          47.000  
  21422763.862     3523800.613       -3074.095          49.000  
  20118632.134     -236217.045         172.105          43.000  
  24276906.712     3077894.511       -4342.057          47.000  
  21095045.282    -1549826.852         707.049          45.000  
  39896276.330      229359.4572       -679.912          34.000  
 19 10  5 10  8 16.0000000  0 13G32G10G14G28G 3G18G17G 1G 8G11G27G22
                                S27
  22739688.308     1027068.082       -1652.622          44.000  
  25294145.377     1933249.3622      -4083.701          35.000  
  22427114.389     -195918.730          34.394          38.000  
  23473050.985      121159.9073       -331.577          30.000  
  22066513.667    -1637149.587        2052.786          43.000  
  20053334.083     1422831.251       -1158.650          49.000  
  25549433.477    -2421178.077        2726.406          44.000  
  20584061.131     -263594.182         271.623          47.000  
  21423348.304     3526875.182       -3074.904          49.000  
  20118599.363     -236388.616         171.307          43.000  
  24277733.643     3082237.063       -4343.275          47.000  
  21094911.090    -1550533.699         706.861          45.000  
  39896405.636      230039.7912       -680.357          34.000  
 19 10  5 10  8 17.0000000  0 13G32G10G14G28G 3G18G17G 1G 8G11G27G22
                                S27
  22740003.215     1028720.603       -1652.122          44.000  
  25294922.785     1937332.5442      -4082.572          35.000  
  22427108.037     -195953.151          33.330          38.000  
  23473113.561      121491.8183       -331.902          30.000  
  22066123.620    -1639202.340        2052.755          43.000  
  20053554.688     1423989.992       -1159.065          48.000  
  25548914.787    -2423904.337        2726.461          43.000  
  20584009.409     -263865.600         271.476          47.000  
  21423933.166     3529950.588       -3075.764          48.000  
  20118567.185     -236559.302         170.342          43.000  
  24278560.085     3086580.121       -4343.101          47.000  
  21094776.863    -1551239.746         705.969          44.000  
  39896535.291      230720.4622       -678.416          34.000  
 19 10  5 10  8 18.0000000  0 13G32G10G14G28G 3G18G17G 1G 8G11G27G22
                                S27
  22740317.389     1030374.328       -1654.435          44.000  
  25295700.017     1941416.3202      -4083.557          36.000  
  22427101.232     -195986.384          33.282          39.000  
  23473177.534      121824.9013       -332.746          30.000  
  22065733.991    -1641254.132        2051.306          43.000  
  20053775.050     1425149.765       -1160.090          49.000  
  25548396.446    -2426629.974        2725.577          44.000  
  20583958.070     -264136.088         270.481          47.000  
  21424517.678     3533027.070       -3076.423          49.000  
  20118535.216     -236728.870         169.474          43.000  
  24279386.807     3090923.933       -4344.291          47.000  
  21094642.113    -1551944.745         704.521          45.000  
  39896664.911      231401.8502       -680.579          35.000  
 19 10  5 10  8 19.0000000  0 13G32G10G14G28G 3G18G17G 1G 8G11G27G22
                                S27
  22740631.842     1032029.060       -1655.396          44.000  
  25296476.936     1945500.4702      -4083.752          36.000  
  22427095.683     -196018.674          31.296          39.000  
  23473238.470      122158.8523       -334.440          30.000  
  22065344.014    -1643305.191        2050.384          44.000  
  20053996.284     1426310.355       -1161.411          49.000  
  25547877.930    -2429355.199        2724.376          44.000  
  20583906.976     -264405.860         268.775          47.000  
  21425103.168     3536104.376       -3078.125          48.000  
  20118502.898     -236897.546         167.254          43.000  
  24280213.459     3095268.249       -4345.066          47.000  
  21094507.502    -1552648.913         703.603          45.000  
  39896794.706      232083.6492       -682.263          35.000  
 19 10  5 10  8 20.0000000  0 13G32G10G14G28G 3G18G17G 1G 8G11G27G22
                                S27
  22740946.888     1033684.890       -1656.958          44.000  
  25297254.622     1949585.1052      -4085.238          36.000  
  22427090.168     -196049.871          30.297          40.000  
  23473301.570      122493.9093       -335.404          29.000  
  22064953.582    -1645355.405        2049.459          43.000  
  20054217.901     1427471.868       -1162.104          49.000  
  25547359.554    -2432079.902        2724.596          43.000  
  20583855.707     -264674.798         268.191          47.000  
  21425689.111     3539182.627       -3078.794          48.000  
  20118470.615     -237065.199         166.456          43.000  
  24281040.006     3099613.211       -4345.317          47.000  
  21094374.322    -1553352.151         702.796          45.000  
  39896923.977      232765.9112       -682.509          35.000  
 19 10  5 10  8 21.0000000  0 12G32G10G14G 3G18G17G 1G 8G11G27G22S27
  22741262.109     1035341.703       -1657.288          44.000  
  25298031.820     1953670.0682      -4085.056          36.000  
  22427084.096     -196080.125          30.578          40.000  
  22064563.396    -1647404.910        2048.712          43.000  
  20054439.414     1428634.157       -1162.522          49.000  
  25546841.108    -2434804.244        2724.611          43.000  
  20583804.578     -264943.055         268.364          47.000  
  21426274.566     3542261.680       -3079.614          48.000  
  20118439.659     -237231.981         167.086          43.000  
  24281866.692     3103958.648       -4345.649          46.000  
  21094240.060    -1554054.593         701.936          45.000  
  39897053.946      233448.5152       -682.100          35.000  
 19 10  5 10  8 22.0000000  0 12G32G10G14G 3G18G17G 1G 8G11G27G22S27
  22741577.853     1036999.535       -1658.295          43.000  
  25298809.716     1957755.4892      -4084.576          36.000  
  22427078.791     -196109.403          28.633          40.000  
  22064173.244    -1649453.643        2048.554          43.000  
  20054660.753     1429797.292       -1163.551          49.000  
  25546322.767    -2437528.149        2723.047          43.000  
  20583753.623     -265210.563         266.987          46.000  
  21426861.068     3545341.613       -3080.824          47.000  
  20118407.445     -237397.847         165.441          43.000  
  24282694.217     3108304.628       -4346.130          46.000  
  21094106.845    -1554756.177         700.930          44.000  
  39897184.648      234131.4922       -685.294          34.000  
 19 10  5 10  8 23.0000000  0 12G32G10G14G 3G18G17G 1G 8G11G27G22S27
  22741893.597     1038658.498       -1659.483          44.000  
  25299587.333     1961841.3772      -4086.868          36.000  
  22427073.277     -196137.604          28.118          40.000  
  22063783.755    -1651501.520        2047.164          43.000  
  20054882.126     1430961.356       -1164.559          49.000  
  25545804.530    -2440251.508        2723.535          44.000  
  20583703.157     -265477.218         266.679          47.000  
  21427447.465     3548422.530       -3081.103          48.000  
  20118376.140     -237562.690         164.263          43.000  
  24283521.287     3112651.253       -4347.009          46.000  
  21093973.350    -1555456.793         700.368          45.000  
  39897314.722      234815.0052       -682.734          35.000  
 19 10  5 10  8 24.0000000  0 12G32G10G14G 3G18G17G 1G 8G11G27G22S27
  22742209.237     1040318.453       -1659.870          42.000  
  25300365.508     1965927.6692      -4086.695          35.000  
  22427067.902     -196164.834          26.247          38.000  
  22063394.755    -1653548.671        2047.790          43.000  
  20055103.954     1432126.208       -1164.981          47.000  
  25545286.503    -2442974.504        2723.260          42.000  
  20583652.412     -265743.171         265.931          45.000  
  21428034.700     3551504.263       -3081.745          47.000  
  20118344.415     -237726.644         163.678          41.000  
  24284348.672     3116998.374       -4347.122          45.000  
  21093840.799    -1556156.612         699.299          43.000  
  39897444.238      235498.9452       -683.981          34.000  
 19 10  5 10  8 25.0000000  0 12G32G10G14G 3G18G17G 1G 8G11G27G22S27
  22742525.644     1041979.320       -1661.571          41.000  
  25301144.346     1970013.741       -4086.396          35.000  
  22427062.248     -196191.194          24.909          35.000  
  22063006.731    -1655595.164        2045.890          41.000  
  20055326.130     1433291.787       -1166.125          47.000  
  25544768.127    -2445697.159        2722.775          41.000  
  20583601.981     -266008.485         264.409          45.000  
  21428621.795     3554586.752       -3083.002          46.000  
  20118313.354     -237889.795         162.118          41.000  
  24285176.056     3121345.928       -4348.116          45.000  
  21093708.107    -1556855.669         698.770          43.000  
  39897574.661      236183.0342       -683.966          33.000  
 19 10  5 10  8 26.0000000  0 12G32G10G14G 3G18G17G 1G 8G11G27G22S27
  22742842.017     1043641.172       -1662.893          43.000  
  25301922.660     1974100.672       -4087.393          36.000  
  22427056.594     -196216.574          25.011          36.000  
  22062617.661    -1657640.910        2045.374          43.000  
  20055548.341     1434458.158       -1166.914          48.000  
  25544250.833    -2448419.426        2721.968          43.000  
  20583552.004     -266273.084         264.371          46.000  
  21429208.646     3557670.062       -3083.771          47.000  
  20118283.060     -238052.036         162.397          42.000  
  24286003.546     3125693.998       -4348.444          46.000  
  21093575.206    -1557553.915         697.953          44.000  
  39897705.817      236867.5322       -685.661          33.000  
 19 10  5 10  8 27.0000000  0 12G32G10G14G 3G18G17G 1G 8G11G27G22S27
  22743159.052     1045304.245       -1663.548          44.000  
  25302701.882     1978188.184       -4088.784          38.000  
  22427051.918     -196240.805          24.867          38.000  
  22062229.883    -1659685.721        2044.501          45.000  
  20055771.006     1435625.555       -1167.750          50.000  
  25543733.189    -2451141.082        2721.837          45.000  
  20583501.956     -266536.763         263.512          47.000  
  21429796.020     3560754.402       -3084.714          49.000  
  20118252.418     -238213.202         160.463          44.000  
  24286832.256     3130042.786       -4348.750          47.000  
  21093442.934    -1558251.149         696.545          45.000  
  39897835.611      237552.5962       -684.621          36.000  
 19 10  5 10  8 28.0000000  0 12G32G10G14G 3G18G17G 1G 8G11G27G22S27
  22743475.808     1046968.355       -1664.667          44.000  
  25303480.825     1982276.165       -4087.564          37.000  
  22427047.520     -196264.025          22.123          37.000  
  22061841.441    -1661729.758        2043.188          44.000  
  20055992.693     1436793.806       -1168.924          49.000  
  25543215.337    -2453862.275        2721.445          44.000  
  20583451.770     -266799.673         262.818          46.000  
  21430383.569     3563839.629       -3085.908          49.000  
  20118222.508     -238373.406         159.170          42.000  
  24287660.095     3134392.128       -4349.593          47.000  
  21093310.068    -1558947.498         695.547          45.000  
  39897966.139      238238.1372       -685.715          35.000  
 19 10  5 10  8 29.0000000  0 13G32G10G14G28G 3G18G17G 1G 8G11G27G22
                                S27
  22743792.041     1048633.540       -1665.561          41.000  
  25304259.210     1986364.576       -4088.430          36.000  
  22427042.564     -196286.191          22.371          37.000  
  23474005.616      125548.1843       -341.123          30.000  
  22061452.790    -1663772.958        2042.975          42.000  
  20056214.974     1437962.935       -1169.563          47.000  
  25542697.030    -2456583.000        2720.567          41.000  
  20583401.478     -267061.798         262.067          44.000  
  21430970.455     3566925.772       -3086.533          46.000  
  20118191.761     -238532.623         158.774          41.000  
  24288487.584     3138742.080       -4350.325          45.000  
  21093177.690    -1559642.935         695.245          42.000  
  39898096.946      238924.0372       -685.162          34.000  
 19 10  5 10  8 30.0000000  0 13G32G10G14G28G 3G18G17G 1G 8G11G27G22
                                S27
  22744108.553     1050299.808       -1666.402          43.000  
  25305037.454     1990453.445       -4088.872          37.000  
  22427038.027     -196307.287          20.634          37.000  
  23474058.002      125892.7043       -346.120          29.000  
  22061063.405    -1665815.356        2042.046          44.000  
  20056437.569     1439132.931       -1170.244          49.000  
  25542179.387    -2459303.228        2719.992          44.000  
  20583351.850     -267323.131         261.285          47.000  
  21431557.201     3570012.836       -3087.509          48.000  
  20118161.886     -238690.881         157.751          43.000  
  24289316.051     3143092.624       -4350.888          47.000  
  21093044.999    -1560337.476         694.236          45.000  
  39898227.299      239610.4512       -683.403          34.000  
 19 10  5 10  8 31.0000000  0 13G32G10G14G28G 3G18G17G 1G 8G11G27G22
                                S27
  22744425.868     1051967.179       -1667.556          42.000  
  25305816.258     1994542.816       -4090.226          37.000  
  22427034.642     -196327.353          20.679          37.000  
  23474104.315      126238.6063       -346.493          29.000  
  22060674.335    -1667856.897        2041.790          44.000  
  20056660.129     1440303.875       -1171.020          48.000  
  25541661.849    -2462022.951        2719.416          43.000  
  20583302.151     -267583.624         260.193          46.000  
  21432144.296     3573100.867       -3088.204          47.000  
  20118131.592     -238848.119         157.730          43.000  
  24290143.994     3147443.802       -4351.187          46.000  
  21092913.459    -1561031.088         693.593          44.000  
  39898357.547      240297.3052       -685.585          34.000  
 19 10  5 10  8 32.0000000  0 13G32G10G14G28G 3G18G17G 1G 8G11G27G22
                                S27
  22744742.764     1053635.765       -1669.560          43.000  
  25306595.061     1998632.746       -4090.249          37.000  
  22427031.640     -196346.219          18.126          37.000  
  23474121.486      126585.8133       -348.041          29.000  
  22060286.033    -1669897.499        2040.071          44.000  
  20056883.701     1441475.824       -1172.363          49.000  
  25541144.450    -2464742.052        2718.393          43.000  
  20583253.221     -267843.197         259.073          46.000  
  21432732.194     3576189.942       -3089.415          48.000  
  20118101.508     -239004.279         155.592          42.000  
  24290971.343     3151795.685       -4352.194          46.000  
  21092781.221    -1561723.659         691.564          44.000  
  39898487.796      240984.7532       -687.194          34.000  
 19 10  5 10  8 33.0000000  0 13G32G10G14G28G 3G18G17G 1G 8G11G27G22
                                S27
  22745060.847     1055305.526       -1670.111          43.000  
  25307373.934     2002723.262       -4091.205          38.000  
  22427028.639     -196363.946          17.079          38.000  
  23474176.454      126934.0973       -348.467          29.000  
  22059897.312    -1671937.177        2039.487          44.000  
  20057106.506     1442648.766       -1173.528          49.000  
  25540627.155    -2467460.575        2718.247          44.000  
  20583203.802     -268101.859         258.251          47.000  
  21433320.301     3579280.042       -3090.431          48.000  
  20118071.738     -239159.341         154.385          43.000  
  24291799.182     3156148.284       -4352.801          47.000  
  21092649.158    -1562415.206         690.898          44.000  
  39898619.231      241672.8112       -687.402          34.000  
 19 10  5 10  8 34.0000000  0 13G32G10G14G28G 3G18G17G 1G 8G11G27G22
                                S27
  22745379.104     1056976.478       -1671.410          42.000  
  25308152.946     2006814.346       -4090.986          37.000  
  22427026.545     -196380.529          15.653          37.000  
  23474241.090      127283.5173       -350.010          29.000  
  22059509.464    -1673975.934        2038.296          43.000  
  20057329.834     1443822.693       -1174.655          48.000  
  25540109.791    -2470178.486        2717.770          43.000  
  20583154.732     -268359.625         257.341          45.000  
  21433908.897     3582371.170       -3091.456          47.000  
  20118042.492     -239313.308         153.051          42.000  
  24292627.474     3160501.573       -4353.968          45.000  
  21092516.885    -1563105.765         689.796          43.000  
  39898750.073      242361.3502       -688.485          33.000  
 19 10  5 10  8 35.0000000  0 13G32G10G14G28G 3G18G17G 1G 8G11G27G22
                                S27
  22745697.082     1058648.443       -1672.721          43.000  
  25308932.832     2010905.796       -4092.077          39.000  
  22427023.474     -196396.119          13.889          38.000  
  23474302.933      127633.8433       -350.661          29.000  
  22059121.441    -1676013.931        2037.896          44.000  
  20057553.266     1444997.456       -1175.462          48.000  
  25539592.567    -2472895.975        2716.832          44.000  
  20583106.220     -268616.647         256.749          46.000  
  21434498.191     3585463.174       -3092.622          48.000  
  20118013.280     -239466.355         152.311          43.000  
  24293455.905     3164855.399       -4354.300          46.000  
  21092386.637    -1563795.466         689.136          44.000  
  39898880.949      243050.2062       -689.716          34.000  
 19 10  5 10  8 36.0000000  0 13G32G10G14G28G 3G18G17G 1G 8G11G27G22
                                S27
  22746015.339     1060321.761       -1674.107          43.000  
  25309712.019     2014998.012       -4092.691          37.000  
  22427020.507     -196410.406          12.869          38.000  
  23474370.047      127985.5993       -351.627          28.000  
  22058734.220    -1678050.849        2036.122          43.000  
  20057777.467     1446173.347       -1176.545          48.000  
  25539075.517    -2475612.727        2715.891          43.000  
  20583057.011     -268872.600         255.532          46.000  
  21435087.415     3588556.349       -3093.722          48.000  
  20117984.173     -239618.179         151.258          42.000  
  24294283.988     3169210.081       -4354.854          46.000  
  21092255.411    -1564483.995         688.085          43.000  
  39899012.000      243739.7342       -690.261          33.000  
 19 10  5 10  8 37.0000000  0 12G32G10G14G 3G18G17G 1G 8G11G27G22S27
  22746334.503     1061996.249       -1674.948          43.000  
  25310492.358     2019090.777       -4093.316          39.000  
  22427018.239     -196423.565          12.586          38.000  
  22058346.721    -1680086.844        2035.513          44.000  
  20058001.248     1447350.251       -1177.466          49.000  
  25538558.886    -2478328.893        2715.890          43.000  
  20583008.674     -269127.658         254.663          46.000  
  21435676.534     3591650.537       -3094.698          49.000  
  20117956.078     -239768.923         149.954          43.000  
  24295112.873     3173565.455       -4355.775          47.000  
  21092124.814    -1565171.521         687.502          44.000  
  39899144.133      244429.8302       -692.020          34.000  
 19 10  5 10  8 38.0000000  0 12G32G10G14G 3G18G17G 1G 8G11G27G22S27
  22746653.109     1063671.657       -1676.121          43.000  
  25311271.894     2023183.839       -4093.809          39.000  
  22427016.738     -196435.798          11.930          39.000  
  22057959.780    -1682122.169        2035.214          44.000  
  20058225.414     1448527.896       -1177.755          49.000  
  25538041.940    -2481044.729        2715.717          44.000  
  20582960.267     -269382.072         254.417          47.000  
  21436265.339     3594745.496       -3095.227          49.000  
  20117927.809     -239918.826         149.293          43.000  
  24295942.073     3177921.287       -4355.722          47.000  
  21091993.798    -1565858.285         686.516          44.000  
  39899274.940      245120.3852       -689.099          34.000  
 19 10  5 10  8 39.0000000  0 12G32G10G14G 3G18G17G 1G 8G11G27G22S27
  22746972.867     1065348.348       -1676.781          44.000  
  25312051.046     2027277.552       -4093.578          39.000  
  22427014.609     -196446.819           9.025          39.000  
  22057572.105    -1684156.491        2034.256          44.000  
  20058449.335     1449706.603       -1178.839          49.000  
  25537525.519    -2483759.886        2714.978          44.000  
  20582912.104     -269635.498         252.862          47.000  
  21436854.389     3597841.542       -3096.403          49.000  
  20117900.098     -240067.565         148.346          43.000  
  24296770.714     3182277.886       -4356.755          47.000  
  21091863.200    -1566543.961         684.999          44.000  
  39899406.305      245811.6402       -693.166          34.000  
 19 10  5 10  8 40.0000000  0 12G32G10G14G 3G18G17G 1G 8G11G27G22S27
  22747292.346     1067026.302       -1678.766          43.000  
  25312831.524     2031371.917       -4094.688          37.000  
  22427012.375     -196456.585           9.058          38.000  
  22057184.885    -1686189.820        2032.782          43.000  
  20058673.919     1450886.382       -1180.441          48.000  
  25537008.957    -2486474.376        2713.995          43.000  
  20582864.465     -269887.938         251.974          46.000  
  21437443.508     3600938.695       -3097.823          48.000  
  20117871.933     -240215.146         146.942          42.000  
  24297600.542     3186635.282       -4358.092          47.000  
  21091732.324    -1567228.537         683.939          44.000  
  39899538.194      246503.5772       -691.118          34.000  
 19 10  5 10  8 41.0000000  0 12G32G10G14G 3G18G17G 1G 8G11G27G22S27
  22747611.929     1068705.425       -1679.461          44.000  
  25313611.060     2035466.810       -4095.592          39.000  
  22427010.246     -196465.237           8.409          39.000  
  22056797.735    -1688222.211        2031.523          44.000  
  20058898.643     1452067.144       -1181.252          49.000  
  25536492.605    -2489188.289        2713.072          43.000  
  20582816.163     -270139.486         251.198          47.000  
  21438032.837     3604036.867       -3098.838          49.000  
  20117843.594     -240361.655         145.760          43.000  
  24298430.125     3190993.360       -4358.505          47.000  
  21091602.669    -1567912.139         683.199          45.000  
  39899670.223      247196.1632       -692.812          34.000  
 19 10  5 10  8 42.0000000  0 12G32G10G14G 3G18G17G 1G 8G11G27G22S27
  22747931.547     1070385.719       -1680.752          44.000  
  25314391.050     2039562.271       -4095.288          38.000  
  22427008.746     -196472.753           6.885          39.000  
  22056410.828    -1690253.716        2031.198          43.000  
  20059123.611     1453248.881       -1182.322          48.000  
  25535976.393    -2491901.622        2713.454          43.000  
  20582768.733     -270390.147         250.850          46.000  
  21438622.515     3607136.066       -3099.621          48.000  
  20117815.709     -240507.072         145.025          43.000  
  24299258.975     3195352.133       -4358.923          47.000  
  21091473.013    -1568594.716         681.934          44.000  
  39899802.111      247889.4072       -693.249          34.000  
 19 10  5 10  8 43.0000000  0 12G32G10G14G 3G18G17G 1G 8G11G27G22S27
  22748251.549     1072066.998       -1682.260          44.000  
  25315170.656     2043658.101       -4096.015          38.000  
  22427007.734     -196479.300           5.491          38.000  
  22056024.934    -1692284.448        2029.960          44.000  
  20059348.963     1454431.417       -1183.197          48.000  
  25535460.146    -2494614.562        2712.244          43.000  
  20582721.234     -270640.102         249.238          47.000  
  21439211.983     3610236.095       -3100.550          48.000  
  20117788.242     -240651.635         143.689          42.000  
  24300088.768     3199711.401       -4359.868          47.000  
  21091343.987    -1569276.487         681.514          44.000  
  39899934.314      248582.9502       -693.860          34.000  
 19 10  5 10  8 44.0000000  0 12G32G10G14G 3G18G17G 1G 8G11G27G22S27
  22748571.272     1073749.701       -1683.996          43.000  
  25315950.821     2047754.738       -4097.551          38.000  
  22427006.128     -196484.482           3.799          38.000  
  22055638.517    -1694314.044        2028.831          42.000  
  20059573.897     1455615.182       -1184.975          48.000  
  25534943.899    -2497326.670        2711.418          42.000  
  20582673.420     -270888.903         247.821          46.000  
  21439802.045     3613337.374       -3102.577          48.000  
  20117761.159     -240794.862         141.795          41.000  
  24300918.980     3204071.606       -4361.000          47.000  
  21091213.947    -1569957.006         679.633          43.000  
  39900066.622      249277.2222       -697.282          34.000  
 19 10  5 10  8 45.0000000  0 12G32G10G14G 3G18G17G 1G 8G11G27G22S27
  22748892.147     1075433.670       -1684.491          44.000  
  25316730.741     2051852.037       -4097.827          40.000  
  22427004.244     -196488.397           2.639          38.000  
  22055251.750    -1696342.630        2028.138          43.000  
  20059799.179     1456800.035       -1185.351          48.000  
  25534427.686    -2500038.100        2710.820          43.000  
  20582625.851     -271136.708         247.345          46.000  
  21440392.421     3616439.769       -3102.575          48.000  
  20117734.286     -240936.900         141.338          43.000  
  24301748.493     3208432.617       -4361.457          48.000  
  21091084.676    -1570636.426         679.052          44.000  
  39900198.371      249972.0482       -694.964          34.000  
 19 10  5 10  8 46.0000000  0 12G32G10G14G 3G18G17G 1G 8G11G27G22S27
  22749213.196     1077118.675       -1684.418          44.000  
  25317511.114     2055949.713       -4096.896          38.000  
  22427002.952     -196491.335           2.219          37.000  
  22054866.240    -1698370.460        2027.362          43.000  
  20060025.055     1457985.713       -1185.852          49.000  
  25533911.299    -2502749.101        2711.486          43.000  
  20582578.665     -271383.802         246.716          46.000  
  21440982.692     3619543.006       -3103.377          48.000  
  20117707.203     -241078.036         140.823          43.000  
  24302578.670     3212794.143       -4361.435          48.000  
  21090955.649    -1571315.011         678.225          44.000  
  39900330.783      250667.1622       -696.137          34.000  
 19 10  5 10  8 47.0000000  0 12G32G10G14G 3G18G17G 1G 8G11G27G22S27
  22749534.001     1078804.650       -1686.659          44.000  
  25318290.999     2060047.767       -4099.261          39.000  
  22427002.010     -196493.300           1.619          37.000  
  22054480.485    -1700397.556        2026.296          43.000  
  20060250.337     1459172.200       -1187.021          49.000  
  25533395.576    -2505459.709        2710.203          43.000  
  20582532.108     -271630.148         246.133          47.000  
  21441572.823     3622647.092       -3104.237          48.000  
  20117680.504     -241218.269         139.555          43.000  
  24303408.881     3217156.188       -4362.056          48.000  
  21090826.239    -1571992.754         677.215          44.000  
  39900462.672      251362.6972       -695.191          34.000  
 19 10  5 10  8 48.0000000  0 12G32G10G14G 3G18G17G 1G 8G11G27G22S27
  22749854.736     1080491.980       -1687.731          42.000  
  25319070.885     2064146.540       -4098.559          36.000  
  22427001.731     -196493.970           0.371          36.000  
  22054094.486    -1702423.549        2025.753          42.000  
  20060476.317     1460359.839       -1187.841          46.000  
  25532880.096    -2508169.558        2709.849          41.000  
  20582485.551     -271875.440         245.212          44.000  
  21442163.687     3625752.356       -3105.487          45.000  
  20117654.469     -241357.240         138.667          40.000  
  24304238.884     3221519.095       -4363.334          45.000  
  21090697.700    -1572669.327         676.582          42.000  
  39900595.189      252058.8452       -695.951          33.000  
 19 10  5 10  8 49.0000000  0 12G32G10G14G 3G18G17G 1G 8G11G27G22S27
  22750176.378     1082180.518       -1689.607          43.000  
  25319850.944     2068245.906       -4099.837          38.000  
  22427001.905     -196493.511          -0.563          36.000  
  22053709.604    -1704448.623        2025.012          42.000  
  20060702.682     1461548.486       -1189.477          48.000  
  25532364.442    -2510878.800        2708.700          41.000  
  20582439.238     -272119.826         244.150          46.000  
  21442754.273     3628858.672       -3106.817          47.000  
  20117627.700     -241495.140         136.855          42.000  
  24305069.549     3225882.709       -4364.060          47.000  
  21090569.197    -1573344.886         675.312          43.000  
  39900727.531      252755.5622       -696.245          33.000  
 19 10  5 10  8 50.0000000  0 12G32G10G14G 3G18G17G 1G 8G11G27G22S27
  22750497.881     1083870.098       -1689.707          43.000  
  25320631.458     2072345.690       -4099.808          38.000  
  22427002.533     -196491.966          -1.525          37.000  
  22053324.757    -1706472.895        2024.279          43.000  
  20060928.767     1462738.001       -1189.425          48.000  
  25531849.417    -2513587.586        2709.222          42.000  
  20582392.786     -272363.435         243.995          46.000  
  21443345.835     3631965.873       -3107.023          47.000  
  20117601.908     -241632.090         136.863          42.000  
  24305900.633     3230246.890       -4364.009          47.000  
  21090441.182    -1574019.565         675.157          44.000  
  39900860.502      253452.6922       -697.483          33.000  
 19 10  5 10  8 51.0000000  0 12G32G10G14G 3G18G17G 1G 8G11G27G22S27
  22750819.349     1085560.742       -1691.304          43.000  
  25321411.796     2076445.936       -4101.237          38.000  
  22427003.650     -196489.451          -3.714          38.000  
  22052940.643    -1708496.345        2022.980          43.000  
  20061155.933     1463928.369       -1191.403          48.000  
  25531334.286    -2516295.891        2707.731          42.000  
  20582346.822     -272606.255         241.969          46.000  
  21443937.711     3635073.973       -3109.030          48.000  
  20117576.152     -241768.058         135.676          43.000  
  24306730.879     3234611.657       -4365.369          47.000  
  21090312.679    -1574693.346         673.269          44.000  
  39900993.263      254150.3412       -698.490          34.000  
 19 10  5 10  8 52.0000000  0 12G32G10G14G 3G18G17G 1G 8G11G27G22S27
  22751141.340     1087252.632       -1692.651          44.000  
  25322191.821     2080546.799       -4101.326          38.000  
  22427004.558     -196485.678          -4.740          38.000  
  22052555.866    -1710518.826        2022.369          43.000  
  20061382.542     1465119.791       -1192.354          49.000  
  25530818.597    -2519003.549        2707.428          42.000  
  20582300.928     -272848.114         241.337          47.000  
  21444529.239     3638183.170       -3109.921          48.000  
  20117550.221     -241902.899         133.761          43.000  
  24307561.231     3238977.184       -4365.944          48.000  
  21090185.083    -1575366.052         671.861          44.000  
  39901126.618      254848.7062       -698.233          34.000  
 19 10  5 10  8 53.0000000  0 12G32G10G14G 3G18G17G 1G 8G11G27G22S27
  22751463.087     1088945.912       -1694.247          42.000  
  25322972.334     2084648.406       -4101.201          36.000  
  22427005.954     -196480.585          -6.030          36.000  
  22052171.089    -1712540.185        2021.204          41.000  
  20061609.116     1466312.413       -1192.913          48.000  
  25530303.537    -2521710.405        2706.993          40.000  
  20582255.208     -273088.872         240.821          45.000  
  21445121.360     3641293.583       -3110.888          47.000  
  20117524.848     -242036.443         132.553          42.000  
  24308392.280     3243343.604       -4366.622          46.000  
  21090056.998    -1576037.557         670.736          42.000  
  39901260.147      255547.8972       -698.337          33.000  
 19 10  5 10  8 54.0000000  0 12G32G10G14G 3G18G17G 1G 8G11G27G22S27
  22751786.056     1090640.323       -1694.969          44.000  
  25323753.162     2088750.536       -4105.250          37.000  
  22427008.152     -196474.377          -6.732          39.000  
  22051786.311    -1714560.670        2019.542          44.000  
  20061836.736     1467505.961       -1194.225          49.000  
  25529788.511    -2524416.734        2705.872          42.000  
  20582209.419     -273328.769         239.260          47.000  
  21445713.236     3644404.965       -3111.856          48.000  
  20117499.266     -242168.942         132.036          42.000  
  24309223.783     3247710.670       -4367.810          48.000  
  21089929.088    -1576708.095         669.631          44.000  
  39901393.432      256247.6292       -700.678          34.000  
 19 10  5 10  8 55.0000000  0 12G32G10G14G 3G18G17G 1G 8G11G27G22S27
  22752108.501     1092335.752       -1696.239          42.000  
  25324533.466     2092853.080       -4103.133          36.000  
  22427010.246     -196467.185          -8.124          37.000  
  22051401.953    -1716580.376        2019.126          41.000  
  20062063.659     1468700.357       -1194.918          46.000  
  25529273.695    -2527122.619        2705.373          40.000  
  20582163.804     -273567.925         238.459          45.000  
  21446305.217     3647517.205       -3113.012          45.000  
  20117474.696     -242300.541         130.340          40.000  
  24310055.146     3252078.280       -4368.377          45.000  
  21089801.841    -1577377.783         669.394          42.000  
  39901527.065      256947.7832       -701.380          34.000  
 19 10  5 10  8 56.0000000  0 12G32G10G14G 3G18G17G 1G 8G11G27G22S27
  22752431.644     1094032.416       -1697.300          45.000  
  25325313.491     2096956.223       -4104.359          38.000  
  22427011.677     -196458.812          -9.874          39.000  
  22051017.071    -1718599.125        2018.017          44.000  
  20062290.965     1469895.792       -1195.998          49.000  
  25528758.704    -2529827.887        2704.455          43.000  
  20582118.433     -273806.135         237.314          47.000  
  21446897.583     3650630.527       -3114.168          48.000  
  20117450.406     -242430.996         130.022          43.000  
  24310886.474     3256446.647       -4369.287          48.000  
  21089674.699    -1578046.413         667.752          44.000  
  39901660.141      257648.5472       -702.521          34.000  
 19 10  5 10  8 57.0000000  0 12G32G10G14G 3G18G17G 1G 8G11G27G22S27
  22752755.136     1095730.353       -1697.935          43.000  
  25326094.318     2101060.036       -4103.610          38.000  
  22427013.073     -196449.183         -10.119          37.000  
  22050632.642    -1720616.857        2017.571          42.000  
  20062518.551     1471092.304       -1196.903          47.000  
  25528243.678    -2532532.459        2704.449          41.000  
  20582073.237     -274043.335         236.940          45.000  
  21447489.354     3653744.970       -3114.699          46.000  
  20117425.871     -242560.277         128.613          41.000  
  24311718.256     3260815.790       -4368.920          46.000  
  21089548.010    -1578713.955         666.879          43.000  
  39901793.879      258349.8272       -702.436          34.000  
 19 10  5 10  8 58.0000000  0 12G32G10G14G 3G18G17G 1G 8G11G27G22S27
  22753078.873     1097429.563       -1699.335          45.000  
  25326875.948     2105164.470       -4104.851          38.000  
  22427014.853     -196438.307         -10.944          39.000  
  22050248.633    -1722633.594        2016.438          44.000  
  20062746.172     1472289.887       -1197.658          49.000  
  25527728.722    -2535236.354        2703.966          42.000  
  20582028.390     -274279.562         235.710          47.000  
  21448081.999     3656860.504       -3116.173          47.000  
  20117400.358     -242688.388         128.101          43.000  
  24312549.096     3265185.707       -4370.125          48.000  
  21089421.426    -1579380.382         666.226          45.000  
  39901926.955      259051.6502       -702.058          34.000  
 19 10  5 10  8 59.0000000  0 12G32G10G14G 3G18G17G 1G 8G11G27G22S27
  22753402.539     1099129.628       -1700.400          44.000  
  25327656.531     2109269.177       -4105.196          38.000  
  22427016.878     -196426.641         -12.606          38.000  
  22049865.252    -1724649.722        2015.888          43.000  
  20062974.246     1473488.139       -1198.732          48.000  
  25527214.325    -2537939.964        2704.218          41.000  
  20581983.020     -274515.199         235.372          46.000  
  21448674.817     3659976.740       -3116.571          46.000  
  20117376.277     -242815.739         126.704          42.000  
  24313380.634     3269556.011       -4370.519          47.000  
  21089294.424    -1580046.131         665.349          44.000  
  39902059.890      259753.7882       -701.607          34.000  
 19 10  5 10  9  0.0000000  0 12G32G10G14G 3G18G17G 1G 8G11G27G22S27
  22753725.019     1100830.757       -1701.860          44.000  
  25328437.359     2113374.275       -4105.971          38.000  
  22427019.321     -196413.894         -15.257          38.000  
  22049481.661    -1726665.036        2014.891          44.000  
  20063202.530     1474687.276       -1199.730          48.000  
  25526699.753    -2540643.117        2702.992          42.000  
  20581938.207     -274750.048         234.164          47.000  
  21449268.125     3663093.887       -3118.128          47.000  
  20117352.789     -242942.115         125.677          43.000  
  24314212.556     3273926.896       -4370.740          48.000  
  21089167.595    -1580710.975         663.920          45.000  
  39902193.559      260456.3622       -703.634          34.000  
 19 10  5 10  9  1.0000000  0 12G32G10G14G 3G18G17G 1G 8G11G27G22S27
  22754049.105     1102533.110       -1702.855          44.000  
  25329218.012     2117480.012       -4106.702          38.000  
  22427021.798     -196400.004         -14.046          37.000  
  22049098.384    -1728679.391        2013.840          43.000  
  20063430.883     1475887.428       -1201.102          48.000  
  25526185.181    -2543345.641        2701.752          41.000  
  20581893.465     -274983.957         232.733          46.000  
  21449861.467     3666212.077       -3118.944          46.000  
  20117328.952     -243067.376         125.480          42.000  
  24315044.407     3278298.515       -4372.276          47.000  
  21089041.326    -1581374.788         662.713          44.000  
  39902326.704      261159.5172       -702.836          34.000  
 19 10  5 10  9  2.0000000  0 12G32G10G14G 3G18G17G 1G 8G11G27G22S27
  22754372.597     1104236.745       -1704.163          44.000  
  25329999.153     2121586.416       -4107.129          38.000  
  22427023.823     -196384.822         -15.428          38.000  
  22048715.945    -1730692.702        2013.017          44.000  
  20063659.481     1477088.709       -1201.731          48.000  
  25525671.167    -2546047.470        2701.225          42.000  
  20581849.316     -275216.856         232.634          46.000  
  21450455.647     3669331.408       -3119.582          47.000  
  20117305.325     -243191.431         123.654          43.000  
  24315876.783     3282670.941       -4372.697          47.000  
  21088915.475    -1582037.477         662.081          45.000  
  39902461.001      261863.4192       -703.422          34.000  
 19 10  5 10  9  3.0000000  0 12G32G10G14G 3G18G17G 1G 8G11G27G22S27
  22754697.939     1105941.398       -1705.151          44.000  
  25330780.260     2125693.209       -4106.317          37.000  
  22427026.754     -196368.676         -17.059          37.000  
  22048332.599    -1732705.268        2012.286          43.000  
  20063888.533     1478290.809       -1202.424          49.000  
  25525156.874    -2548748.876        2700.631          41.000  
  20581805.342     -275449.035         231.792          46.000  
  21451049.443     3672451.587       -3120.738          48.000  
  20117282.290     -243314.604         122.540          42.000  
  24316708.390     3287043.887       -4373.397          47.000  
  21088790.008    -1582699.325         661.823          44.000  
  39902594.739      262567.7142       -706.356          34.000  
 19 10  5 10  9  4.0000000  0 12G32G10G14G 3G18G17G 1G 8G11G27G22S27
  22755021.780     1107647.281       -1706.338          41.000  
  25331561.541     2129800.586       -4108.229          34.000  
  22427029.372     -196351.318         -17.101          34.000  
  22047950.021    -1734716.850        2011.844          41.000  
  20064117.933     1479493.930       -1202.995          45.000  
  25524642.861    -2551449.618        2700.566          39.000  
  20581761.646     -275680.245         231.511          43.000  
  21451644.007     3675572.849       -3121.543          45.000  
  20117258.837     -243436.613         122.017          39.000  
  24317540.940     3291417.596       -4373.811          44.000  
  21088664.855    -1583360.102         660.559          43.000  
  39902729.246      263272.6102       -704.302          33.000  
 19 10  5 10  9  5.0000000  0 12G32G10G14G 3G18G17G 1G 8G11G27G22S27
  22755347.296     1109354.247       -1707.625          44.000  
  25332343.066     2133908.464       -4108.072          38.000  
  22427033.002     -196332.936         -18.327          37.000  
  22047567.616    -1736727.631        2010.606          44.000  
  20064347.578     1480697.937       -1204.716          49.000  
  25524129.091    -2554149.881        2700.044          41.000  
  20581717.846     -275910.651         230.142          46.000  
  21452238.640     3678695.025       -3122.815          49.000  
  20117236.012     -243557.649         120.366          43.000  
  24318373.630     3295791.899       -4374.811          48.000  
  21088539.492    -1584019.982         658.970          45.000  
  39902863.612      263977.9042       -706.021          33.000  
 19 10  5 10  9  6.0000000  0 12G32G10G14G 3G18G17G 1G 8G11G27G22S27
  22755672.638     1111062.483       -1708.865          45.000  
  25333124.313     2138016.983       -4106.801          37.000  
  22427036.387     -196313.298         -19.523          37.000  
  22047185.177    -1738737.382        2009.182          44.000  
  20064577.258     1481903.046       -1205.714          50.000  
  25523615.427    -2556849.479        2698.852          42.000  
  20581673.906     -276140.082         228.588          47.000  
  21452833.414     3681818.327       -3124.197          49.000  
  20117213.327     -243677.521         119.489          43.000  
  24319206.040     3300166.980       -4375.777          48.000  
  21088414.793    -1584678.760         658.165          46.000  
  39902998.572      264683.9222       -706.963          34.000  
 19 10  5 10  9  7.0000000  0 12G32G10G14G 3G18G17G 1G 8G11G27G22S27
  22755998.469     1112771.878       -1709.941          45.000  
  25333906.501     2142126.029       -4110.102          38.000  
  22427040.296     -196292.547         -21.044          37.000  
  22046802.843    -1740746.223        2008.244          44.000  
  20064806.414     1483109.136       -1206.818          50.000  
  25523101.971    -2559548.488        2698.898          41.000  
  20581630.316     -276368.604         228.275          47.000  
  21453428.117     3684942.660       -3124.762          49.000  
  20117190.502     -243796.331         117.655          43.000  
  24320038.450     3304542.758       -4376.401          48.000  
  21088289.221    -1585336.537         656.969          45.000  
  39903133.079      265390.4132       -708.019          34.000  
 19 10  5 10  9  8.0000000  0 12G32G10G14G 3G18G17G 1G 8G11G27G22S27
  22756323.880     1114482.330       -1711.500          44.000  
  25334687.608     2146235.511       -4109.268          37.000  
  22427044.274     -196270.784         -22.826          37.000  
  22046420.544    -1742754.279        2007.555          43.000  
  20065036.199     1484316.063       -1207.466          48.000  
  25522588.900    -2562247.065        2698.167          41.000  
  20581587.144     -276596.382         227.724          45.000  
  21454023.309     3688067.841       -3126.121          47.000  
  20117168.340     -243914.182         116.800          41.000  
  24320871.279     3308919.085       -4377.257          46.000  
  21088164.522    -1585993.450         656.348          44.000  
  39903267.131      266097.3572       -709.094          34.000  
 19 10  5 10  9  9.0000000  0 12G32G10G14G 3G18G17G 1G 8G11G27G22S27
  22756649.257     1116194.136       -1712.262          45.000  
  25335468.819     2150345.702       -4110.727          37.000  
  22427048.672     -196247.658         -23.710          37.000  
  22046038.035    -1744761.236        2006.422          44.000  
  20065265.460     1485524.183       -1208.821          49.000  
  25522075.061    -2564944.854        2697.436          41.000  
  20581543.239     -276823.067         226.059          46.000  
  21454617.838     3691194.238       -3126.565          49.000  
  20117145.969     -244030.757         116.507          43.000  
  24321703.480     3313296.293       -4377.481          47.000  
  21088040.241    -1586649.162         655.419          45.000  
  39903401.812      266805.0242       -707.214          34.000  
 19 10  5 10  9 10.0000000  0 12G32G10G14G 3G18G17G 1G 8G11G27G22S27
  22756974.738     1117907.068       -1713.524          42.000  
  25336249.996     2154456.471       -4109.821          35.000  
  22427054.012     -196223.459         -24.536          37.000  
  22045656.364    -1746767.337        2005.468          43.000  
  20065495.035     1486733.237       -1209.490          47.000  
  25521561.641    -2567642.105        2696.756          40.000  
  20581500.033     -277048.894         225.838          44.000  
  21455213.274     3694321.598       -3127.978          47.000  
  20117123.493     -244146.299         114.936          41.000  
  24322536.693     3317674.135       -4378.342          45.000  
  21087914.809    -1587303.935         654.259          43.000  
  39903537.016      267513.1712       -708.823          34.000  
 19 10  5 10  9 11.0000000  0 12G32G10G14G 3G18G17G 1G 8G11G27G22S27
  22757301.337     1119621.223       -1714.634          42.000  
  25337031.835     2158567.818       -4111.053          35.000  
  22427058.514     -196198.061         -25.842          36.000  
  22045274.693    -1748772.468        2004.902          42.000  
  20065725.273     1487943.316       -1210.562          47.000  
  25521048.011    -2570338.735        2696.998          39.000  
  20581457.070     -277273.778         224.948          44.000  
  21455808.362     3697449.992       -3128.785          47.000  
  20117101.436     -244260.734         114.291          41.000  
  24323369.487     3322052.707       -4378.902          45.000  
  21087790.424    -1587957.645         653.205          43.000  
  39903672.221      268221.9712       -707.272          33.000  
 19 10  5 10  9 12.0000000  0 12G32G10G14G 3G18G17G 1G 8G11G27G22S27
  22757627.202     1121336.158       -1715.159          44.000  
  25337813.186     2162679.284       -4110.700          36.000  
  22427063.993     -196171.947         -27.060          38.000  
  22044893.301    -1750777.065        2004.602          44.000  
  20065955.790     1489153.962       -1211.494          49.000  
  25520534.626    -2573035.166        2696.650          41.000  
  20581414.806     -277498.189         224.185          46.000  
  21456403.938     3700579.014       -3129.111          49.000  
  20117080.356     -244374.484         113.148          43.000  
  24324203.329     3326431.576       -4379.010          47.000  
  21087665.550    -1588610.758         653.088          44.000  
  39903807.006      268930.9912       -708.611          34.000  
 19 10  5 10  9 13.0000000  0 12G32G10G14G 3G18G17G 1G 8G11G27G22S27
  22757953.731     1123052.220       -1717.845          44.000  
  25338594.921     2166791.267       -4114.355          36.000  
  22427069.507     -196144.706         -28.000          38.000  
  22044512.048    -1752780.777        2003.190          44.000  
  20066186.343     1490365.564       -1212.883          49.000  
  25520021.799    -2575731.059        2695.584          41.000  
  20581372.437     -277721.713         222.877          46.000  
  21456999.234     3703709.048       -3130.935          49.000  
  20117058.683     -244487.177         111.445          43.000  
  24325036.053     3330811.110       -4380.529          47.000  
  21087541.061    -1589262.899         651.113          45.000  
  39903941.931      269640.5682       -708.606          34.000  
 19 10  5 10  9 14.0000000  0 12G32G10G14G 3G18G17G 1G 8G11G27G22S27
  22758280.852     1124769.676       -1718.622          44.000  
  25339376.830     2170904.052       -4113.080          37.000  
  22427074.847     -196116.096         -29.540          38.000  
  22044130.412    -1754783.371        2002.254          43.000  
  20066416.825     1491578.369       -1213.495          48.000  
  25519508.692    -2578426.156        2694.707          41.000  
  20581330.347     -277944.150         221.907          46.000  
  21457594.671     3706840.285       -3131.983          48.000  
  20117036.661     -244598.597         110.658          43.000  
  24325869.441     3335191.542       -4380.743          47.000  
  21087416.431    -1589913.842         650.539          44.000  
  39904077.205      270350.9272       -711.115          35.000  
 19 10  5 10  9 15.0000000  0 12G32G10G14G 3G18G17G 1G 8G11G27G22S27
  22758607.590     1126488.251       -1719.892          44.000  
  25340158.670     2175017.306       -4113.607          36.000  
  22427080.676     -196086.418         -30.381          38.000  
  22043749.160    -1756785.109        2000.594          43.000  
  20066647.726     1492792.120       -1214.444          48.000  
  25518995.970    -2581120.731        2693.949          41.000  
  20581288.431     -278165.728         220.715          46.000  
  21458190.631     3709972.486       -3132.635          48.000  
  20117016.105     -244708.986         109.786          42.000  
  24326703.701     3339572.607       -4381.112          46.000  
  21087292.918    -1590563.823         649.019          44.000  
  39904212.654      271061.8352       -711.835          34.000  
 19 10  5 10  9 16.0000000  0 12G32G10G14G 3G18G17G 1G 8G11G27G22S27
  22758934.817     1128208.065       -1720.180          44.000  
  25340940.300     2179131.189       -4114.173          36.000  
  22427087.551     -196055.534         -30.960          38.000  
  22043368.291    -1758785.857        1999.884          43.000  
  20066878.453     1494006.901       -1215.567          49.000  
  25518483.108    -2583814.647        2693.306          41.000  
  20581246.865     -278386.349         219.985          47.000  
  21458786.416     3713105.764       -3133.847          49.000  
  20116995.234     -244818.227         108.610          43.000  
  24327537.228     3343954.418       -4382.432          47.000  
  21087169.127    -1591212.745         648.088          44.000  
  39904349.045      271773.3242       -713.012          35.000  
 19 10  5 10  9 17.0000000  0 12G32G10G14G 3G18G17G 1G 8G11G27G22S27
  22759261.938     1129929.137       -1721.899          44.000  
  25341721.686     2183245.712       -4115.034          36.000  
  22427094.007     -196023.422         -32.679          38.000  
  22042987.842    -1760785.603        1998.996          43.000  
  20067109.843     1495222.750       -1216.405          49.000  
  25517970.526    -2586507.882        2692.941          41.000  
  20581205.298     -278605.996         218.719          47.000  
  21459382.760     3716240.128       -3134.749          48.000  
  20116974.503     -244926.320         107.775          43.000  
  24328371.139     3348337.010       -4383.165          46.000  
  21087046.103    -1591860.571         647.153          44.000  
  39904484.424      272485.3082       -713.227          34.000  
 19 10  5 10  9 18.0000000  0 12G32G10G14G 3G18G17G 1G 8G11G27G22S27
  22759589.828     1131651.498       -1723.884          44.000  
  25342503.944     2187360.928       -4115.226          36.000  
  22427100.115     -195990.039         -33.745          38.000  
  22042607.532    -1762784.320        1997.935          43.000  
  20067341.582     1496439.697       -1217.387          49.000  
  25517458.048    -2589200.449        2692.131          41.000  
  20581163.278     -278824.637         218.185          47.000  
  21459979.417     3719375.613       -3135.958          48.000  
  20116953.738     -245033.250         106.365          43.000  
  24329205.189     3352720.388       -4383.940          46.000  
  21086922.834    -1592507.290         646.105          45.000  
  39904619.698      273197.9492       -713.414          34.000  
 19 10  5 10  9 19.0000000  0 12G32G10G14G 3G18G17G 1G 8G11G27G22S27
  22759917.892     1133374.917       -1724.213          44.000  
  25343285.784     2191476.509       -4116.722          36.000  
  22427106.397     -195955.643         -33.969          38.000  
  22042227.571    -1764782.253        1997.459          43.000  
  20067573.391     1497657.495       -1218.263          49.000  
  25516945.604    -2591892.532        2692.495          41.000  
  20581121.956     -279042.492         217.578          47.000  
  21460575.971     3722511.986       -3137.172          48.000  
  20116933.914     -245139.210         105.406          43.000  
  24330039.763     3357104.344       -4384.393          47.000  
  21086799.845    -1593153.122         645.280          45.000  
  39904755.146      273910.9252       -713.792          34.000  
 19 10  5 10  9 20.0000000  0 12G32G10G14G 3G18G17G 1G 8G11G27G22S27
  22760245.572     1135099.252       -1724.907          44.000  
  25344068.112     2195592.405       -4116.508          36.000  
  22427112.400     -195920.377         -35.969          38.000  
  22041847.540    -1766779.505        1996.984          43.000  
  20067805.269     1498876.033       -1219.041          48.000  
  25516432.917    -2594584.305        2691.618          42.000  
  20581080.739     -279259.708         216.855          47.000  
  21461172.873     3725649.132       -3137.442          48.000  
  20116914.265     -245244.339         104.669          43.000  
  24330873.884     3361488.738       -4384.592          47.000  
  21086677.345    -1593798.205         644.051          45.000  
  39904891.153      274624.2592       -714.411          34.000  
 19 10  5 10  9 21.0000000  0 12G32G10G14G 3G18G17G 1G 8G11G27G22S27
  22760574.474     1136824.820       -1725.275          44.000  
  25344850.650     2199708.951       -4116.568          35.000  
  22427118.717     -195883.904         -37.505          38.000  
  22041467.544    -1768775.802        1995.961          43.000  
  20068037.427     1500095.578       -1219.878          48.000  
  25515920.648    -2597275.448        2690.949          41.000  
  20581039.033     -279475.994         216.161          46.000  
  21461769.880     3728787.331       -3138.200          48.000  
  20116894.197     -245348.347         103.976          43.000  
  24331708.004     3365873.853       -4385.204          46.000  
  21086555.123    -1594442.239         643.995          44.000  
  39905027.160      275338.2502       -714.484          34.000  
 19 10  5 10  9 22.0000000  0 12G32G10G14G 3G18G17G 1G 8G11G27G22S27
  22760903.411     1138551.515       -1726.914          43.000  
  25345633.536     2203825.980       -4118.502          35.000  
  22427126.221     -195846.289         -38.104          37.000  
  22041087.687    -1770771.204        1994.627          43.000  
  20068269.515     1501316.104       -1221.188          48.000  
  25515409.183    -2599966.012        2689.881          41.000  
  20580997.885     -279691.411         215.271          46.000  
  21462367.061     3731926.517       -3139.750          48.000  
  20116874.479     -245451.307         102.360          43.000  
  24332542.718     3370259.643       -4386.457          46.000  
  21086432.448    -1595085.292         642.798          44.000  
  39905162.958      276052.7872       -715.085          33.000  
 19 10  5 10  9 23.0000000  0 13G32G10G14G28G 3G18G17G 1G 8G11G27G22
                                S27
  22761232.243     1140279.487       -1728.393          43.000  
  25346417.051     2207943.682       -4118.670          35.000  
  22427133.654     -195807.437         -38.699          37.000  
  23477742.127      145712.2023       -403.972          27.000  
  22040707.517    -1772765.578        1994.005          43.000  
  20068501.987     1502537.718       -1222.008          48.000  
  25514896.705    -2602655.890        2689.731          41.000  
  20580957.086     -279905.809         213.972          46.000  
  21462964.207     3735066.838       -3140.766          47.000  
  20116855.702     -245553.079         101.010          42.000  
  24333377.257     3374646.228       -4386.741          47.000  
  21086310.297    -1595727.243         641.361          44.000  
  39905298.895      276767.9682       -714.243          34.000  
 19 10  5 10  9 24.0000000  0 13G32G10G14G28G 3G18G17G 1G 8G11G27G22
                                S27
  22761561.179     1142008.156       -1728.886          42.000  
  25347200.321     2212061.462       -4116.895          34.000  
  22427141.856     -195767.953         -40.015          37.000  
  23477824.701      146116.7033       -404.305          26.000  
  22040327.626    -1774759.533        1994.368          41.000  
  20068734.563     1503759.807       -1222.205          46.000  
  25514384.994    -2605345.723        2690.387          39.000  
  20580917.091     -280119.821         213.836          45.000  
  21463562.052     3738207.670       -3140.706          45.000  
  20116836.542     -245654.275         101.353          41.000  
  24334212.425     3379032.993       -4386.719          45.000  
  21086187.761    -1596368.701         641.030          43.000  
  39905435.181      277483.1012       -716.061          33.000  
 19 10  5 10  9 25.0000000  0 13G32G10G14G28G 3G18G17G 1G 8G11G27G22
                                S27
  22761890.011     1143737.747       -1730.031          42.000  
  25347983.801     2216179.503       -4117.897          34.000  
  22427149.115     -195727.546         -40.751          36.000  
  23477894.851      146522.1053       -405.952          26.000  
  22039947.700    -1776752.826        1992.436          41.000  
  20068967.768     1504982.652       -1223.684          47.000  
  25513873.179    -2608035.190        2689.328          40.000  
  20580876.327     -280333.160         213.075          46.000  
  21464160.176     3741349.291       -3142.578          47.000  
  20116816.788     -245754.639          99.542          41.000  
  24335047.662     3383420.223       -4387.467          45.000  
  21086066.378    -1597009.364         640.119          43.000  
  39905571.677      278198.5822       -716.313          33.000  
 19 10  5 10  9 26.0000000  0 13G32G10G14G28G 3G18G17G 1G 8G11G27G22
                                S27
  22762219.192     1145468.888       -1731.778          43.000  
  25348768.433     2220298.501       -4120.721          33.000  
  22427157.840     -195685.618         -42.309          36.000  
  23477972.190      146928.2403       -402.641          25.000  
  22039568.541    -1778744.801        1991.595          41.000  
  20069200.623     1506206.877       -1224.596          48.000  
  25513361.644    -2610723.699        2688.121          41.000  
  20580835.947     -280545.239         211.133          45.000  
  21464757.950     3744492.295       -3143.511          46.000  
  20116798.291     -245853.536          98.138          41.000  
  24335882.550     3387808.508       -4388.857          45.000  
  21085944.784    -1597648.650         638.907          43.000  
  39905708.207      278915.0252       -716.080          32.000  
 19 10  5 10  9 27.0000000  0 13G32G10G14G28G 3G18G17G 1G 8G11G27G22
                                S27
  22762548.792     1147201.389       -1733.037          42.000  
  25349552.541     2224418.288       -4120.598          33.000  
  22427166.740     -195642.374         -43.003          36.000  
  23478047.785      147337.2663       -401.056          25.000  
  22039190.256    -1780735.686        1990.903          41.000  
  20069434.177     1507432.256       -1225.899          47.000  
  25512850.283    -2613411.429        2687.387          41.000  
  20580795.916     -280756.214         210.742          46.000  
  21465356.702     3747636.488       -3144.549          47.000  
  20116779.829     -245951.174          97.155          41.000  
  24336717.927     3392197.670       -4389.485          45.000  
  21085824.378    -1598286.766         637.784          43.000  
  39905844.249      279632.2282       -717.748          33.000  
 19 10  5 10  9 28.0000000  0 12G32G10G14G 3G18G17G 1G 8G11G27G22S27
  22762878.810     1148934.898       -1734.533          42.000  
  25350335.951     2228538.346       -4121.166          33.000  
  22427174.942     -195598.182         -44.281          36.000  
  22038812.005    -1782725.842        1990.106          40.000  
  20069667.626     1508658.433       -1226.575          46.000  
  25512339.305    -2616098.750        2687.001          40.000  
  20580756.374     -280966.496         209.593          45.000  
  21465956.152     3750781.506       -3145.620          46.000  
  20116762.413     -246047.906          96.112          40.000  
  24337553.199     3396587.357       -4390.209          44.000  
  21085703.064    -1598924.030         636.751          43.000  
  39905981.024      280349.8122       -717.537          32.000  
 19 10  5 10  9 29.0000000  0 12G32G10G14G 3G18G17G 1G 8G11G27G22S27
  22763209.631     1150669.312       -1734.877          43.000  
  25351119.291     2232658.862       -4119.035          33.000  
  22427183.318     -195553.095         -45.722          36.000  
  22038433.579    -1784715.332        1988.308          42.000  
  20069901.215     1509885.348       -1227.912          48.000  
  25511828.293    -2618785.729        2686.967          40.000  
  20580716.413     -281176.129         208.392          46.000  
  21466554.694     3753927.277       -3146.473          47.000  
  20116744.614     -246143.818          94.816          41.000  
  24338388.715     3400977.465       -4390.375          45.000  
  21085582.343    -1599560.559         635.795          43.000  
  39906117.415      281067.5852       -719.947          33.000  
 19 10  5 10  9 30.0000000  0 12G32G10G14G 3G18G17G 1G 8G11G27G22S27
  22763540.313     1152405.168       -1736.604          45.000  
  25351902.701     2236780.5083      -4122.419          33.000  
  22427192.462     -195506.615         -47.088          38.000  
  22038055.433    -1786703.631        1987.824          44.000  
  20070135.641     1511113.517       -1228.526          49.000  
  25511317.351    -2621471.861        2686.083          41.000  
  20580676.836     -281384.576         208.280          47.000  
  21467154.249     3757074.339       -3147.416          49.000  
  20116726.536     -246238.390          94.833          44.000  
  24339224.895     3405368.534       -4391.299          47.000  
  21085462.007    -1600195.820         634.745          45.000  
  39906253.352      281786.2012       -718.588          36.000  
 19 10  5 10  9 31.0000000  0 13G32G10G14G28G 3G18G17G 1G 8G11G27G22
                                S27
  22763871.239     1154142.431       -1737.000          43.000  
  25352687.333     2240902.5122      -4122.308          35.000  
  22427201.047     -195458.787         -48.119          38.000  
  23478395.568      148974.9153       -412.664          25.000  
  22037678.020    -1788690.818        1986.040          42.000  
  20070369.614     1512342.870       -1230.016          48.000  
  25510806.199    -2624157.216        2684.850          41.000  
  20580637.468     -281591.964         206.902          45.000  
  21467754.467     3760222.628       -3148.627          48.000  
  20116708.213     -246331.696          92.556          42.000  
  24340060.167     3409760.476       -4392.656          45.000  
  21085340.832    -1600829.879         633.663          44.000  
  39906390.650      282505.5262       -719.088          35.000  
 19 10  5 10  9 32.0000000  0 12G32G10G14G 3G18G17G 1G 8G11G27G22S27
  22764202.619     1155880.564       -1738.624          44.000  
  25353471.336     2245024.7782      -4121.663          33.000  
  22427211.238     -195410.085         -49.366          38.000  
  22037301.130    -1790677.334        1986.562          43.000  
  20070603.935     1513572.941       -1230.386          49.000  
  25510295.012    -2626842.236        2685.134          41.000  
  20580598.135     -281798.689         206.173          46.000  
  21468354.091     3763371.662       -3149.440          49.000  
  20116690.449     -246424.176          91.998          43.000  
  24340895.963     3414152.864       -4392.495          46.000  
  21085219.833    -1601463.203         632.655          44.000  
  39906528.228      283225.2372       -719.810          35.000  
 19 10  5 10  9 33.0000000  0 13G32G10G14G28G 3G18G17G 1G 8G11G27G22
                                S27
  22764532.916     1157619.640       -1740.112          44.000  
  25354255.061     2249147.3882      -4121.882          34.000  
  22427220.417     -195360.483         -51.293          38.000  
  23478541.242      149801.1773       -416.204          26.000  
  22036924.345    -1792663.174        1985.470          44.000  
  20070837.559     1514803.753       -1231.198          49.000  
  25509783.791    -2629526.914        2684.317          41.000  
  20580558.593     -282004.766         205.481          47.000  
  21468953.401     3766521.494       -3150.348          49.000  
  20116672.684     -246515.811          91.369          43.000  
  24341731.688     3418545.697       -4393.116          46.000  
  21085099.670    -1602095.741         632.252          45.000  
  39906665.107      283945.3452       -722.718          35.000  
 19 10  5 10  9 34.0000000  0 13G32G10G14G28G 3G18G17G 1G 8G11G27G22
                                S27
  22764863.214     1159360.082       -1740.871          44.000  
  25355038.436     2253270.6752      -4123.524          33.000  
  22427229.910     -195309.548         -51.747          38.000  
  23478615.999      150214.4383       -419.496          26.000  
  22036546.897    -1794647.908        1984.509          44.000  
  20071071.880     1516035.729       -1232.571          49.000  
  25509273.232    -2632210.828        2684.196          42.000  
  20580519.609     -282209.770         204.686          46.000  
  21469553.096     3769672.497       -3151.586          49.000  
  20116655.234     -246606.202          90.234          42.000  
  24342567.938     3422939.395       -4393.609          46.000  
  21084978.880    -1602727.111         631.465          44.000  
  39906802.196      284666.1402       -721.016          35.000  
 19 10  5 10  9 35.0000000  0 12G32G10G14G 3G18G17G 1G 8G11G27G22S27
  22765194.454     1161101.911       -1742.307          44.000  
  25355822.404     2257394.7772      -4123.245          33.000  
  22427239.193     -195257.227         -52.798          38.000  
  22036170.077    -1796631.517        1983.035          44.000  
  20071306.341     1517268.922       -1233.742          49.000  
  25508762.290    -2634893.933        2682.533          42.000  
  20580480.346     -282413.663         203.344          46.000  
  21470152.755     3772824.746       -3152.967          48.000  
  20116638.238     -246695.280          88.709          42.000  
  24343404.117     3427334.007       -4394.994          46.000  
  21084858.718    -1603357.255         629.909          44.000  
  39906938.971      285387.9342       -722.260          34.000  
 19 10  5 10  9 36.0000000  0 13G32G10G14G28G 3G18G17G 1G 8G11G27G22
                                S27
  22765525.834     1162844.595       -1742.752          43.000  
  25356606.512     2261519.1252      -4122.886          33.000  
  22427249.559     -195204.120         -53.464          37.000  
  23478769.805      151050.3913       -415.242          25.000  
  22035792.454    -1798614.504        1983.205          43.000  
  20071541.047     1518502.768       -1233.796          48.000  
  25508251.836    -2637576.759        2682.738          41.000  
  20580441.642     -282616.969         203.210          45.000  
  21470752.205     3775977.696       -3153.100          48.000  
  20116620.578     -246783.624          88.230          42.000  
  24344240.611     3431728.989       -4394.589          46.000  
  21084738.416    -1603986.731         629.148          43.000  
  39907076.235      286110.0252       -721.288          34.000  
 19 10  5 10  9 37.0000000  0 13G32G10G14G28G 3G18G17G 1G 8G11G27G22
                                S27
  22765857.911     1164588.020       -1743.835          43.000  
  25357390.341     2265643.003       -4124.887          33.000  
  22427259.156     -195150.314         -54.392          37.000  
  23478843.166      151468.6693       -420.147          25.000  
  22035415.215    -1800597.073        1981.803          44.000  
  20071775.717     1519737.120       -1235.162          48.000  
  25507741.138    -2640259.468        2682.434          41.000  
  20580403.112     -282819.846         202.559          46.000  
  21471352.387     3779131.181       -3154.145          48.000  
  20116604.175     -246871.359          87.290          42.000  
  24345077.244     3436124.173       -4395.532          47.000  
  21084618.393    -1604615.669         628.932          44.000  
  39907213.847      286832.0532       -724.090          34.000  
 19 10  5 10  9 38.0000000  0 13G32G10G14G28G 3G18G17G 1G 8G11G27G22
                                S27
  22766190.303     1166332.555       -1745.481          44.000  
  25358175.043     2269768.4403      -4127.522          33.000  
  22427269.731     -195095.373         -56.477          37.000  
  23478918.586      151888.2783       -419.938          26.000  
  22035038.151    -1802578.702        1980.669          44.000  
  20072010.458     1520972.486       -1236.037          48.000  
  25507230.475    -2642941.581        2680.991          42.000  
  20580364.547     -283021.822         201.193          46.000  
  21471952.117     3782285.683       -3155.252          48.000  
  20116587.458     -246958.005          85.608          42.000  
  24345913.843     3440520.060       -4396.171          46.000  
  21084499.243    -1605243.596         626.623          45.000  
  39907350.971      287554.5822       -723.173          34.000  
 19 10  5 10  9 39.0000000  0 13G32G10G14G28G 3G18G17G 1G 8G11G27G22
                                S27
  22766521.997     1168078.374       -1745.989          43.000  
  25358960.233     2273894.0943      -4125.617          32.000  
  22427280.481     -195039.205         -56.254          37.000  
  23478996.448      152309.1853       -422.141          26.000  
  22034660.947    -1804559.350        1980.152          43.000  
  20072245.198     1522208.888       -1236.610          48.000  
  25506720.440    -2645623.071        2681.009          42.000  
  20580325.563     -283222.844         201.144          46.000  
  21472552.020     3785441.259       -3155.769          48.000  
  20116571.578     -247043.503          85.198          42.000  
  24346750.197     3444916.689       -4397.041          47.000  
  21084380.407    -1605870.450         626.899          44.000  
  39907488.374      288277.6932       -722.021          34.000  
 19 10  5 10  9 40.0000000  0 13G32G10G14G28G 3G18G17G 1G 8G11G27G22
                                S27
  22766854.493     1169825.179       -1747.338          44.000  
  25359745.597     2278020.0322      -4126.319          32.000  
  22427291.090     -194982.073         -57.491          36.000  
  23479076.161      152731.0373       -420.437          26.000  
  22034284.406    -1806539.266        1979.418          43.000  
  20072481.509     1523446.091       -1237.925          48.000  
  25506210.440    -2648304.127        2680.888          41.000  
  20580288.080     -283423.147         200.012          46.000  
  21473153.110     3788597.663       -3156.788          48.000  
  20116555.803     -247128.109          83.652          42.000  
  24347586.900     3449313.807       -4397.578          47.000  
  21084261.955    -1606496.488         625.790          44.000  
  39907626.126      289001.1362       -722.610          34.000  
 19 10  5 10  9 41.0000000  0 13G32G10G14G28G 3G18G17G 1G 8G11G27G22
                                S27
  22767187.618     1171573.197       -1748.743          44.000  
  25360530.962     2282146.6022      -4125.531          32.000  
  22427301.944     -194923.752         -58.840          37.000  
  23479157.304      153154.0623       -422.101          26.000  
  22033907.272    -1808518.221        1977.388          44.000  
  20072716.738     1524684.310       -1238.779          49.000  
  25505699.847    -2650984.547        2679.627          42.000  
  20580249.899     -283622.510         198.822          47.000  
  21473753.363     3791755.121       -3158.064          48.000  
  20116540.098     -247211.576          82.588          43.000  
  24348423.987     3453711.705       -4398.217          47.000  
  21084143.782    -1607121.478         624.372          46.000  
  39907764.401      289725.1922       -724.099          34.000  
 19 10  5 10  9 42.0000000  0 13G32G10G14G28G 3G18G17G 1G 8G11G27G22
                                S27
  22767519.975     1173322.300       -1749.564          44.000  
  25361317.373     2286273.6412      -4126.853          33.000  
  22427313.217     -194864.369         -58.732          37.000  
  23479235.656      153578.1143       -424.083          27.000  
  22033530.068    -1810496.341        1977.270          44.000  
  20072952.350     1525923.432       -1239.704          48.000  
  25505190.195    -2653664.479        2679.600          42.000  
  20580212.206     -283821.062         197.951          47.000  
  21474353.790     3794913.505       -3158.958          48.000  
  20116524.113     -247294.069          82.510          43.000  
  24349260.655     3458110.170       -4398.902          48.000  
  21084024.807    -1607745.552         623.472          46.000  
  39907901.944      290449.7852       -725.039          35.000  
 19 10  5 10  9 43.0000000  0 13G32G10G14G28G 3G18G17G 1G 8G11G27G22
                                S27
  22767853.065     1175072.503       -1750.792          44.000  
  25362103.680     2290401.1192      -4127.147          33.000  
  22427324.630     -194803.950         -61.523          37.000  
  23479315.264      154003.1703       -426.818          27.000  
  22033153.178    -1812473.604        1977.178          44.000  
  20073187.789     1527163.487       -1239.799          48.000  
  25504680.370    -2656343.887        2679.467          42.000  
  20580174.130     -284018.794         197.268          46.000  
  21474954.217     3798072.837       -3159.524          47.000  
  20116508.443     -247375.548          81.124          43.000  
  24350097.777     3462509.261       -4399.379          47.000  
  21083906.425    -1608368.695         622.839          45.000  
  39908039.731      291174.8822       -724.504          34.000  
 19 10  5 10  9 44.0000000  0 12G32G10G14G 3G18G17G 1G 8G11G27G22S27
  22768185.840     1176823.700       -1752.000          44.000  
  25362889.359     2294529.0082      -4126.008          33.000  
  22427335.833     -194742.519         -61.278          37.000  
  22032776.637    -1814450.141        1976.315          44.000  
  20073423.751     1528404.319       -1241.015          48.000  
  25504170.335    -2659022.910        2678.766          42.000  
  20580136.403     -284215.792         196.367          46.000  
  21475555.691     3801232.994       -3160.654          48.000  
  20116493.122     -247456.129          80.107          43.000  
  24350934.794     3466908.853       -4399.862          47.000  
  21083787.623    -1608990.996         622.043          45.000  
  39908177.797      291900.2912       -726.015          34.000  
 19 10  5 10  9 45.0000000  0 12G32G10G14G 3G18G17G 1G 8G11G27G22S27
  22768519.139     1178575.847       -1752.368          43.000  
  25363674.618     2298657.1992      -4128.438          32.000  
  22427348.781     -194680.219         -62.808          37.000  
  22032400.829    -1816426.002        1976.097          43.000  
  20073660.027     1529645.912       -1241.754          47.000  
  25503660.405    -2661701.564        2679.355          41.000  
  20580098.920     -284412.123         196.728          46.000  
  21476157.654     3804393.935       -3161.128          47.000  
  20116478.149     -247535.862          79.864          41.000  
  24351771.671     3471308.901       -4399.961          46.000  
  21083668.927    -1609612.547         621.207          44.000  
  39908316.561      292626.0252       -726.323          34.000  
 19 10  5 10  9 46.0000000  0 12G32G10G14G 3G18G17G 1G 8G11G27G22S27
  22768853.102     1180328.865       -1753.969          43.000  
  25364460.367     2302785.6612      -4126.824          32.000  
  22427361.310     -194617.033         -62.795          37.000  
  22032024.568    -1818401.211        1974.885          43.000  
  20073896.791     1530888.216       -1243.117          48.000  
  25503150.963    -2664379.915        2677.512          41.000  
  20580061.960     -284607.852         195.649          46.000  
  21476759.617     3807555.599       -3162.375          47.000  
  20116462.758     -247614.804          78.605          41.000  
  24352609.247     3475709.345       -4401.111          46.000  
  21083551.173    -1610233.364         620.453          44.000  
  39908454.697      293352.0082       -726.873          33.000  
 19 10  5 10  9 47.0000000  0 12G32G10G14G 3G18G17G 1G 8G11G27G22S27
  22769187.204     1182083.112       -1755.063          44.000  
  25365247.127     2306914.7132      -4128.611          31.000  
  22427373.734     -194552.673         -64.182          37.000  
  22031648.900    -1820375.467        1974.341          44.000  
  20074133.870     1532131.531       -1243.438          48.000  
  25502641.452    -2667057.628        2678.561          42.000  
  20580024.966     -284802.657         194.800          46.000  
  21477362.522     3810718.321       -3163.063          48.000  
  20116448.309     -247692.629          77.536          42.000  
  24353446.997     3480110.530       -4401.785          47.000  
  21083433.035    -1610853.151         619.635          45.000  
  39908593.252      294078.5302       -728.238          34.000  
 19 10  5 10  9 48.0000000  0 12G32G10G14G 3G18G17G 1G 8G11G27G22S27
  22769521.410     1183838.451       -1755.854          43.000  
  25366034.167     2311044.2152      -4129.335          32.000  
  22427386.159     -194487.225         -65.843          39.000  
  22031273.371    -1822348.881        1973.110          44.000  
  20074370.844     1533375.750       -1244.569          48.000  
  25502131.766    -2669734.853        2676.936          42.000  
  20579988.215     -284996.635         193.757          46.000  
  21477964.484     3813881.974       -3164.033          48.000  
  20116433.965     -247769.439          77.190          43.000  
  24354284.712     3484512.316       -4402.171          47.000  
  21083315.455    -1611472.004         618.551          45.000  
  39908732.121      294805.5582       -727.619          34.000  
 19 10  5 10  9 49.0000000  0 12G32G10G14G 3G18G17G 1G 8G11G27G22S27
  22769855.512     1185594.759       -1757.566          43.000  
  25366820.718     2315173.606       -4129.475          31.000  
  22427399.177     -194420.850         -66.420          37.000  
  22030898.750    -1824321.582        1971.916          43.000  
  20074607.643     1534620.782       -1245.362          48.000  
  25501622.813    -2672411.676        2675.794          41.000  
  20579951.919     -285189.905         193.323          46.000  
  21478567.180     3817046.456       -3164.607          47.000  
  20116419.586     -247845.404          74.944          42.000  
  24355123.195     3488914.596       -4402.552          46.000  
  21083197.841    -1612090.051         617.276          44.000  
  39908870.920      295533.0132       -727.935          34.000  
 19 10  5 10  9 50.0000000  0 12G32G10G14G 3G18G17G 1G 8G11G27G22S27
  22770189.998     1187352.101       -1757.971          43.000  
  25367607.479     2319303.910       -4131.242          31.000  
  22427411.252     -194353.499         -68.835          37.000  
  22030523.500    -1826293.508        1971.451          43.000  
  20074845.385     1535866.619       -1246.343          48.000  
  25501113.580    -2675088.060        2676.105          40.000  
  20579915.378     -285382.444         192.414          45.000  
  21479169.247     3820211.787       -3165.902          47.000  
  20116405.173     -247920.403          74.817          41.000  
  24355960.701     3493317.419       -4402.937          46.000  
  21083080.261    -1612707.249         616.543          44.000  
  39909009.928      296260.8002       -729.377          33.000  
 19 10  5 10  9 51.0000000  0 12G32G10G14G 3G18G17G 1G 8G11G27G22S27
  22770524.204     1189110.820       -1759.172          44.000  
  25368393.820     2323434.892       -4132.435          32.000  
  22427424.375     -194284.776         -68.881          37.000  
  22030148.355    -1828264.292        1970.321          44.000  
  20075082.917     1537113.664       -1247.632          48.000  
  25500604.243    -2677763.641        2676.158          41.000  
  20579879.501     -285573.872         190.900          46.000  
  21479771.943     3823378.333       -3167.059          48.000  
  20116391.143     -247994.122          73.425          42.000  
  24356799.114     3497721.127       -4403.895          47.000  
  21082963.554    -1613323.240         615.042          45.000  
  39909149.041      296989.3082       -727.283          34.000  
 19 10  5 10  9 52.0000000  0 12G32G10G14G 3G18G17G 1G 8G11G27G22S27
  22770859.283     1190870.788       -1760.645          43.000  
  25369181.035     2327566.581       -4131.932          32.000  
  22427438.126     -194214.836         -70.151          39.000  
  22029773.246    -1830234.096        1969.520          44.000  
  20075320.171     1538361.780       -1248.792          48.000  
  25500095.255    -2680438.569        2674.792          42.000  
  20579843.902     -285764.318         189.770          46.000  
  21480373.557     3826545.985       -3168.421          47.000  
  20116377.462     -248066.696          71.852          42.000  
  24357636.969     3502125.599       -4405.031          47.000  
  21082846.149    -1613938.131         614.299          45.000  
  39909287.247      297718.5012       -729.991          34.000  
 19 10  5 10  9 53.0000000  0 12G32G10G14G 3G18G17G 1G 8G11G27G22S27
  22771193.874     1192631.578       -1760.634          43.000  
  25369967.795     2331698.484       -4129.661          32.000  
  22427451.911     -194144.102         -70.807          38.000  
  22029399.008    -1832203.339        1969.114          44.000  
  20075557.912     1539610.525       -1248.704          49.000  
  25499586.931    -2683113.265        2675.631          42.000  
  20579807.466     -285954.235         189.836          47.000  
  21480976.217     3829714.279       -3168.424          48.000  
  20116363.676     -248138.530          72.011          42.000  
  24358475.068     3506530.409       -4404.965          47.000  
  21082729.407    -1614552.405         613.577          45.000  
  39909425.662      298447.9102       -729.739          34.000  
 19 10  5 10  9 54.0000000  0 12G32G10G14G 3G18G17G 1G 8G11G27G22S27
  22771529.127     1194393.101       -1762.016          42.000  
  25370755.254     2335830.445       -4137.028          32.000  
  22427465.139     -194072.635         -71.760          36.000  
  22029025.120    -1834172.078        1968.072          43.000  
  20075795.689     1540859.846       -1249.628          47.000  
  25499077.733    -2685787.809        2673.638          40.000  
  20579771.379     -286143.656         188.986          45.000  
  21481579.960     3832883.177       -3169.225          47.000  
  20116349.960     -248209.708          71.422          41.000  
  24359313.097     3510935.480       -4405.300          46.000  
  21082612.735    -1615166.064         613.884          44.000  
  39909564.217      299177.5232       -728.537          34.000  
 19 10  5 10  9 55.0000000  0 12G32G10G14G 3G18G17G 1G 8G11G27G22S27
  22771864.590     1196155.894       -1762.823          43.000  
  25371542.363     2339963.6013      -4132.380          32.000  
  22427478.855     -193999.979         -72.764          37.000  
  22028650.533    -1836139.834        1967.461          43.000  
  20076033.954     1542110.171       -1250.976          48.000  
  25498568.920    -2688461.676        2673.349          41.000  
  20579735.117     -286332.142         187.434          46.000  
  21482183.040     3836053.137       -3170.500          47.000  
  20116336.663     -248279.756          69.001          42.000  
  24360151.754     3515341.317       -4405.964          46.000  
  21082495.784    -1615778.681         611.556          44.000  
  39909703.016      299907.7112       -730.204          34.000  
 19 10  5 10  9 56.0000000  0 12G32G10G14G 3G18G17G 1G 8G11G27G22S27
  22772200.123     1197919.885       -1764.937          43.000  
  25372330.206     2344096.7893      -4131.893          33.000  
  22427492.640     -193926.127         -74.109          37.000  
  22028276.191    -1838106.625        1966.739          44.000  
  20076271.940     1543361.536       -1251.777          48.000  
  25498060.141    -2691134.934        2673.400          41.000  
  20579699.798     -286519.656         186.968          46.000  
  21482786.259     3839224.134       -3171.589          47.000  
  20116323.436     -248348.646          68.360          42.000  
  24360990.866     3519747.863       -4406.948          47.000  
  21082379.565    -1616390.232         611.612          44.000  
  39909841.536      300638.4532       -730.539          34.000  
 19 10  5 10  9 57.0000000  0 12G32G10G14G 3G18G17G 1G 8G11G27G22S27
  22772535.726     1199684.798       -1766.156          43.000  
  25373117.769     2348230.3452      -4133.239          32.000  
  22427506.426     -193851.384         -75.411          36.000  
  22027902.128    -1840072.731        1965.578          44.000  
  20076510.066     1544613.652       -1252.292          48.000  
  25497551.467    -2693807.823        2673.079          41.000  
  20579664.304     -286706.526         186.534          46.000  
  21483389.617     3842395.916       -3172.151          48.000  
  20116310.488     -248416.731          67.729          42.000  
  24361829.209     3524154.867       -4406.823          47.000  
  21082262.963    -1617001.017         610.470          44.000  
  39909980.300      301369.5002       -730.595          34.000  
 19 10  5 10  9 58.0000000  0 12G32G10G14G 3G18G17G 1G 8G11G27G22S27
  22772872.341     1201450.620       -1766.988          43.000  
  25373905.751     2352364.0812      -4134.477          32.000  
  22427519.723     -193775.736         -76.748          36.000  
  22027528.345    -1842038.211        1964.839          44.000  
  20076748.610     1545866.476       -1253.609          48.000  
  25497043.317    -2696480.414        2672.447          42.000  
  20579628.811     -286892.790         185.480          46.000  
  21483993.953     3845568.419       -3173.386          47.000  
  20116297.609     -248484.007          66.151          42.000  
  24362668.250     3528562.275       -4408.343          47.000  
  21082146.640    -1617611.096         609.663          44.000  
  39910119.308      302100.8482       -730.615          34.000  
 19 10  5 10  9 59.0000000  0 12G32G10G14G 3G18G17G 1G 8G11G27G22S27
  22773209.095     1203217.754       -1767.755          43.000  
  25374693.838     2356498.5862      -4135.015          33.000  
  22427533.578     -193698.813         -76.442          36.000  
  22027155.120    -1844002.636        1963.917          44.000  
  20076987.399     1547120.400       -1254.349          49.000  
  25496534.922    -2699152.281        2671.465          41.000  
  20579593.003     -287078.009         184.855          46.000  
  21484597.487     3848742.067       -3173.849          47.000  
  20116285.708     -248550.065          65.583          42.000  
  24363507.187     3532970.503       -4408.851          47.000  
  21082030.805    -1618220.016         608.767          44.000  
  39910258.456      302832.7922       -733.086          34.000  
 19 10  5 10 10  0.0000000  0 12G32G10G14G 3G18G17G 1G 8G11G27G22S27
  22773545.779     1204986.085       -1769.406          42.000  
  25375481.680     2360633.6772      -4136.189          33.000  
  22427548.341     -193620.739         -79.705          36.000  
  22026781.894    -1845966.101        1962.450          43.000  
  20077226.258     1548375.355       -1255.917          48.000  
  25496026.772    -2701823.531        2671.080          41.000  
  20579557.998     -287262.295         183.305          46.000  
  21485201.962     3851916.765       -3175.400          47.000  
  20116273.738     -248615.001          63.516          42.000  
  24364346.054     3537379.464       -4409.275          47.000  
  21081915.145    -1618827.920         607.730          43.000  
  39910398.616      303565.3752       -732.478          34.000  
 19 10  5 10 10  1.0000000  0 12G32G10G14G 3G18G17G 1G 8G11G27G22S27
  22773882.743     1206755.536       -1769.709          44.000  
  25376269.976     2364769.2402      -4134.853          33.000  
  22427563.349     -193541.558         -80.188          36.000  
  22026408.320    -1847928.691        1962.431          44.000  
  20077465.116     1549631.250       -1256.319          49.000  
  25495518.657    -2704494.253        2669.939          42.000  
  20579523.307     -287445.736         182.752          47.000  
  21485806.159     3855092.416       -3175.885          48.000  
  20116261.906     -248678.933          63.722          43.000  
  24365185.549     3541789.041       -4409.795          48.000  
  21081799.241    -1619434.871         607.221          44.000  
  39910537.730      304298.4182       -733.940          34.000  
 19 10  5 10 10  2.0000000  0 12G32G10G14G 3G18G17G 1G 8G11G27G22S27
  22774219.462     1208525.812       -1770.741          44.000  
  25377057.888     2368904.9742      -4135.503          34.000  
  22427578.530     -193461.593         -80.365          36.000  
  22026035.723    -1849890.721        1961.389          44.000  
  20077704.359     1550887.792       -1256.584          49.000  
  25495010.227    -2707164.712        2670.299          42.000  
  20579488.616     -287628.615         182.792          47.000  
  21486410.320     3858268.748       -3176.372          48.000  
  20116250.424     -248742.128          62.695          43.000  
  24366025.044     3546198.961       -4410.259          48.000  
  21081683.895    -1620041.168         606.313          44.000  
  39910677.087      305031.7822       -733.519          34.000  
 19 10  5 10 10  3.0000000  0 12G32G10G14G 3G18G17G 1G 8G11G27G22S27
  22774555.833     1210297.251       -1771.272          42.000  
  25377845.103     2373041.2712      -4137.414          34.000  
  22427594.724     -193380.498         -80.978          36.000  
  22025661.555    -1851851.866        1960.383          44.000  
  20077942.868     1552145.268       -1257.916          48.000  
  25494502.775    -2709834.622        2669.976          42.000  
  20579454.169     -287810.649         180.813          46.000  
  21487014.516     3861446.053       -3177.669          47.000  
  20116238.942     -248804.266          61.035          43.000  
  24366863.806     3550609.547       -4410.706          47.000  
  21081568.479    -1620646.483         605.136          44.000  
  39910816.828      305765.6892       -733.604          34.000  
 19 10  5 10 10  4.0000000  0 12G32G10G14G 3G18G17G 1G 8G11G27G22S27
  22774893.460     1212069.862       -1773.508          44.000  
  25378632.736     2377178.1312      -4137.892          34.000  
  22427610.115     -193298.261         -83.783          37.000  
  22025288.365    -1853812.045        1960.069          45.000  
  20078182.600     1553403.758       -1259.077          49.000  
  25493994.031    -2712503.901        2668.510          42.000  
  20579419.094     -287991.730         180.717          47.000  
  21487619.131     3864624.397       -3178.601          48.000  
  20116227.425     -248865.282          60.518          43.000  
  24367703.162     3555020.844       -4411.865          48.000  
  21081453.447    -1621250.754         604.255          45.000  
  39910956.325      306500.0902       -735.103          34.000  
 19 10  5 10 10  5.0000000  0 12G32G10G14G 3G18G17G 1G 8G11G27G22S27
  22775231.226     1213843.617       -1774.562          43.000  
  25379421.346     2381315.5442      -4137.431          33.000  
  22427626.588     -193214.876         -84.168          36.000  
  22024915.175    -1855771.352        1959.253          43.000  
  20078422.505     1554663.200       -1259.869          47.000  
  25493486.683    -2715172.651        2668.167          41.000  
  20579385.136     -288171.986         179.575          45.000  
  21488224.479     3867803.712       -3179.546          46.000  
  20116215.209     -248925.269          59.369          42.000  
  24368542.552     3559432.791       -4411.804          46.000  
  21081338.555    -1621854.062         603.440          43.000  
  39911096.171      307235.1232       -735.102          33.000  
 19 10  5 10 10  6.0000000  0 12G32G10G14G 3G18G17G 1G 8G11G27G22S27
  22775568.155     1215618.179       -1774.816          43.000  
  25380209.467     2385453.1052      -4138.112          34.000  
  22427642.782     -193130.729         -84.332          38.000  
  22024542.019    -1857730.125        1958.280          44.000  
  20078662.446     1555923.274       -1260.105          49.000  
  25492978.603    -2717841.183        2668.404          41.000  
  20579351.422     -288351.699         179.286          46.000  
  21488829.130     3870983.670       -3180.001          47.000  
  20116203.692     -248984.542          58.793          43.000  
  24369382.187     3563845.048       -4412.107          47.000  
  21081224.256    -1622456.730         602.900          45.000  
  39911235.634      307970.2412       -735.532          33.000  
 19 10  5 10 10  7.0000000  0 12G32G10G14G 3G18G17G 1G 8G11G27G22S27
  22775906.026     1217393.587       -1776.587          43.000  
  25380998.008     2389590.357       -4138.826          34.000  
  22427659.569     -193045.784         -85.862          38.000  
  22024169.492    -1859688.309        1957.072          44.000  
  20078902.351     1557183.974       -1261.348          48.000  
  25492470.627    -2720509.467        2667.349          42.000  
  20579317.115     -288530.849         178.272          46.000  
  21489435.525     3874164.315       -3181.389          48.000  
  20116192.803     -249043.084          58.057          42.000  
  24370221.647     3568257.652       -4412.742          47.000  
  21081110.306    -1623058.737         601.617          44.000  
  39911375.759      308705.5652       -737.351          33.000  
 19 10  5 10 10  8.0000000  0 12G32G10G14G 3G18G17G 1G 8G11G27G22S27
  22776243.897     1219170.286       -1777.362          43.000  
  25381785.885     2393728.826       -4139.060          34.000  
  22427676.147     -192959.565         -86.343          38.000  
  22023797.174    -1861645.432        1956.424          44.000  
  20079141.978     1558445.803       -1261.955          48.000  
  25491963.419    -2723177.024        2667.320          41.000  
  20579283.052     -288708.974         178.601          46.000  
  21490041.675     3877346.088       -3182.021          48.000  
  20116181.426     -249100.404          56.513          42.000  
  24371061.631     3572671.067       -4413.532          46.000  
  21080995.833    -1623659.612         600.503          44.000  
  39911515.779      309441.6012       -734.544          34.000  
 19 10  5 10 10  9.0000000  0 12G32G10G14G 3G18G17G 1G 8G11G27G22S27
  22776582.257     1220948.219       -1778.943          42.000  
  25382574.146     2397867.939       -4138.333          34.000  
  22427693.248     -192872.133         -87.790          38.000  
  22023425.415    -1863601.574        1955.543          43.000  
  20079383.000     1559708.674       -1263.470          48.000  
  25491456.630    -2725843.940        2666.378          40.000  
  20579249.303     -288886.140         176.970          45.000  
  21490647.547     3880528.952       -3183.051          47.000  
  20116171.026     -249156.582          55.667          42.000  
  24371901.789     3577085.253       -4413.914          45.000  
  21080881.604    -1624259.416         599.629          44.000  
  39911655.835      310178.3002       -736.738          33.000  
 19 10  5 10 10 10.0000000  0 13G32G10G14G28G 3G18G17G 1G 8G11G27G22
                                S27
  22776920.582     1222727.026       -1778.708          42.000  
  25383362.478     2402007.202       -4141.009          34.000  
  22427711.222     -192783.849         -88.371          37.000  
  23481603.825      165835.2823       -452.669          26.000  
  22023053.900    -1865557.110        1955.638          43.000  
  20079623.639     1560972.220       -1263.638          48.000  
  25490949.387    -2728510.570        2666.593          40.000  
  20579215.974     -289062.724         176.213          46.000  
  21491253.837     3883712.500       -3183.606          47.000  
  20116160.521     -249211.988          55.028          42.000  
  24372741.144     3581499.804       -4414.421          46.000  
  21080767.375    -1624858.522         599.281          44.000  
  39911796.344      310915.2672       -735.168          33.000  
 19 10  5 10 10 11.0000000  0 13G32G10G14G28G 3G18G17G 1G 8G11G27G22
                                S27
  22777259.849     1224506.892       -1780.454          42.000  
  25384150.355     2406146.954       -4143.441          34.000  
  22427729.021     -192694.559         -90.178          38.000  
  23481686.609      166288.5843       -454.878          25.000  
  22022682.280    -1867511.849        1953.709          45.000  
  20079864.591     1562236.612       -1265.468          48.000  
  25490442.214    -2731176.747        2665.382          41.000  
  20579182.609     -289238.531         174.803          47.000  
  21491860.302     3886896.954       -3185.311          48.000  
  20116150.364     -249266.451          53.670          42.000  
  24373581.477     3585914.905       -4416.482          46.000  
  21080653.809    -1625456.761         597.677          45.000  
  39911936.888      311652.6022       -736.859          34.000  
 19 10  5 10 10 12.0000000  0 12G32G10G14G 3G18G17G 1G 8G11G27G22S27
  22777598.208     1226287.975       -1781.494          42.000  
  25384938.616     2410287.333       -4139.987          34.000  
  22427746.087     -192604.061         -89.356          37.000  
  22022310.241    -1869465.595        1953.816          44.000  
  20080105.265     1563502.075       -1265.635          48.000  
  25489934.657    -2733842.268        2665.524          41.000  
  20579149.279     -289413.370         174.582          46.000  
  21492466.209     3890082.476       -3185.555          48.000  
  20116140.104     -249319.772          52.850          42.000  
  24374421.705     3590330.780       -4415.936          46.000  
  21080539.789    -1626053.931         596.973          44.000  
  39912077.258      312390.4592       -738.600          33.000  
 19 10  5 10 10 13.0000000  0 12G32G10G14G 3G18G17G 1G 8G11G27G22S27
  22777937.860     1228070.251       -1782.723          43.000  
  25385727.226     2414428.227       -4141.961          34.000  
  22427763.154     -192512.404         -92.586          37.000  
  22021938.900    -1871418.400        1952.111          44.000  
  20080346.531     1564768.525       -1266.746          48.000  
  25489427.309    -2736507.172        2664.622          41.000  
  20579115.949     -289587.274         173.706          47.000  
  21493072.464     3893269.043       -3187.333          48.000  
  20116130.122     -249371.982          51.986          43.000  
  24375261.863     3594747.347       -4416.719          45.000  
  21080426.607    -1626650.078         595.685          44.000  
  39912218.325      313128.9492       -737.617          33.000  
 19 10  5 10 10 14.0000000  0 12G32G10G14G 3G18G17G 1G 8G11G27G22S27
  22778277.092     1229853.561       -1784.020          42.000  
  25386515.522     2418569.555       -4140.382          34.000  
  22427780.708     -192419.690         -92.105          36.000  
  22021567.316    -1873370.433        1951.784          43.000  
  20080587.484     1566035.811       -1267.707          47.000  
  25488919.961    -2739171.646        2663.994          40.000  
  20579083.142     -289760.450         172.355          46.000  
  21493679.383     3896456.481       -3187.733          47.000  
  20116120.629     -249423.261          51.108          42.000  
  24376102.056     3599164.443       -4417.388          44.000  
  21080313.599    -1627245.365         595.022          43.000  
  39912359.044      313867.8182       -739.854          33.000  
 19 10  5 10 10 15.0000000  0 12G32G10G14G 3G18G17G 1G 8G11G27G22S27
  22778616.813     1231637.826       -1785.103          42.000  
  25387303.086     2422711.250       -4141.747          34.000  
  22427798.194     -192326.116         -93.344          36.000  
  22021196.498    -1875321.765        1951.125          43.000  
  20080829.239     1567303.883       -1268.266          48.000  
  25488413.696    -2741835.735        2664.047          40.000  
  20579050.615     -289932.938         171.850          46.000  
  21494285.708     3899644.719       -3188.375          48.000  
  20116111.520     -249473.685          50.032          42.000  
  24376943.122     3603582.035       -4417.536          44.000  
  21080200.347    -1627839.865         593.860          43.000  
  39912499.692      314607.1392       -739.887          32.000  
 19 10  5 10 10 16.0000000  0 12G32G10G14G 3G18G17G 1G 8G11G27G22S27
  22778956.568     1233423.164       -1785.013          41.000  
  25388091.417     2426853.357       -4141.188          33.000  
  22427815.958     -192231.486         -95.207          35.000  
  22020824.739    -1877272.283        1949.881          41.000  
  20081070.262     1568572.828       -1269.514          46.000  
  25487907.011    -2744499.363        2663.213          39.000  
  20579017.704     -290104.634         170.823          44.000  
  21494892.696     3902833.839       -3190.069          45.000  
  20116102.446     -249523.128          49.058          40.000  
  24377783.699     3608000.175       -4418.750          42.000  
  21080087.409    -1628433.479         593.204          41.000  
  39912640.411      315346.8682       -741.471          32.000  
 19 10  5 10 10 17.0000000  0 12G32G10G14G 3G18G17G 1G 8G11G27G22S27
  22779296.743     1235209.836       -1786.825          44.000  
  25388880.201     2430996.194       -4143.325          36.000  
  22427834.176     -192135.533         -97.022          37.000  
  22020453.084    -1879221.722        1948.727          43.000  
  20081311.947     1569842.931       -1270.564          48.000  
  25487400.292    -2747162.212        2662.400          42.000  
  20578985.945     -290275.254         169.948          46.000  
  21495499.929     3906024.165       -3190.530          47.000  
  20116093.512     -249571.313          47.522          42.000  
  24378625.044     3612419.188       -4418.796          45.000  
  21079974.576    -1629025.910         592.211          44.000  
  39912782.142      316087.4152       -741.132          33.000  
 19 10  5 10 10 18.0000000  0 12G32G10G14G 3G18G17G 1G 8G11G27G22S27
  22779636.708     1236997.541       -1787.976          45.000  
  25389669.196     2435139.437       -4143.430          36.000  
  22427852.429     -192038.573         -98.867          37.000  
  22020081.639    -1881170.370        1948.408          44.000  
  20081553.842     1571113.869       -1271.223          49.000  
  25486893.503    -2749824.609        2662.010          42.000  
  20578953.418     -290445.143         169.462          47.000  
  21496106.917     3909215.328       -3191.790          49.000  
  20116084.682     -249618.573          46.527          43.000  
  24379466.179     3616838.738       -4420.360          46.000  
  21079861.953    -1629617.492         591.299          44.000  
  39912922.930      316828.2882       -742.160          34.000  
