     2.11           OBSERVATION DATA    M (MIXED)           RINEX VERSION / TYPE
RTKCONV 2.4.2       SAT                 20191005 114207 UTC PGM / RUN BY / DATE 
log: C:\Users\arnau\Desktop\u-center\COM3_191005_110113_pe  COMMENT             
format: u-blox                                              COMMENT             
Example                                                     COMMENT             
                                                            MARKER NAME         
                                                            MARKER NUMBER       
ASNAT               ENAC                                    OBSERVER / AGENCY   
                                                            REC # / TYPE / VERS 
                                                            ANT # / TYPE        
  4627628.3793   119928.1791  4373213.2430                  APPROX POSITION XYZ 
        0.0000        0.0000        0.0000                  ANTENNA: DELTA H/E/N
     1     1                                                WAVELENGTH FACT L1/2
     4    C1    L1    D1    S1                              # / TYPES OF OBSERV 
  2019    10     5    11     1   37.0000000     GPS         TIME OF FIRST OBS   
  2019    10     5    11    42    3.0000000     GPS         TIME OF LAST OBS    
                                                            END OF HEADER       
 19 10  5 11  1 37.0000000  0 12G 1G22G 3G18G23G28G32G17G 8G19G11G14
  20352048.282      190630.194        -849.864          51.000  
  20676287.393      136608.628        -613.428          48.000  
  20781836.012     -189429.748         819.185          50.000  
  20754711.777      550788.356       -2436.350          49.000  
  23905519.882     -629108.187        2790.001          45.000  
  23789284.051      437904.525       -1946.624          43.000  
  23877482.303      739671.288       -3272.294          41.000  
  23574016.176     -524042.743        2311.305          44.000  
  23257077.189      874317.412       -4120.809          36.000  
  24829307.954     -694221.080        3080.731          46.000  
  20141419.652      354609.900       -1594.572          43.000  
  22574495.205      405406.997       -1815.545          46.000  
 19 10  5 11  1 38.0000000  0 12G 1G22G 3G18G23G28G32G17G 8G19G11G14
  20352209.732      191479.637        -849.369          50.000  
  20676404.170      137221.586        -612.939          48.000  
  20781679.763     -190248.881         819.286          49.000  
  20755175.255      553224.562       -2436.139          49.000  
  23904987.859     -631898.559        2790.288          45.000  
  23789654.449      439851.124       -1946.490          42.000  
  23878105.345      742943.365       -3271.651          41.000  
  23573575.872     -526354.639        2312.291          43.000  
  23257860.739      878437.584       -4120.453          36.000  
  24828721.801     -697302.127        3081.190          46.000  
  20141722.832      356204.596       -1594.744          42.000  
  22574840.510      407222.437       -1815.005          46.000  
 19 10  5 11  1 39.0000000  0 12G 1G22G 3G18G23G28G32G17G 8G19G11G14
  20352371.495      192329.164        -850.155          47.000  
  20676520.981      137834.633        -613.632          45.000  
  20781523.548     -191067.909         818.578          47.000  
  20755638.908      555660.854       -2436.751          46.000  
  23904456.954     -634689.104        2791.036          42.000  
  23790024.673      441797.824       -1946.740          40.000  
  23878728.109      746215.524       -3273.051          39.000  
  23573135.463     -528666.582        2311.579          40.000  
  23258644.847      882557.702       -4120.848          33.000  
  24828135.893     -700383.291        3080.940          44.000  
  20142026.082      357799.555       -1595.975          40.000  
  22575186.408      409038.119       -1816.298          43.000  
 19 10  5 11  1 40.0000000  0 12G 1G22G 3G18G23G28G32G17G 8G19G11G14
  20352533.363      193179.048        -850.630          48.000  
  20676638.282      138448.025        -614.054          46.000  
  20781368.102     -191886.560         818.069          47.000  
  20756102.490      558097.489       -2437.279          47.000  
  23903925.665     -637479.591        2789.505          43.000  
  23790395.002      443744.933       -1946.938          40.000  
  23879351.291      749488.054       -3273.177          41.000  
  23572695.683     -530978.283        2311.336          42.000  
  23259429.200      886677.986       -4121.029          34.000  
  24827549.147     -703464.343        3080.634          45.000  
  20142329.751      359395.078       -1595.875          41.000  
  22575531.958      410854.329       -1816.698          45.000  
 19 10  5 11  1 41.0000000  0 12G 1G22G 3G18G23G28G32G17G 8G19G11G14
  20352695.267      194029.259        -849.989          51.000  
  20676754.954      139061.735        -613.734          49.000  
  20781212.097     -192704.844         817.985          50.000  
  20756565.968      560534.462       -2437.170          49.000  
  23903394.445     -640270.026        2790.494          44.000  
  23790765.784      445692.381       -1947.926          42.000  
  23879974.613      752760.890       -3272.684          42.000  
  23572255.519     -533289.805        2311.118          43.000  
  23260213.273      890798.391       -4120.240          36.000  
  24826962.401     -706545.299        3081.513          46.000  
  20142634.152      360991.108       -1596.268          43.000  
  22575877.856      412671.019       -1816.869          46.000  
 19 10  5 11  1 42.0000000  0 12G 1G22G 3G18G23G28G32G17G 8G19G11G14
  20352857.205      194879.653        -850.147          51.000  
  20676871.975      139675.641        -613.907          48.000  
  20781056.266     -193522.919         817.709          49.000  
  20757029.725      562971.617       -2436.922          49.000  
  23902862.737     -643060.542        2790.189          44.000  
  23791135.798      447640.062       -1947.628          40.000  
  23880597.481      756033.912       -3272.858          41.000  
  23571815.354     -535601.224        2311.527          44.000  
  23260997.346      894918.841       -4119.918          35.000  
  24826375.794     -709626.281        3081.613          45.000  
  20142938.100      362587.522       -1596.797          43.000  
  22576223.579      414488.064       -1817.435          46.000  
 19 10  5 11  1 43.0000000  0 12G 1G22G 3G18G23G28G32G17G 8G19G11G14
  20353019.527      195730.160        -850.128          51.000  
  20676988.752      140289.637        -613.147          48.000  
  20780900.506     -194340.835         818.230          49.000  
  20757493.237      565408.877       -2436.936          48.000  
  23902331.169     -645851.220        2791.266          44.000  
  23791506.267      449587.915       -1947.204          40.000  
  23881220.628      759307.091       -3272.791          42.000  
  23571375.050     -537912.671        2312.197          44.000  
  23261780.930      899039.185       -4119.089          36.000  
  24825789.153     -712707.437        3081.550          45.000  
  20143241.839      364184.222       -1596.377          43.000  
  22576569.129      416305.385       -1817.204          45.000  
 19 10  5 11  1 44.0000000  0 12G 1G22G 3G18G23G28G32G17G 8G19G11G14
  20353181.430      196580.793        -850.711          51.000  
  20677105.983      140903.768        -614.694          48.000  
  20780745.129     -195158.628         817.692          49.000  
  20757956.925      567846.294       -2437.682          48.000  
  23901799.774     -648642.041        2790.623          45.000  
  23791876.386      451535.954       -1948.952          40.000  
  23881843.810      762580.365       -3273.463          40.000  
  23570934.816     -540224.089        2311.049          44.000  
  23262564.236      903159.342       -4120.484          40.000  
  24825202.791     -715788.634        3081.035          43.000  
  20143545.787      365781.259       -1596.951          43.000  
  22576914.329      418122.996       -1817.737          45.000  
 19 10  5 11  1 45.0000000  0 12G 1G22G 3G18G23G28G32G17G 8G19G11G14
  20353343.263      197431.889        -851.486          51.000  
  20677222.969      141518.380        -614.877          48.000  
  20780589.194     -195975.873         816.657          50.000  
  20758421.170      570284.116       -2438.292          48.000  
  23901268.311     -651432.829        2790.049          39.000  
  23792246.993      453484.456       -1949.526          40.000  
  23882466.783      765854.088       -3274.321          40.000  
  23570494.303     -542535.154        2310.952          43.000  
  23263347.960      907280.167       -4120.591          42.000  
  24824617.057     -718869.641        3080.637          45.000  
  20143850.014      367378.933       -1598.601          44.000  
  22577260.192      419941.206       -1818.852          43.000  
 19 10  5 11  1 46.0000000  0 12G 1G22G 3G18G23G28G32G17G 8G19G11G14
  20353505.271      198283.405        -850.476          51.000  
  20677340.060      142133.425        -613.856          48.000  
  20780433.294     -196792.722         818.283          49.000  
  20758885.102      572722.401       -2437.173          47.000  
  23900738.138     -654223.330        2791.500          47.000  
  23792617.811      455433.415       -1947.796          41.000  
  23883090.454      769128.230       -3272.091          41.000  
  23570054.139     -544845.887        2312.109          44.000  
  23264132.312      911401.050       -4119.124          39.000  
  24824030.066     -721950.405        3081.702          44.000  
  20144154.206      368977.274       -1597.203          40.000  
  22577606.125      421760.080       -1817.583          43.000  
 19 10  5 11  1 47.0000000  0 12G 1G22G 3G18G23G28G32G17G 8G19G11G14
  20353667.244      199134.476        -850.513          48.000  
  20677456.732      142748.027        -614.091          46.000  
  20780278.196     -197609.923         817.437          47.000  
  20759349.312      575160.262       -2437.350          46.000  
  23900207.233     -657014.499        2791.775          49.000  
  23792989.116      457382.026       -1948.487          40.000  
  23883714.439      772401.986       -3273.123          40.000  
  23569614.917     -547157.163        2311.938          43.000  
  23264912.861      915521.5833      -4119.801          36.000  
  24823444.367     -725031.847        3082.484          42.000  
  20144458.677      370575.396       -1597.510          41.000  
  22577952.861      423578.608       -1818.140          43.000  
 19 10  5 11  1 48.0000000  0 12G 1G22G 3G18G23G28G32G17G 8G19G11G14
  20353828.798      199985.519        -851.445          50.000  
  20677573.648      143362.563        -614.840          48.000  
  20780122.715     -198427.144         817.102          49.000  
  20759813.000      577598.041       -2438.010          47.000  
  23899676.432     -659806.026        2791.481          50.000  
  23793359.549      459330.661       -1948.818          40.000  
  23884336.923      775675.657       -3273.957          40.000  
  23569175.346     -549468.600        2311.541          43.000  
  23265693.898      919641.2513      -4120.516          28.000  
  24822858.633     -728113.553        3081.506          44.000  
  20144763.602      372173.596       -1598.988          41.000  
  22578298.759      425397.289       -1818.371          45.000  
 19 10  5 11  1 49.0000000  0 12G 1G22G 3G18G23G28G32G17G 8G19G11G14
  20353991.050      200837.010        -851.615          50.000  
  20677690.879      143977.551        -615.082          48.000  
  20779967.443     -199243.883         816.741          49.000  
  20760277.210      580036.302       -2438.599          47.000  
  23899145.178     -662597.353        2791.714          50.000  
  23793729.459      461279.730       -1949.190          41.000  
  23884959.477      778949.804       -3274.652          41.000  
  23568735.042     -551779.703        2311.128          42.000  
  23266476.749      923761.3053      -4121.215          29.000  
  24822272.271     -731195.044        3081.239          45.000  
  20145068.074      373772.476       -1598.912          43.000  
  22578644.972      427216.595       -1819.040          44.000  
 19 10  5 11  1 50.0000000  0 12G 1G22G 3G18G23G28G32G17G 8G19G11G14
  20354153.023      201688.835        -851.790          50.000  
  20677808.040      144592.879        -615.292          48.000  
  20779811.891     -200060.274         816.561          49.000  
  20760741.421      582474.878       -2438.428          47.000  
  23898613.993     -665388.613        2791.429          50.000  
  23794101.428      463229.181       -1949.195          41.000  
  23885582.694      782224.275       -3274.317          41.000  
  23568295.994     -554090.593        2310.913          45.000  
  23267262.218      927881.7832      -4120.419          36.000  
  24821685.211     -734276.432        3081.548          44.000  
  20145372.859      375371.891       -1599.756          43.000  
  22578991.254      429036.371       -1819.853          44.000  
 19 10  5 11  1 51.0000000  0 12G 1G22G 3G18G23G28G32G17G 8G19G11G14
  20354314.786      202540.663        -851.747          50.000  
  20677925.270      145208.225        -615.477          48.000  
  20779656.654     -200876.603         816.139          49.000  
  20761205.318      584913.444       -2438.289          48.000  
  23898082.459     -668179.992        2791.542          41.000  
  23794472.908      465178.689       -1948.989          41.000  
  23886206.295      785498.746       -3274.315          41.000  
  23567855.411     -556401.526        2312.224          43.000  
  23268053.132      932002.3713      -4120.714          40.000  
  24821098.813     -737358.032        3082.184          44.000  
  20145676.982      376971.480       -1599.241          43.000  
  22579337.117      430856.340       -1820.139          45.000  
 19 10  5 11  1 52.0000000  0 12G 1G22G 3G18G23G28G32G17G 8G19G11G14
  20354477.039      203392.392        -852.138          50.000  
  20678042.466      145823.461        -615.422          46.000  
  20779500.405     -201692.860         816.466          40.000  
  20761669.493      587351.943       -2439.553          48.000  
  23897551.379     -670972.029        2791.409          45.000  
  23794843.446      467128.153       -1949.591          41.000  
  23886829.372      788773.127       -3274.694          42.000  
  23567415.422     -558712.757        2311.210          46.000  
  23268835.739      936122.1802      -4121.063          45.000  
  24820512.277     -740439.992        3081.574          45.000  
  20145981.383      378571.141       -1600.793          40.000  
  22579683.644      432676.397       -1820.962          46.000  
 19 10  5 11  1 53.0000000  0 12G 1G22G 3G18G23G28G32G17G 8G19G11G14
  20354639.186      204243.450        -848.664          48.000  
  20678158.964      146437.709        -614.275          43.000  
  20779346.006     -202509.8203        817.333          38.000  
  20762133.320      589790.095       -2437.731          45.000  
  23897020.160     -673764.299        2791.425          41.000  
  23795215.624      469077.9433      -1950.356          36.000  
  23887452.624      792048.042       -3274.156          43.000  
  23566974.559     -561024.285        2310.908          42.000  
  23269619.603      940241.5603      -4119.480          43.000  
  24819925.531     -743521.5793       3079.691          35.000  
  20146285.750      380170.387       -1598.052          44.000  
  22580030.693      434496.767       -1819.758          44.000  
 19 10  5 11  1 54.0000000  0 12G 1G22G 3G18G23G28G32G17G 8G19G11G14
  20354801.054      205094.050        -852.185          48.000  
  20678276.369      147052.006        -614.333          48.000  
  20779190.978     -203326.8833        817.555          46.000  
  20762596.798      592227.855       -2436.372          45.000  
  23896488.766     -676556.0363       2791.510          34.000  
  23795587.593      471027.3363      -1953.245          31.000  
  23888075.178      795322.613       -3274.173          39.000  
  23566534.988     -563335.322        2310.785          40.000  
  23270400.989      944361.5072      -4118.808          42.000  
  24819340.041     -746603.1442       3081.306          44.000  
  20146590.815      381769.458       -1598.816          43.000  
  22580376.871      436316.790       -1820.495          46.000  
 19 10  5 11  1 55.0000000  0 12G 1G22G 3G18G23G28G32G17G 8G19G11G14
  20354962.748      205945.777        -853.246          47.000  
  20678393.564      147667.221        -616.358          48.000  
  20779036.718     -204142.8212        815.033          47.000  
  20763061.323      594666.221       -2439.764          47.000  
  23895956.325     -679347.8352       2792.122          41.000  
  23795961.586      472978.2313      -1951.017          34.000  
  23888697.348      798597.647       -3275.323          41.000  
  23566093.637     -565645.958        2310.616          38.000  
  23271187.017      948481.3412      -4120.474          45.000  
  24818754.830     -749684.4052       3081.954          40.000  
  20146895.565      383369.599       -1602.232          41.000  
  22580723.572      438137.548       -1821.467          47.000  
 19 10  5 11  1 56.0000000  0 12G 1G22G 3G18G23G28G32G17G 8G19G11G14
  20355126.187      206801.569        -854.461          48.000  
  20678511.598      148286.374        -617.770          45.000  
  20778882.528     -204955.8842        813.909          44.000  
  20763525.778      597108.864       -2443.336          43.000  
  23895425.838     -682138.1363       2790.366          35.000  
  23796328.879      474927.5723      -1950.571          29.000  
  23889320.810      801874.631       -3276.875          41.000  
  23565652.705     -567955.4243       2306.025          29.000  
  23271971.229      952603.5432      -4123.392          34.000  
  24818168.538     -752766.3792       3083.342          42.000  
  20147201.398      384974.301       -1604.477          43.000  
  22581070.622      439961.876       -1823.390          40.000  
 19 10  5 11  1 57.0000000  0 12G 1G22G 3G18G23G28G32G17G 8G19G11G14
  20355289.416      207656.669        -854.261          46.000  
  20678628.968      148904.723        -618.027          41.000  
  20778727.395     -205769.5472        814.381          43.000  
  20763990.477      599551.259       -2440.889          43.000  
  23894896.224     -684927.7373       2791.746          36.000  
  23796703.290      476877.6283      -1949.966          30.000  
  23889945.109      805151.248       -3279.035          34.000  
  23565213.728     -570266.5042       2311.278          40.000  
  23272756.175      956725.5473      -4121.251          35.000  
  24817581.443     -755849.6033       3082.214          46.000  
  20147507.370      386578.862       -1603.163          38.000  
  22581417.846      441786.021       -1825.765          42.000  
 19 10  5 11  1 58.0000000  0 12G 1G22G 3G18G23G28G32G17G 8G19G11G14
  20355451.528      208510.356        -853.914          47.000  
  20678746.547      149522.115        -617.697          41.000  
  20778572.158     -206583.3922        812.523          46.000  
  20764455.072      601991.318       -2439.981          48.000  
  23894363.748     -687719.8833       2794.423          29.000  
  23797069.326      478830.5963      -1952.764          30.000  
  23890568.779      808427.8173      -3275.485          39.000  
  23564775.727     -572575.6812       2307.208          41.000  
  23273539.760      960846.4913      -4120.277          39.000  
  24816994.452     -758929.8573       3080.870          38.000  
  20147812.470      388181.585       -1603.593          41.000  
  22581764.652      443608.542       -1821.300          45.000  
 19 10  5 11  1 59.0000000  0 12G 1G22G 3G18G23G28G32G17G 8G19G11G14
  20355614.130      209364.760        -853.582          50.000  
  20678863.080      150140.169        -616.734          47.000  
  20778416.991     -207396.5692        813.534          49.000  
  20764919.945      604432.326       -2441.485          47.000  
  23893832.424     -690511.6493       2791.521          45.000  
  23797442.656      480783.3123      -1951.991          37.000  
  23891192.974      811704.5873      -3277.975          43.000  
  23564336.191     -574884.7423       2314.797          41.000  
  23274325.927      964967.7472      -4119.914          46.000  
  24816406.380     -762010.8473       3080.852          42.000  
  20148117.534      389785.196       -1603.592          46.000  
  22582111.806      445432.057       -1824.331          46.000  
 19 10  5 11  2  0.0000000  0 12G 1G22G 3G18G23G28G32G17G 8G19G11G14
  20355776.626      210218.802        -853.994          50.000  
  20678980.729      150757.647        -617.388          47.000  
  20778261.824     -208210.4232        813.782          50.000  
  20765386.041      606873.104       -2440.625          47.000  
  23893300.506     -693303.5563       2792.999          41.000  
  23797813.857      482735.2733      -1952.936          37.000  
  23891814.167      814981.2802      -3276.811          42.000  
  23563897.004     -577194.5692       2310.279          42.000  
  23275110.698      969088.7062      -4120.432          44.000  
  24815818.727     -765092.2932       3080.933          43.000  
  20148422.459      391388.758       -1603.407          47.000  
  22582459.205      447255.723       -1823.900          45.000  
 19 10  5 11  2  1.0000000  0 12G 1G22G 3G18G23G28G32G17G 8G19G11G14
  20355939.646      211073.026        -854.645          50.000  
  20679098.239      151375.425        -618.235          46.000  
  20778107.424     -209024.558         813.090          49.000  
  20765850.496      609314.098       -2441.683          47.000  
  23892771.974     -696095.3642       2791.615          50.000  
  23798185.931      484687.5892      -1953.924          37.000  
  23892439.757      818258.1742      -3277.645          41.000  
  23563458.236     -579504.1872       2308.471          43.000  
  23275894.283      973209.2062      -4120.892          41.000  
  24815231.736     -768173.7182       3082.541          41.000  
  20148727.664      392992.723       -1604.362          46.000  
  22582806.534      449079.741       -1823.987          45.000  
 19 10  5 11  2  2.0000000  0 12G 1G22G 3G18G23G28G32G17G 8G19G11G14
  20356102.596      211927.639        -854.498          49.000  
  20679216.063      151993.542        -618.274          45.000  
  20777953.269     -209837.788         813.635          49.000  
  20766314.951      611755.425       -2441.096          46.000  
  23892239.428     -698887.1442       2791.795          48.000  
  23798558.842      486640.3632      -1953.546          36.000  
  23893063.742      821535.4162      -3278.248          40.000  
  23563019.642     -581813.6382       2309.439          39.000  
  23276678.600      977330.0972      -4120.998          44.000  
  24814645.304     -771255.1372       3081.906          39.000  
  20149033.810      394597.216       -1604.429          45.000  
  22583153.724      450904.288       -1824.689          43.000  
 19 10  5 11  2  3.0000000  0 12G 1G22G 3G18G23G28G32G17G 8G19G11G14
  20356265.651      212782.491        -854.407          50.000  
  20679333.922      152611.910        -618.203          46.000  
  20777798.311     -210650.712         812.916          49.000  
  20766779.650      614197.033       -2441.431          46.000  
  23891710.512     -701678.9382       2792.255          51.000  
  23798929.973      488593.4092      -1953.272          38.000  
  23893688.425      824812.9432      -3277.572          42.000  
  23562580.141     -584122.9582       2309.550          41.000  
  23277462.394      981451.1492      -4121.262          43.000  
  24814059.221     -774336.3862       3081.585          43.000  
  20149339.259      396202.185       -1604.501          46.000  
  22583500.739      452729.270       -1825.226          45.000  
 19 10  5 11  2  4.0000000  0 12G 1G22G 3G18G23G28G32G17G 8G19G11G14
  20356428.078      213637.185        -855.153          49.000  
  20679451.013      153230.122        -617.844          45.000  
  20777644.295     -211463.765         813.077          49.000  
  20767243.651      616638.470       -2441.121          46.000  
  23891176.954     -704471.0892       2792.519          45.000  
  23799298.208      490546.3022      -1951.110          37.000  
  23894310.071      828090.3192      -3277.463          41.000  
  23562140.290     -586432.4022       2309.058          40.000  
  23278246.223      985571.6612      -4121.045          43.000  
  24813473.697     -777418.0612       3082.387          43.000  
  20149644.742      397807.213       -1604.926          46.000  
  22583848.208      454554.299       -1824.029          45.000  
 19 10  5 11  2  5.0000000  0 12G 1G22G 3G18G23G28G32G17G 8G19G11G14
  20356590.818      214491.994        -854.872          49.000  
  20679568.802      153848.443        -618.611          45.000  
  20777489.931     -212276.675         812.758          49.000  
  20767708.316      619080.017       -2441.885          45.000  
  23890646.398     -707263.5172       2792.714          50.000  
  23799670.770      492499.3292      -1955.334          37.000  
  23894935.068      831367.7752      -3277.788          41.000  
  23561700.685     -588741.8932       2310.939          40.000  
  23279030.680      989692.2922      -4120.756          48.000  
  24812887.858     -780499.8512       3081.421          41.000  
  20149950.540      399412.525       -1605.318          45.000  
  22584195.816      456379.535       -1825.315          43.000  
 19 10  5 11  2  6.0000000  0 12G 1G22G 3G18G23G28G32G17G 8G19G11G14
  20356753.280      215347.290        -855.413          49.000  
  20679686.974      154467.252        -618.845          45.000  
  20777335.566     -213089.056         812.222          48.000  
  20768172.666      621522.054       -2442.217          45.000  
  23890115.911     -710055.6922       2792.077          50.000  
  23800042.180      494452.9192      -1952.404          38.000  
  23895559.193      834645.7272      -3278.017          41.000  
  23561261.881     -591051.0822       2308.808          41.000  
  23279814.544      993813.1302      -4121.200          47.000  
  24812301.182     -783581.4122       3081.709          42.000  
  20150256.128      401018.502       -1606.306          45.000  
  22584543.459      458205.442       -1826.432          44.000  
 19 10  5 11  2  7.0000000  0 12G 1G22G 3G18G23G28G32G17G 8G19G11G14
  20356916.893      216202.959        -855.526          49.000  
  20679805.008      155086.446        -619.626          45.000  
  20777181.376     -213901.046         811.812          49.000  
  20768637.296      623964.483       -2442.437          45.000  
  23889584.762     -712847.739        2791.923          50.000  
  23800416.627      496407.0663      -1954.530          30.000  
  23896183.352      837923.585       -3278.036          40.000  
  23560822.694     -593360.491        2309.288          41.000  
  23280599.036      997933.697       -4121.069          47.000  
  24811714.784     -786663.308        3081.471          41.000  
  20150562.345      402625.069       -1606.304          46.000  
  22584891.103      460031.913       -1826.475          44.000  
 19 10  5 11  2  8.0000000  0 12G 1G22G 3G18G23G28G32G17G 8G19G11G14
  20357080.157      217058.581        -855.456          49.000  
  20679923.495      155705.597        -618.738          45.000  
  20777026.941     -214713.031         812.161          48.000  
  20769102.309      626406.873       -2442.184          44.000  
  23889053.856     -715640.100        2792.763          50.000  
  23800785.280      498360.8893      -1954.459          36.000  
  23896807.616      841201.847       -3278.678          41.000  
  23560383.368     -595669.501        2308.680          40.000  
  23281383.598     1002054.529       -4120.822          47.000  
  24811129.399     -789744.919        3081.637          41.000  
  20150867.828      404231.774       -1607.143          45.000  
  22585239.200      461858.482       -1826.701          44.000  
 19 10  5 11  2  9.0000000  0 12G 1G22G 3G18G23G28G32G17G 8G19G11G14
  20357243.666      217914.373        -856.148          49.000  
  20680041.912      156324.878        -619.880          45.000  
  20776873.240     -215524.849         811.329          48.000  
  20769566.938      628849.407       -2443.169          45.000  
  23888522.951     -718432.595        2792.069          50.000  
  23801158.785      500315.1183      -1954.374          36.000  
  23897432.299      844480.300       -3279.035          41.000  
  23559943.936     -597978.479        2308.638          36.000  
  23282167.845     1006175.316       -4120.897          46.000  
  24810543.037     -792826.717        3081.010          43.000  
  20151173.870      405838.856       -1607.150          45.000  
  22585586.878      463685.385       -1827.410          44.000  
 19 10  5 11  2 10.0000000  0 12G 1G22G 3G18G23G28G32G17G 8G19G11G14
  20357406.337      218770.716        -856.709          49.000  
  20680160.120      156944.745        -620.337          46.000  
  20776718.177     -216336.057         810.831          48.000  
  20770032.440      631292.522       -2443.452          45.000  
  23887991.871     -721224.775        2792.174          50.000  
  23801532.115      502269.9522      -1955.143          36.000  
  23898056.493      847759.296       -3279.375          41.000  
  23559504.505     -600287.026        2308.441          38.000  
  23282952.686     1010296.494       -4121.340          47.000  
  24809956.535     -795908.034        3080.764          40.000  
  20151479.598      407446.684       -1607.759          45.000  
  22585934.940      465513.017       -1827.840          44.000  
 19 10  5 11  2 11.0000000  0 12G 1G22G 3G18G23G28G32G17G 8G19G11G14
  20357569.427      219627.623        -857.258          48.000  
  20680278.083      157565.175        -620.661          44.000  
  20776564.092     -217146.668         810.280          47.000  
  20770497.663      633736.176       -2444.556          44.000  
  23887460.582     -724016.678        2791.252          49.000  
  23801902.408      504225.3102      -1955.584          34.000  
  23898681.735      851038.870       -3279.959          41.000  
  23559064.899     -602595.107        2308.115          38.000  
  23283736.864     1014418.019       -4122.136          45.000  
  24809371.185     -798989.129        3081.023          43.000  
  20151785.779      409055.249       -1609.178          44.000  
  22586283.351      467341.376       -1828.618          42.000  
 19 10  5 11  2 12.0000000  0 12G 1G22G 3G18G23G28G32G17G 8G19G11G14
  20357733.354      220484.538        -856.799          50.000  
  20680396.221      158185.574        -620.340          46.000  
  20776409.937     -217957.271         810.651          49.000  
  20770962.991      636179.830       -2443.092          46.000  
  23886929.816     -726808.849        2792.612          50.000  
  23802274.831      506180.7352      -1953.333          33.000  
  23899306.418      854318.424       -3279.302          42.000  
  23558625.712     -604903.350        2307.985          39.000  
  23284521.217     1018539.366       -4120.910          46.000  
  24808785.137     -802070.423        3081.395          41.000  
  20152092.031      410664.023       -1608.458          46.000  
  22586631.413      469169.883       -1828.104          44.000  
 19 10  5 11  2 13.0000000  0 12G 1G22G 3G18G23G28G32G17G 8G19G11G14
  20357896.688      221341.302        -856.610          49.000  
  20680514.010      158805.832        -620.753          45.000  
  20776256.026     -218767.968         810.469          48.000  
  20771428.144      638623.341       -2443.363          46.000  
  23886398.177     -729601.434        2792.938          49.000  
  23802647.916      508136.1032      -1955.898          36.000  
  23899930.228      857597.850       -3278.779          41.000  
  23558186.036     -607211.764        2309.043          39.000  
  23285305.464     1022660.413       -4121.033          47.000  
  24808198.984     -805152.055        3081.277          42.000  
  20152398.073      412272.854       -1608.293          45.000  
  22586979.091      470998.428       -1828.608          44.000  
 19 10  5 11  2 14.0000000  0 12G 1G22G 3G18G23G28G32G17G 8G19G11G14
  20358059.324      222198.459        -857.497          50.000  
  20680631.904      159426.490        -620.974          46.000  
  20776101.556     -219578.241         810.234          49.000  
  20771893.122      641067.233       -2444.212          46.000  
  23885866.434     -732393.901        2792.074          51.000  
  23803020.618      510091.8482      -1955.974          37.000  
  23900554.178      860877.657       -3280.757          42.000  
  23557745.523     -609519.950        2308.336          39.000  
  23286090.270     1026781.662       -4121.492          47.000  
  24807612.517     -808233.559        3081.616          44.000  
  20152704.080      413882.251       -1609.795          46.000  
  22587327.013      472827.521       -1830.052          44.000  
 19 10  5 11  2 15.0000000  0 12G 1G22G 3G18G23G28G32G17G 8G19G11G14
  20358221.820      223056.043        -857.729          50.000  
  20680749.728      160047.573        -621.220          46.000  
  20775947.087     -220388.052         809.916          49.000  
  20772358.101      643511.569       -2444.297          46.000  
  23885334.482     -735186.190        2792.299          50.000  
  23803391.645      512048.0552      -1956.885          36.000  
  23901178.128      864157.902       -3280.046          41.000  
  23557306.126     -611827.821        2307.324          40.000  
  23286874.309     1030903.158       -4121.463          47.000  
  24807026.260     -811314.855        3080.519          43.000  
  20153010.715      415492.290       -1609.918          46.000  
  22587674.866      474657.233       -1829.620          44.000  
 19 10  5 11  2 16.0000000  0 12G 1G22G 3G18G23G28G32G17G 8G19G11G14
  20358384.561      223913.789        -857.521          49.000  
  20680867.168      160668.817        -621.124          45.000  
  20775792.443     -221197.657         809.893          49.000  
  20772823.777      645956.053       -2444.271          46.000  
  23884802.529     -737978.590        2792.664          50.000  
  23803763.893      514004.4682      -1956.698          37.000  
  23901801.764      867438.310       -3280.515          41.000  
  23556866.625     -614135.592        2307.736          40.000  
  23287658.836     1035024.631       -4121.050          47.000  
  24806439.374     -814396.199        3081.468          43.000  
  20153316.687      417102.687       -1610.383          46.000  
  22588022.719      476487.246       -1830.291          44.000  
 19 10  5 11  2 17.0000000  0 12G 1G22G 3G18G23G28G32G17G 8G19G11G14
  20358546.883      224771.282        -857.487          49.000  
  20680985.375      161289.780        -620.885          45.000  
  20775637.799     -222007.516         809.762          48.000  
  20773288.860      648400.260       -2444.040          46.000  
  23884270.577     -740771.537        2793.235          50.000  
  23804136.106      515960.7082      -1956.264          36.000  
  23902425.853      870718.442       -3280.455          41.000  
  23556426.845     -616443.759        2308.231          40.000  
  23288442.769     1039145.621       -4120.972          47.000  
  24805852.035     -817478.050        3082.173          43.000  
  20153622.554      418712.999       -1610.498          46.000  
  22588371.025      478317.158       -1829.552          44.000  
 19 10  5 11  2 18.0000000  0 12G 1G22G 3G18G23G28G32G17G 8G19G11G14
  20358709.694      225628.910        -857.945          49.000  
  20681102.955      161910.915        -621.140          45.000  
  20775483.086     -222817.179         809.006          48.000  
  20773753.874      650844.620       -2444.447          46.000  
  23883738.974     -743564.614        2793.122          50.000  
  23804507.865      517917.0872      -1956.831          36.000  
  23903050.257      873998.706       -3280.478          41.000  
  23555987.588     -618751.878        2308.357          40.000  
  23289226.807     1043266.593       -4121.052          47.000  
  24805265.358     -820559.956        3082.032          42.000  
  20153929.085      420323.659       -1610.984          46.000  
  22588719.262      480147.403       -1830.975          44.000  
 19 10  5 11  2 19.0000000  0 12G 1G22G 3G18G23G28G32G17G 8G19G11G14
  20358873.097      226486.986        -858.281          49.000  
  20681221.198      162532.470        -621.543          45.000  
  20775328.302     -223626.360         809.247          48.000  
  20774219.132      653289.433       -2444.967          46.000  
  23883207.091     -746357.509        2792.838          50.000  
  23804881.544      519873.457       -1957.432          37.000  
  23903674.102      877279.434       -3281.201          41.000  
  23555548.785     -621059.694        2307.926          40.000  
  23290011.369     1047387.803       -4120.886          48.000  
  24804678.891     -823641.662        3081.915          43.000  
  20154235.895      421934.966       -1611.146          46.000  
  22589067.742      481978.247       -1831.211          44.000  
 19 10  5 11  2 20.0000000  0 12G 1G22G 3G18G23G28G32G17G 8G19G11G14
  20359036.431      227345.309        -857.850          49.000  
  20681339.650      163154.281        -621.481          45.000  
  20775174.531     -224435.274         808.703          48.000  
  20774684.145      655734.479       -2444.900          46.000  
  23882675.034     -749150.438        2793.425          49.000  
  23805254.735      521830.628       -1958.190          37.000  
  23904298.366      880560.404       -3280.438          41.000  
  23555109.877     -623367.352        2307.911          40.000  
  23290795.687     1051509.070       -4120.863          48.000  
  24804092.774     -826723.349        3082.166          43.000  
  20154542.774      423546.693       -1611.686          46.000  
  22589416.014      483809.499       -1831.727          44.000  
 19 10  5 11  2 21.0000000  0 12G 1G22G 3G18G23G28G32G17G 8G19G11G14
  20359199.731      228203.646        -858.041          49.000  
  20681457.997      163776.089        -621.370          45.000  
  20775020.655     -225244.155         809.094          48.000  
  20775149.961      658179.540       -2444.982          46.000  
  23882143.465     -751943.629        2793.592          49.000  
  23805627.890      523787.860       -1957.085          38.000  
  23904922.910      883841.375       -3280.708          41.000  
  23554671.039     -625675.155        2307.596          40.000  
  23291579.760     1055630.146       -4120.803          47.000  
  24803506.691     -829805.240        3081.938          42.000  
  20154850.003      425158.642       -1612.024          46.000  
  22589764.216      485640.932       -1831.324          44.000  
 19 10  5 11  2 22.0000000  0 12G 1G22G 3G18G23G28G32G17G 8G19G11G14
  20359362.785      229062.199        -858.685          49.000  
  20681576.484      164398.135        -622.001          45.000  
  20774867.372     -226052.773         808.667          48.000  
  20775615.498      660624.815       -2444.988          46.000  
  23881612.106     -754736.872        2793.329          49.000  
  23806001.430      525745.331       -1958.100          38.000  
  23905547.069      887122.570       -3280.648          42.000  
  23554232.899     -627982.769        2307.452          40.000  
  23292364.147     1059751.267       -4121.074          48.000  
  24802919.944     -832887.130        3081.997          42.000  
  20155156.812      426770.994       -1612.359          46.000  
  22590112.522      487472.757       -1832.179          44.000  
 19 10  5 11  2 23.0000000  0 12G 1G22G 3G18G23G28G32G17G 8G19G11G14
  20359526.468      229921.219        -858.580          49.000  
  20681695.460      165020.633        -621.876          45.000  
  20774713.741     -226860.882         807.999          47.000  
  20776081.000      663070.544       -2445.804          45.000  
  23881080.049     -757529.896        2793.405          48.000  
  23806374.306      527703.317       -1957.981          37.000  
  23906170.775      890404.246       -3281.810          40.000  
  23553794.235     -630290.072        2307.505          41.000  
  23293148.639     1063872.649       -4121.128          47.000  
  24802333.198     -835968.799        3081.321          41.000  
  20155463.866      428384.019       -1613.203          45.000  
  22590461.212      489305.202       -1832.815          43.000  
 19 10  5 11  2 24.0000000  0 12G 1G22G 3G18G23G28G32G17G 8G19G11G14
  20359690.361      230780.511        -859.479          49.000  
  20681814.191      165643.413        -622.715          45.000  
  20774559.830     -227668.694         807.905          48.000  
  20776546.397      665516.549       -2445.866          46.000  
  23880548.795     -760322.944        2793.264          49.000  
  23806747.531      529661.603       -1957.963          37.000  
  23906794.690      893686.165       -3281.626          41.000  
  23553355.188     -632597.183        2306.689          40.000  
  23293933.166     1067994.116       -4121.000          48.000  
  24801746.801     -839050.388        3082.255          42.000  
  20155771.339      429997.499       -1613.792          45.000  
  22590810.984      491138.086       -1832.603          44.000  
 19 10  5 11  2 25.0000000  0 12G 1G22G 3G18G23G28G32G17G 8G19G11G14
  20359853.869      231639.582        -858.877          47.000  
  20681932.783      166265.951        -622.785          44.000  
  20774406.756     -228476.712         807.941          46.000  
  20777011.655      667962.329       -2445.669          44.000  
  23880017.191     -763116.483        2793.349          46.000  
  23807120.477      531619.708       -1958.019          36.000  
  23907419.094      896967.856       -3281.281          39.000  
  23552916.385     -634904.650        2308.203          39.000  
  23294717.763     1072115.174       -4121.285          46.000  
  24801160.369     -842132.446        3082.462          40.000  
  20156078.149      431610.960       -1613.372          43.000  
  22591159.884      492970.894       -1832.879          43.000  
 19 10  5 11  2 26.0000000  0 12G 1G22G 3G18G23G28G32G17G 8G19G11G14
  20360017.762      232498.879        -859.758          48.000  
  20682051.933      166888.707        -623.797          45.000  
  20774253.264     -229284.458         807.363          47.000  
  20777477.157      670408.344       -2446.561          45.000  
  23879485.553     -765910.080        2793.128          47.000  
  23807493.598      533578.090       -1958.901          37.000  
  23908043.497      900249.790       -3282.064          40.000  
  23552477.163     -637212.015        2307.401          40.000  
  23295502.115     1076236.256       -4121.412          47.000  
  24800574.426     -845214.517        3081.479          42.000  
  20156385.482      433224.828       -1613.962          45.000  
  22591509.098      494804.107       -1834.288          43.000  
 19 10  5 11  2 27.0000000  0 12G 1G22G 3G18G23G28G32G17G 8G19G11G14
  20360181.445      233358.709        -859.687          48.000  
  20682171.222      167512.021        -623.548          44.000  
  20774100.016     -230091.656         806.799          47.000  
  20777943.357      672854.902       -2446.547          44.000  
  23878954.089     -768703.380        2793.310          47.000  
  23807866.334      535537.006       -1958.886          36.000  
  23908668.355      903532.239       -3282.720          39.000  
  23552038.394     -639518.932        2306.284          39.000  
  23296286.747     1080357.690       -4121.455          46.000  
  24799987.645     -848296.256        3081.974          40.000  
  20156692.850      434839.431       -1614.927          43.000  
  22591858.172      496637.998       -1834.138          43.000  
 19 10  5 11  2 28.0000000  0 12G 1G22G 3G18G23G28G32G17G 8G19G11G14
  20360345.791      234218.879        -860.611          49.000  
  20682290.128      168135.674        -624.052          45.000  
  20773946.978     -230898.443         806.192          48.000  
  20778408.754      675301.817       -2447.164          45.000  
  23878423.114     -771496.614        2793.286          48.000  
  23808240.327      537496.322       -1959.823          38.000  
  23909293.421      906815.064       -3283.222          40.000  
  23551599.277     -641825.582        2306.394          41.000  
  23297071.169     1084479.287       -4122.030          48.000  
  24799401.876     -851377.853        3081.534          42.000  
  20157000.428      436454.587       -1615.414          46.000  
  22592207.665      498472.427       -1835.080          44.000  
 19 10  5 11  2 29.0000000  0 12G 1G22G 3G18G23G28G32G17G 8G19G11G14
  20360509.928      235079.099        -860.362          49.000  
  20682408.336      168759.365        -624.016          45.000  
  20773793.695     -231705.150         806.698          48.000  
  20778873.593      677748.757       -2447.049          46.000  
  23877891.406     -774290.082        2793.621          48.000  
  23808613.797      539455.729       -1959.029          38.000  
  23909917.965      910097.899       -3282.501          40.000  
  23551160.439     -644132.332        2306.531          41.000  
  23297855.312     1088600.744       -4121.511          48.000  
  24798816.107     -854459.662        3081.633          42.000  
  20157307.656      438069.979       -1615.417          46.000  
  22592556.913      500307.057       -1834.852          45.000  
 19 10  5 11  2 30.0000000  0 12G 1G22G 3G18G23G28G32G17G 8G19G11G14
  20360673.122      235939.325        -860.077          50.000  
  20682526.613      169383.055        -623.605          45.000  
  20773639.959     -232511.851         806.591          48.000  
  20779338.676      680195.682       -2447.162          46.000  
  23877359.837     -777083.821        2793.679          48.000  
  23808986.185      541415.188       -1959.029          38.000  
  23910542.508      913380.739       -3282.928          40.000  
  23550721.287     -646439.154        2307.808          41.000  
  23298639.350     1092722.012       -4121.494          48.000  
  24798229.535     -857541.664        3081.932          42.000  
  20157614.745      439685.554       -1615.487          46.000  
  22592905.429      502141.859       -1835.474          44.000  
 19 10  5 11  2 31.0000000  0 12G 1G22G 3G18G23G28G32G17G 8G19G11G14
  20360837.050      236799.890        -860.895          50.000  
  20682645.100      170007.099        -624.028          45.000  
  20773486.188     -233318.157         806.442          48.000  
  20779804.039      682642.970       -2447.099          46.000  
  23876827.815     -779877.460        2793.946          48.000  
  23809358.921      543374.986       -1960.867          38.000  
  23911166.842      916663.936       -3282.876          40.000  
  23550282.309     -648745.776        2306.515          41.000  
  23299423.528     1096843.436       -4121.438          48.000  
  24797642.999     -860623.556        3082.351          42.000  
  20157921.276      441301.679       -1616.474          46.000  
  22593254.468      503977.164       -1835.000          44.000  
 19 10  5 11  2 32.0000000  0 12G 1G22G 3G18G23G28G32G17G 8G19G11G14
  20361001.047      237660.942        -861.311          50.000  
  20682763.727      170631.596        -624.911          45.000  
  20773332.870     -234123.991         805.172          48.000  
  20780269.192      685090.710       -2448.209          45.000  
  23876296.735     -782670.928        2793.098          48.000  
  23809731.553      545335.370       -1960.821          37.000  
  23911790.652      919947.582       -3284.337          39.000  
  23549843.331     -651051.996        2306.092          41.000  
  23300207.217     1100965.134       -4122.071          48.000  
  24797056.183     -863705.211        3081.318          42.000  
  20158229.063      442918.464       -1617.092          46.000  
  22593603.857      505813.108       -1836.364          44.000  
 19 10  5 11  2 33.0000000  0 12G 1G22G 3G18G23G28G32G17G 8G19G11G14
  20361164.974      238522.187        -861.058          50.000  
  20682882.179      171256.302        -624.571          45.000  
  20773179.343     -234929.553         805.356          48.000  
  20780735.217      687538.660       -2448.371          45.000  
  23875765.341     -785464.452        2793.644          48.000  
  23810103.976      547295.922       -1959.858          37.000  
  23912415.405      923231.452       -3283.586          39.000  
  23549405.122     -653358.132        2306.348          41.000  
  23300991.535     1105086.858       -4121.500          48.000  
  24796469.506     -866786.887        3081.323          41.000  
  20158536.466      444535.660       -1617.349          46.000  
  22593953.419      507649.414       -1836.620          44.000  
 19 10  5 11  2 34.0000000  0 12G 1G22G 3G18G23G28G32G17G 8G19G11G14
  20361329.146      239383.367        -861.317          48.000  
  20683001.224      171880.951        -624.895          44.000  
  20773025.781     -235735.153         805.713          47.000  
  20781200.545      689986.554       -2448.107          44.000  
  23875234.017     -788258.306        2793.597          47.000  
  23810475.875      549256.540       -1960.914          37.000  
  23913039.774      926515.226       -3283.480          39.000  
  23548966.179     -655664.443        2306.321          40.000  
  23301775.887     1109208.330       -4121.865          47.000  
  24795882.516     -869868.841        3081.524          40.000  
  20158844.358      446152.979       -1617.311          45.000  
  22594302.878      509485.824       -1836.559          43.000  
 19 10  5 11  2 35.0000000  0 12G 1G22G 3G18G23G28G32G17G 8G19G11G14
  20361493.038      240244.904        -861.915          48.000  
  20683120.375      172505.949        -625.762          43.000  
  20772872.533     -236540.386         804.456          46.000  
  20781666.850      692434.795       -2448.579          43.000  
  23874702.972     -791052.079        2793.475          47.000  
  23810849.309      551217.453       -1962.733          36.000  
  23913664.701      929799.377       -3284.583          38.000  
  23548527.062     -657970.512        2305.432          39.000  
  23302560.309     1113329.961       -4122.042          46.000  
  24795295.979     -872950.658        3082.087          40.000  
  20159152.424      447770.844       -1618.308          43.000  
  22594652.405      511322.746       -1837.265          42.000  
 19 10  5 11  2 36.0000000  0 12G 1G22G 3G18G23G28G32G17G 8G19G11G14
  20361657.000      241107.182        -862.091          49.000  
  20683239.769      173131.700        -625.395          44.000  
  20772719.704     -237344.823         804.408          47.000  
  20782132.805      694883.770       -2448.841          45.000  
  23874171.682     -793845.375        2793.492          48.000  
  23811222.395      553179.192       -1962.389          36.000  
  23914290.187      933084.248       -3284.971          39.000  
  23548088.572     -660275.920        2304.921          39.000  
  23303344.417     1117452.163       -4122.004          46.000  
  24794709.757     -876031.965        3081.126          40.000  
  20159461.083      449389.657       -1619.269          45.000  
  22595002.108      513160.583       -1838.248          43.000  
 19 10  5 11  2 37.0000000  0 12G 1G22G 3G18G23G28G32G17G 8G19G11G14
  20361820.718      241969.639        -862.075          49.000  
  20683358.884      173757.603        -625.158          45.000  
  20772566.701     -238149.078         803.950          48.000  
  20782599.180      697332.913       -2448.729          45.000  
  23873640.253     -796638.766        2793.654          49.000  
  23811596.004      555141.131       -1960.647          38.000  
  23914915.219      936369.315       -3283.534          40.000  
  23547650.083     -662581.293        2305.898          40.000  
  23304129.014     1121574.345       -4121.823          47.000  
  24794123.848     -879113.337        3081.767          41.000  
  20159769.289      451008.819       -1618.763          45.000  
  22595351.985      514998.752       -1837.990          44.000  
 19 10  5 11  2 38.0000000  0 12G 1G22G 3G18G23G28G32G17G 8G19G11G14
  20361985.134      242831.997        -862.248          49.000  
  20683478.104      174383.416        -626.048          45.000  
  20772414.046     -238953.377         803.866          48.000  
  20783066.322      699781.946       -2449.333          46.000  
  23873108.999     -799432.520        2793.602          49.000  
  23811969.474      557102.998       -1962.391          37.000  
  23915540.425      939654.257       -3285.094          40.000  
  23547211.315     -664886.880        2305.436          40.000  
  23304913.087     1125696.242       -4121.852          47.000  
  24793537.207     -882195.007        3082.067          42.000  
  20160077.669      452628.091       -1619.366          45.000  
  22595701.931      516836.987       -1838.776          45.000  
 19 10  5 11  2 39.0000000  0 12G 1G22G 3G18G23G28G32G17G 8G19G11G14
  20362148.538      243694.513        -863.060          49.000  
  20683597.394      175009.386        -626.290          45.000  
  20772261.112     -239757.475         803.821          48.000  
  20783532.801      702231.183       -2449.204          46.000  
  23872577.430     -802226.364        2793.761          50.000  
  23812342.525      559065.118       -1962.370          37.000  
  23916165.771      942939.372       -3286.099          39.000  
  23546772.163     -667192.366        2305.290          40.000  
  23305697.579     1129818.125       -4122.008          48.000  
  24792950.600     -885276.739        3081.778          41.000  
  20160385.666      454247.724       -1620.072          46.000  
  22596051.948      518675.552       -1839.274          44.000  
 19 10  5 11  2 40.0000000  0 12G 1G22G 3G18G23G28G32G17G 8G19G11G14
  20362312.535      244557.527        -862.710          49.000  
  20683716.404      175635.842        -626.724          45.000  
  20772108.039     -240561.063         803.255          48.000  
  20783999.106      704680.860       -2449.354          46.000  
  23872045.443     -805020.027        2793.596          50.000  
  23812715.785      561027.729       -1962.808          37.000  
  23916791.466      946224.972       -3284.929          39.000  
  23546333.883     -669497.500        2305.399          40.000  
  23306481.932     1133940.293       -4121.825          48.000  
  24792364.168     -888358.220        3081.606          41.000  
  20160694.150      455868.009       -1620.325          46.000  
  22596401.336      520514.747       -1839.259          44.000  
 19 10  5 11  2 41.0000000  0 12G 1G22G 3G18G23G28G32G17G 8G19G11G14
  20362476.602      245420.782        -863.108          49.000  
  20683834.926      176262.537        -627.090          45.000  
  20771954.617     -241364.384         803.029          48.000  
  20784465.306      707130.794       -2450.174          46.000  
  23871513.805     -807813.695        2793.597          49.000  
  23813089.010      562990.612       -1961.693          37.000  
  23917416.393      949510.826       -3286.075          38.000  
  23545895.289     -671802.530        2305.084          41.000  
  23307266.563     1138062.510       -4122.245          48.000  
  24791777.248     -891439.683        3082.287          41.000  
  20161001.937      457488.729       -1620.683          46.000  
  22596751.667      522354.357       -1840.105          44.000  
 19 10  5 11  2 42.0000000  0 12G 1G22G 3G18G23G28G32G17G 8G19G11G14
  20362640.913      246284.064        -863.188          48.000  
  20683953.902      176889.280        -626.623          44.000  
  20771801.823     -242167.619         803.277          47.000  
  20784931.750      709580.785       -2449.757          46.000  
  23870981.887     -810607.577        2794.150          49.000  
  23813462.235      564953.567       -1963.103          37.000  
  23918041.320      952796.732       -3285.982          37.000  
  23545456.451     -674107.586        2304.013          38.000  
  23308050.637     1142184.587       -4121.562          47.000  
  24791190.850     -894521.305        3082.302          41.000  
  20161310.248      459109.734       -1620.800          45.000  
  22597101.194      524194.181       -1839.884          44.000  
 19 10  5 11  2 43.0000000  0 12G 1G22G 3G18G23G28G32G17G 8G19G11G14
  20362805.329      247147.395        -863.806          48.000  
  20684072.842      177516.061        -627.330          44.000  
  20771648.959     -242970.792         802.693          47.000  
  20785397.985      712030.791       -2450.457          45.000  
  23870450.738     -813401.717        2794.000          49.000  
  23813835.740      566916.603       -1963.512          36.000  
  23918666.143      956082.575       -3286.933          34.000  
  23545017.299     -676412.706        2304.768          41.000  
  23308835.408     1146306.499       -4122.005          47.000  
  24790604.000     -897603.113        3082.141          40.000  
  20161619.152      460730.914       -1621.846          45.000  
  22597451.665      526034.186       -1840.073          44.000  
 19 10  5 11  2 44.0000000  0 12G 1G22G 3G18G23G28G32G17G 8G19G11G14
  20362970.164      248011.192        -863.810          49.000  
  20684192.272      178143.280        -627.817          45.000  
  20771496.025     -243773.474         802.042          48.000  
  20785863.801      714481.249       -2450.612          45.000  
  23869919.378     -816195.656        2793.568          50.000  
  23814209.558      568880.191       -1963.355          38.000  
  23919292.082      959368.877       -3286.831          38.000  
  23544579.089     -678717.515        2303.987          41.000  
  23309619.760     1150428.653       -4122.197          48.000  
  24790017.672     -900684.701        3081.534          39.000  
  20161928.753      462352.777       -1622.382          45.000  
  22597802.170      527874.842       -1840.613          41.000  
 19 10  5 11  2 45.0000000  0 12G 1G22G 3G18G23G28G32G17G 8G19G11G14
  20363134.755      248875.362        -864.428          49.000  
  20684312.329      178770.891        -627.802          45.000  
  20771343.161     -244575.741         802.423          48.000  
  20786330.734      716932.108       -2450.951          46.000  
  23869388.298     -818989.463        2794.260          50.000  
  23814583.970      570844.128       -1963.325          37.000  
  23919916.765      962655.665       -3285.599          36.000  
  23544140.216     -681022.005        2304.203          40.000  
  23310404.357     1154551.017       -4121.936          48.000  
  24789431.554     -903766.093        3082.317          41.000  
  20162237.622      463975.233       -1622.265          46.000  
  22598152.535      529716.006       -1841.407          45.000  
 19 10  5 11  2 46.0000000  0 12G 1G22G 3G18G23G28G32G17G 8G19G11G14
  20363299.485      249739.506        -863.637          48.000  
  20684431.828      179398.486        -626.838          44.000  
  20771191.554     -245378.013         801.918          47.000  
  20786796.969      719382.944       -2450.440          45.000  
  23868856.206     -821783.583        2794.535          49.000  
  23814958.836      572808.094       -1963.936          38.000  
  23920542.669      965942.362       -3285.798          38.000  
  23543701.064     -683326.620        2305.498          40.000  
  23311188.988     1158673.156       -4121.690          47.000  
  24788845.925     -906847.762        3081.351          40.000  
  20162546.561      465597.830       -1622.623          45.000  
  22598502.936      531557.373       -1841.044          44.000  
 19 10  5 11  2 47.0000000  0 12G 1G22G 3G18G23G28G32G17G 8G19G11G14
  20363464.075      250603.715        -863.832          49.000  
  20684551.258      180026.102        -627.456          45.000  
  20771038.864     -246180.184         802.221          48.000  
  20787263.169      721833.836       -2450.440          46.000  
  23868325.057     -824577.909        2794.752          50.000  
  23815333.073      574772.169       -1962.599          38.000  
  23921168.574      969229.146       -3286.091          40.000  
  23543262.087     -685631.320        2304.499          40.000  
  23311972.713     1162795.186       -4121.831          48.000  
  24788258.935     -909929.602        3081.188          42.000  
  20162855.151      467220.688       -1623.070          46.000  
  22598853.650      533398.912       -1841.183          44.000  
 19 10  5 11  2 48.0000000  0 12G 1G22G 3G18G23G28G32G17G 8G19G11G14
  20363628.177      251468.410        -865.211          49.000  
  20684670.582      180654.242        -628.523          45.000  
  20770886.629     -246981.831         801.690          48.000  
  20787729.614      724285.200       -2451.495          46.000  
  23867793.104     -827372.020        2794.324          50.000  
  23815707.171      576736.725       -1964.847          39.000  
  23921793.361      972516.382       -3287.985          38.000  
  23542823.458     -687935.589        2303.585          40.000  
  23312757.344     1166917.528       -4122.366          47.000  
  24787672.014     -913011.176        3081.516          41.000  
  20163163.286      468844.241       -1623.899          46.000  
  22599203.527      535241.119       -1842.326          44.000  
 19 10  5 11  2 49.0000000  0 12G 1G22G 3G18G23G28G32G17G 8G19G11G14
  20363792.802      252333.601        -865.299          49.000  
  20684790.535      181282.844        -628.848          44.000  
  20770734.183     -247782.935         801.438          48.000  
  20788195.744      726737.042       -2452.110          45.000  
  23867261.326     -830165.908        2793.871          49.000  
  23816081.478      578701.873       -1963.965          38.000  
  23922419.545      975804.109       -3288.068          38.000  
  23542384.969     -690239.502        2303.656          40.000  
  23313541.836     1171040.169       -4122.900          47.000  
  24787086.140     -916092.467        3081.702          39.000  
  20163472.225      470468.450       -1624.288          45.000  
  22599554.206      537083.966       -1842.953          43.000  
 19 10  5 11  2 50.0000000  0 12G 1G22G 3G18G23G28G32G17G 8G19G11G14
  20363957.253      253198.856        -865.728          49.000  
  20684910.278      181911.532        -628.880          45.000  
  20770581.843     -248583.972         800.861          48.000  
  20788661.979      729188.959       -2451.933          46.000  
  23866729.583     -832960.014        2794.098          50.000  
  23816455.262      580667.078       -1965.119          38.000  
  23923044.786      979091.903       -3288.601          38.000  
  23541946.166     -692543.440        2304.440          40.000  
  23314326.398     1175162.687       -4122.984          47.000  
  24786499.883     -919173.923        3081.436          41.000  
  20163781.757      472092.932       -1624.570          45.000  
  22599904.712      538927.034       -1843.111          44.000  
 19 10  5 11  2 51.0000000  0 12G 1G22G 3G18G23G28G32G17G 8G19G11G14
  20364121.634      254064.060        -865.255          49.000  
  20685029.568      182540.153        -628.754          45.000  
  20770429.328     -249385.013         800.935          48.000  
  20789128.179      731640.829       -2451.816          46.000  
  23866197.282     -835754.421        2794.605          50.000  
  23816828.976      582632.312       -1965.447          38.000  
  23923670.970      982379.659       -3287.193          39.000  
  23541508.130     -694847.568        2304.894          40.000  
  23315110.401     1179284.969       -4122.267          47.000  
  24785913.521     -922255.631        3082.039          40.000  
  20164090.731      473717.571       -1624.543          45.000  
  22600254.937      540770.231       -1842.976          44.000  
 19 10  5 11  2 52.0000000  0 12G 1G22G 3G18G23G28G32G17G 8G19G11G14
  20364286.609      254929.633        -865.731          49.000  
  20685149.451      183169.152        -629.603          45.000  
  20770276.953     -250185.640         800.391          48.000  
  20789594.833      734093.076       -2452.778          45.000  
  23865665.434     -838548.723        2794.054          49.000  
  23817201.991      584597.913       -1966.183          37.000  
  23924296.665      985667.749       -3288.827          39.000  
  23541070.409     -697151.409        2303.883          41.000  
  23315895.417     1183407.423       -4122.571          47.000  
  24785326.984     -925337.196        3081.352          40.000  
  20164399.844      475342.765       -1625.893          45.000  
  22600606.385      542613.957       -1844.090          44.000  
 19 10  5 11  2 53.0000000  0 12G 1G22G 3G18G23G28G32G17G 8G19G11G14
  20364451.269      255795.890        -865.789          49.000  
  20685268.566      183798.831        -629.252          45.000  
  20770124.578     -250985.585         800.101          49.000  
  20790061.382      736545.995       -2452.750          45.000  
  23865133.586     -841342.624        2793.783          50.000  
  23817575.601      586564.291       -1966.224          37.000  
  23924923.058      988956.559       -3288.069          39.000  
  23540632.374     -699454.716        2303.276          41.000  
  23316679.769     1187530.350       -4122.977          47.000  
  24784740.866     -928418.325        3080.909          40.000  
  20164708.713      476968.838       -1626.078          45.000  
  22600956.995      544458.529       -1844.454          44.000  
 19 10  5 11  2 54.0000000  0 12G 1G22G 3G18G23G28G32G17G 8G19G11G14
  20364615.824      256662.016        -866.426          49.000  
  20685388.449      184428.373        -629.924          45.000  
  20769971.958     -251785.611         799.414          48.000  
  20790527.477      738998.781       -2453.285          45.000  
  23864601.878     -844136.912        2794.197          49.000  
  23817949.000      588530.493       -1966.662          37.000  
  23925548.788      992245.178       -3288.686          39.000  
  23540194.303     -701758.224        2303.262          41.000  
  23317464.575     1191652.977       -4122.860          48.000  
  24784154.504     -931499.783        3081.789          41.000  
  20165017.826      478594.967       -1626.461          45.000  
  22601308.616      546303.129       -1845.123          44.000  
 19 10  5 11  2 55.0000000  0 12G 1G22G 3G18G23G28G32G17G 8G19G11G14
  20364780.799      257528.134        -865.833          49.000  
  20685507.913      185057.895        -629.396          45.000  
  20769819.408     -252585.613         800.274          48.000  
  20790993.851      741451.566       -2452.700          45.000  
  23864069.367     -846931.467        2795.087          50.000  
  23818322.121      590496.781       -1966.878          35.000  
  23926175.041      995533.806       -3288.534          39.000  
  23539755.849     -704061.851        2303.924          41.000  
  23318249.556     1195775.392       -4122.219          48.000  
  24783568.491     -934581.481        3081.336          41.000  
  20165327.079      480221.278       -1626.621          45.000  
  22601659.471      548147.876       -1844.753          44.000  
 19 10  5 11  2 56.0000000  0 12G 1G22G 3G18G23G28G32G17G 8G19G11G14
  20364945.773      258394.627        -866.303          49.000  
  20685627.238      185687.804        -629.845          44.000  
  20769667.417     -253385.215         799.920          47.000  
  20791461.238      743904.714       -2453.073          45.000  
  23863537.659     -849725.931        2794.834          48.000  
  23818696.114      592463.459       -1966.040          36.000  
  23926800.841      998822.802       -3289.703          39.000  
  23539317.884     -706365.196        2304.137          41.000  
  23319033.908     1199898.005       -4122.662          47.000  
  24782981.151     -937663.036        3081.503          41.000  
  20165636.890      481848.159       -1626.816          44.000  
  22602010.918      549993.178       -1845.504          45.000  
 19 10  5 11  2 57.0000000  0 12G 1G22G 3G18G23G28G32G17G 8G19G11G14
  20365111.236      259261.519        -867.078          49.000  
  20685747.365      186318.099        -630.565          45.000  
  20769516.019     -254184.378         799.177          48.000  
  20791928.311      746358.277       -2453.967          45.000  
  23863005.916     -852520.247        2794.387          49.000  
  23819070.735      594430.582       -1967.837          36.000  
  23927427.374     1002112.227       -3289.268          39.000  
  23538880.267     -708668.241        2303.035          41.000  
  23319818.714     1204020.824       -4123.042          47.000  
  24782395.382     -940744.367        3081.461          41.000  
  20165947.120      483475.650       -1627.475          45.000  
  22602362.365      551839.032       -1845.962          45.000  
 19 10  5 11  2 58.0000000  0 12G 1G22G 3G18G23G28G32G17G 8G19G11G14
  20365276.141      260128.631        -867.499          50.000  
  20685867.772      186948.623        -630.410          45.000  
  20769363.783     -254983.302         798.718          48.000  
  20792395.523      748812.049       -2453.557          45.000  
  23862474.243     -855314.621        2794.804          49.000  
  23819444.519      596397.932       -1968.059          36.000  
  23928054.011     1005401.814       -3289.791          39.000  
  23538441.987     -710971.206        2303.186          41.000  
  23320603.241     1208143.653       -4122.535          47.000  
  24781808.985     -943825.726        3081.529          41.000  
  20166256.442      485103.532       -1627.636          45.000  
  22602713.882      553685.266       -1846.734          44.000  
 19 10  5 11  2 59.0000000  0 12G 1G22G 3G18G23G28G32G17G 8G19G11G14
  20365441.010      260995.737        -867.401          49.000  
  20685987.550      187579.118        -630.873          45.000  
  20769211.512     -255782.207         798.318          48.000  
  20792863.223      751265.812       -2454.042          46.000  
  23861942.605     -858109.266        2794.791          49.000  
  23819819.419      598365.336       -1968.240          36.000  
  23928679.915     1008691.420       -3290.681          39.000  
  23538003.673     -713274.260        2303.377          41.000  
  23321387.873     1212266.289       -4122.656          47.000  
  24781222.553     -946907.325        3081.223          41.000  
  20166566.323      486731.623       -1628.358          45.000  
  22603064.911      555531.651       -1846.348          44.000  
 19 10  5 11  3  0.0000000  0 12G 1G22G 3G18G23G28G32G17G 8G19G11G14
  20365606.159      261863.153        -867.213          49.000  
  20686107.782      188209.947        -630.466          45.000  
  20769059.661     -256580.731         797.939          48.000  
  20793330.156      753719.895       -2454.157          45.000  
  23861410.373     -860903.868        2795.152          49.000  
  23820193.517      600333.106       -1967.029          36.000  
  23929305.610     1011981.336       -3289.958          39.000  
  23537565.079     -715577.105        2302.565          41.000  
  23322172.086     1216389.045       -4122.880          47.000  
  24780636.470     -949988.818        3081.129          40.000  
  20166876.379      488360.196       -1628.648          45.000  
  22603416.184      557378.526       -1846.757          43.000  
 19 10  5 11  3  1.0000000  0 12G 1G22G 3G18G23G28G32G17G 8G19G11G14
  20365771.727      262730.947        -867.575          49.000  
  20686228.328      188841.110        -630.911          45.000  
  20768907.983     -257378.869         798.456          48.000  
  20793797.299      756174.316       -2454.130          45.000  
  23860878.455     -863698.385        2794.736          49.000  
  23820567.824      602301.239       -1968.644          37.000  
  23929932.492     1015271.586       -3290.532          39.000  
  23537127.428     -717879.688        2303.295          41.000  
  23322956.333     1220511.972       -4122.835          47.000  
  24780049.654     -953070.193        3081.838          40.000  
  20167186.574      489989.332       -1628.896          45.000  
  22603767.666      559225.909       -1847.511          44.000  
 19 10  5 11  3  2.0000000  0 12G 1G22G 3G18G23G28G32G17G 8G19G11G14
  20365937.155      263599.032        -868.025          50.000  
  20686348.944      189472.601        -631.346          45.000  
  20768756.097     -258176.682         797.227          48.000  
  20794265.383      758629.028       -2454.730          46.000  
  23860347.027     -866492.844        2794.931          49.000  
  23820943.283      604269.740       -1968.776          37.000  
  23930558.327     1018562.165       -3290.927          39.000  
  23536689.567     -720182.094        2303.000          41.000  
  23323741.035     1224635.014       -4123.357          47.000  
  24779463.292     -956151.433        3081.786          40.000  
  20167496.525      491618.956       -1629.852          46.000  
  22604119.183      561073.776       -1848.137          44.000  
 19 10  5 11  3  3.0000000  0 12G 1G22G 3G18G23G28G32G17G 8G19G11G14
  20366102.443      264467.298        -868.221          50.000  
  20686469.316      190104.255        -631.554          45.000  
  20768603.966     -258974.286         798.091          49.000  
  20794732.316      761083.930       -2454.579          46.000  
  23859814.620     -869287.408        2795.124          49.000  
  23821317.765      606238.435       -1968.017          37.000  
  23931184.859     1021852.906       -3290.300          39.000  
  23536251.636     -722484.425        2302.878          41.000  
  23324525.527     1228758.029       -4122.814          47.000  
  24778876.581     -959232.790        3081.269          41.000  
  20167807.104      493248.974       -1629.726          45.000  
  22604470.561      562921.963       -1847.805          44.000  
 19 10  5 11  3  4.0000000  0 12G 1G22G 3G18G23G28G32G17G 8G19G11G14
  20366267.243      265335.773        -868.512          50.000  
  20686589.792      190736.104        -632.031          45.000  
  20768452.184     -259771.665         797.566          48.000  
  20795199.703      763539.033       -2455.018          46.000  
  23859283.296     -872082.025        2794.934          49.000  
  23821692.037      608207.355       -1968.623          37.000  
  23931810.589     1025143.828       -3291.263          39.000  
  23535813.566     -724786.630        2302.916          41.000  
  23325310.228     1232881.047       -4122.679          47.000  
  24778290.393     -962314.100        3081.269          40.000  
  20168117.089      494879.373       -1630.203          46.000  
  22604822.637      564770.523       -1848.679          44.000  
 19 10  5 11  3  5.0000000  0 12G 1G22G 3G18G23G28G32G17G 8G19G11G14
  20366432.427      266204.596        -868.940          49.000  
  20686710.129      191368.302        -632.608          45.000  
  20768300.681     -260568.654         796.512          46.000  
  20795667.159      765994.494       -2455.544          45.000  
  23858751.588     -874876.585        2794.291          48.000  
  23822066.693      610176.671       -1969.895          36.000  
  23932437.680     1028435.113       -3291.164          39.000  
  23535375.112     -727088.612        2301.931          41.000  
  23326094.720     1237004.251       -4123.623          46.000  
  24777703.717     -965395.294        3081.171          40.000  
  20168427.180      496510.327       -1631.086          44.000  
  22605174.642      566619.613       -1849.309          43.000  
 19 10  5 11  3  6.0000000  0 12G 1G22G 3G18G23G28G32G17G 8G19G11G14
  20366597.506      267073.688        -869.129          49.000  
  20686830.221      192000.781        -632.785          45.000  
  20768148.236     -261365.318         796.526          48.000  
  20796133.848      768450.217       -2455.653          46.000  
  23858219.531     -877671.106        2794.807          49.000  
  23822442.013      612146.320       -1969.746          37.000  
  23933063.515     1031726.636       -3291.542          39.000  
  23534937.041     -729390.407        2301.703          41.000  
  23326879.805     1241127.507       -4123.291          48.000  
  24777116.761     -968476.453        3080.855          40.000  
  20168737.549      498141.737       -1631.501          45.000  
  22605526.892      568469.113       -1849.087          45.000  
 19 10  5 11  3  7.0000000  0 12G 1G22G 3G18G23G28G32G17G 8G19G11G14
  20366763.074      267942.796        -868.356          49.000  
  20686950.523      192633.259        -631.892          45.000  
  20767997.222     -262161.959         797.257          48.000  
  20796601.444      770905.935       -2455.146          46.000  
  23857687.544     -880465.904        2795.407          49.000  
  23822817.227      614115.988       -1969.837          37.000  
  23933689.733     1035018.201       -3290.766          39.000  
  23534498.657     -731692.319        2302.797          41.000  
  23327664.262     1245250.636       -4121.878          48.000  
  24776530.259     -971557.794        3081.417          40.000  
  20169047.779      499773.360       -1630.941          45.000  
  22605879.247      570318.787       -1849.270          44.000  
 19 10  5 11  3  8.0000000  0 12G 1G22G 3G18G23G28G32G17G 8G19G11G14
  20366928.327      268811.953        -869.390          49.000  
  20687070.650      193265.795        -632.593          45.000  
  20767845.440     -262958.523         796.188          48.000  
  20797068.202      773361.662       -2456.076          46.000  
  23857156.080     -883260.916        2795.137          49.000  
  23823191.848      616085.762       -1969.203          37.000  
  23934315.708     1038309.801       -3291.900          39.000  
  23534061.110     -733994.233        2302.477          41.000  
  23328448.929     1249373.560       -4123.325          47.000  
  24775943.513     -974639.333        3081.900          40.000  
  20169358.707      501405.201       -1632.203          45.000  
  22606230.764      572168.675       -1850.406          44.000  
 19 10  5 11  3  9.0000000  0 12G 1G22G 3G18G23G28G32G17G 8G19G11G14
  20367094.244      269681.498        -869.224          49.000  
  20687191.545      193898.694        -632.750          46.000  
  20767693.937     -263754.639         796.147          48.000  
  20797535.345      775817.814       -2456.512          46.000  
  23856624.616     -886055.786        2794.996          49.000  
  23823567.133      618055.959       -1968.953          37.000  
  23934941.856     1041601.767       -3291.374          39.000  
  23533623.075     -736295.900        2302.113          40.000  
  23329233.944     1253496.678       -4122.715          48.000  
  24775357.430     -977720.713        3081.775          40.000  
  20169669.705      503037.647       -1632.713          45.000  
  22606583.224      574019.116       -1850.517          44.000  
 19 10  5 11  3 10.0000000  0 12G 1G22G 3G18G23G28G32G17G 8G19G11G14
  20367259.951      270551.466        -870.447          49.000  
  20687311.847      194532.045        -633.773          45.000  
  20767542.713     -264550.330         794.828          48.000  
  20798002.976      778274.410       -2456.929          45.000  
  23856092.489     -888850.503        2794.418          48.000  
  23823942.871      620026.586       -1970.249          37.000  
  23935568.389     1044894.172       -3292.913          39.000  
  23533185.458     -738597.252        2301.844          40.000  
  23330018.262     1257620.015       -4123.584          48.000  
  24774771.103     -980801.836        3080.702          40.000  
  20169980.947      504670.727       -1633.592          44.000  
  22606935.858      575870.154       -1851.402          44.000  
 19 10  5 11  3 11.0000000  0 12G 1G22G 3G18G23G28G32G17G 8G19G11G14
  20367425.484      271421.534        -870.577          48.000  
  20687432.777      195165.468        -634.479          45.000  
  20767391.001     -265345.869         795.011          47.000  
  20798470.851      780731.072       -2457.470          45.000  
  23855560.153     -891645.386        2794.829          47.000  
  23824318.260      621997.437       -1969.403          35.000  
  23936195.096     1048186.649       -3292.891          38.000  
  23532747.946     -740898.630        2299.724          39.000  
  23330802.614     1261743.285       -4123.697          48.000  
  24774184.427     -983883.145        3080.687          38.000  
  20170291.735      506304.083       -1633.983          45.000  
  22607287.724      577721.431       -1851.975          43.000  
 19 10  5 11  3 12.0000000  0 12G 1G22G 3G18G23G28G32G17G 8G19G11G14
  20367590.807      272291.635        -869.970          48.000  
  20687553.079      195798.967        -633.285          46.000  
  20767240.091     -266141.351         795.529          48.000  
  20798938.098      783187.801       -2456.827          45.000  
  23855028.235     -894440.475        2795.034          48.000  
  23824693.719      623968.283       -1970.598          37.000  
  23936822.117     1051479.159       -3292.736          39.000  
  23532310.225     -743200.062        2300.850          40.000  
  23331587.211     1265866.416       -4122.662          48.000  
  24773598.378     -986964.531        3081.989          40.000  
  20170602.733      507937.656       -1633.620          45.000  
  22607639.904      579572.925       -1851.808          44.000  
 19 10  5 11  3 13.0000000  0 12G 1G22G 3G18G23G28G32G17G 8G19G11G14
  20367756.689      273162.166        -870.350          50.000  
  20687673.799      196432.838        -633.338          46.000  
  20767088.763     -266936.384         795.534          48.000  
  20799405.485      785644.911       -2456.697          45.000  
  23854496.318     -897235.478        2795.174          49.000  
  23825069.352      625939.592       -1969.975          38.000  
  23937448.929     1054772.046       -3292.228          39.000  
  23531871.806     -745501.157        2301.819          40.000  
  23332372.436     1269989.724       -4122.916          49.000  
  24773012.156     -990045.861        3081.314          39.000  
  20170913.696      509571.852       -1633.791          45.000  
  22607991.980      581424.988       -1852.152          44.000  
 19 10  5 11  3 14.0000000  0 12G 1G22G 3G18G23G28G32G17G 8G19G11G14
  20367922.396      274033.050        -871.353          50.000  
  20687794.660      197067.043        -634.883          45.000  
  20766937.609     -267731.031         794.139          48.000  
  20799873.499      788102.374       -2457.942          45.000  
  23853964.540     -900030.328        2794.674          48.000  
  23825444.427      627911.268       -1971.440          38.000  
  23938075.601     1058065.357       -3293.686          39.000  
  23531434.050     -747802.060        2299.936          41.000  
  23333156.369     1274113.225       -4124.208          49.000  
  24772425.619     -993126.948        3080.973          40.000  
  20171224.659      511206.568       -1634.943          45.000  
  22608344.544      583277.577       -1852.184          44.000  
 19 10  5 11  3 15.0000000  0 12G 1G22G 3G18G23G28G32G17G 8G19G11G14
  20368088.802      274904.152        -871.057          50.000  
  20687915.345      197701.486        -634.294          45.000  
  20766786.037     -268525.416         794.459          48.000  
  20800341.130      790560.062       -2457.864          46.000  
  23853432.936     -902825.250        2794.912          49.000  
  23825820.061      629883.211       -1972.079          38.000  
  23938702.867     1061358.821       -3293.127          39.000  
  23530996.747     -750102.812        2300.686          40.000  
  23333940.757     1278236.747       -4123.557          48.000  
  24771839.187     -996208.080        3080.839          41.000  
  20171535.552      512841.736       -1635.325          45.000  
  22608697.353      585130.529       -1853.535          44.000  
 19 10  5 11  3 16.0000000  0 12G 1G22G 3G18G23G28G32G17G 8G19G11G14
  20368254.614      275775.183        -870.907          50.000  
  20688035.682      198335.863        -634.462          45.000  
  20766635.162     -269319.858         794.408          48.000  
  20800808.412      793017.668       -2457.961          46.000  
  23852900.565     -905620.530        2795.599          48.000  
  23826195.171      631855.130       -1971.658          38.000  
  23939329.574     1064652.241       -3292.930          39.000  
  23530559.131     -752403.717        2301.503          40.000  
  23334724.970     1282360.030       -4123.027          48.000  
  24771253.174     -999289.507        3080.620          40.000  
  20171846.899      514477.017       -1634.854          45.000  
  22609050.266      586983.584       -1852.846          44.000  
 19 10  5 11  3 17.0000000  0 12G 1G22G 3G18G23G28G32G17G 8G19G11G14
  20368420.565      276646.640        -871.782          49.000  
  20688156.403      198970.659        -635.211          44.000  
  20766483.904     -270113.824         793.631          47.000  
  20801276.636      795475.704       -2458.143          45.000  
  23852368.857     -908415.638        2794.662          47.000  
  23826570.839      633827.511       -1972.906          38.000  
  23939955.827     1067946.063       -3294.186          39.000  
  23530121.305     -754704.305        2300.679          40.000  
  23335508.868     1286483.531       -4123.491          46.000  
  24770666.707    -1002370.705        3081.072          39.000  
  20172157.966      516112.929       -1636.083          44.000  
  22609403.074      588837.222       -1854.299          43.000  
 19 10  5 11  3 18.0000000  0 12G 1G22G 3G18G23G28G32G17G 8G19G11G14
  20368586.307      277518.538        -872.122          50.000  
  20688277.542      199605.894        -634.908          44.000  
  20766333.064     -270907.341         793.243          48.000  
  20801744.058      797934.168       -2458.448          45.000  
  23851836.869     -911210.564        2794.775          47.000  
  23826946.647      635800.336       -1973.193          37.000  
  23940582.430     1071240.347       -3293.910          38.000  
  23529683.514     -757004.580        2300.065          40.000  
  23336293.500     1290607.269       -4123.957          47.000  
  24770079.961    -1005451.711        3081.449          39.000  
  20172469.383      517749.453       -1637.032          45.000  
  22609755.953      590691.463       -1854.769          44.000  
 19 10  5 11  3 19.0000000  0 12G 1G22G 3G18G23G28G32G17G 8G19G11G14
  20368751.701      278390.619        -872.127          50.000  
  20688398.263      200241.295        -635.354          45.000  
  20766181.910     -271700.620         793.185          48.000  
  20802212.038      800392.828       -2458.787          46.000  
  23851304.882     -914005.577        2794.635          48.000  
  23827321.826      637773.409       -1973.545          38.000  
  23941210.009     1074534.764       -3294.952          39.000  
  23529245.897     -759304.750        2300.126          41.000  
  23337078.236     1294730.996       -4123.923          47.000  
  24769493.703    -1008532.719        3080.923          39.000  
  20172781.044      519386.352       -1637.192          45.000  
  22610108.552      592546.064       -1854.993          44.000  
 19 10  5 11  3 20.0000000  0 12G 1G22G 3G18G23G28G32G17G 8G19G11G14
  20368917.408      279262.737        -872.472          50.000  
  20688518.948      200876.745        -635.649          45.000  
  20766031.699     -272493.827         793.114          48.000  
  20802680.053      802851.531       -2458.949          46.000  
  23850773.558     -916800.799        2794.937          48.000  
  23827697.006      639746.559       -1972.031          37.000  
  23941836.961     1077829.248       -3294.412          39.000  
  23528807.862     -761604.987        2299.460          41.000  
  23337862.798     1298854.591       -4123.822          47.000  
  24768907.725    -1011613.918        3080.556          40.000  
  20173092.321      521023.513       -1637.927          45.000  
  22610461.535      594400.851       -1854.934          44.000  
 19 10  5 11  3 21.0000000  0 12G 1G22G 3G18G23G28G32G17G 8G19G11G14
  20369083.359      280135.338        -873.104          50.000  
  20688639.425      201512.661        -636.402          45.000  
  20765880.685     -273286.538         792.482          49.000  
  20803147.823      805310.683       -2459.560          46.000  
  23850241.291     -919595.826        2794.819          48.000  
  23828071.907      641720.199       -1974.321          37.000  
  23942463.807     1081124.157       -3295.890          39.000  
  23528370.280     -763904.851        2299.769          41.000  
  23338647.430     1302978.466       -4124.184          47.000  
  24768321.817    -1014694.878        3080.727          39.000  
  20173404.366      522661.322       -1638.418          46.000  
  22610814.169      596256.283       -1855.751          44.000  
 19 10  5 11  3 22.0000000  0 12G 1G22G 3G18G23G28G32G17G 8G19G11G14
  20369249.346      281008.439        -873.297          49.000  
  20688760.739      202149.069        -636.801          45.000  
  20765729.810     -274078.720         791.738          48.000  
  20803616.257      807770.330       -2459.552          46.000  
  23849709.479     -922390.605        2794.620          48.000  
  23828447.400      643694.369       -1975.173          37.000  
  23943090.724     1084419.594       -3295.165          39.000  
  23527932.594     -766204.335        2299.208          41.000  
  23339432.550     1307102.629       -4124.159          47.000  
  24767735.943    -1017775.553        3080.584          39.000  
  20173716.620      524299.824       -1638.341          46.000  
  22611167.466      598112.371       -1856.494          44.000  
 19 10  5 11  3 23.0000000  0 12G 1G22G 3G18G23G28G32G17G 8G19G11G14
  20369415.646      281881.745        -873.535          49.000  
  20688881.983      202785.692        -636.402          45.000  
  20765578.970     -274870.654         791.920          48.000  
  20804083.818      810230.173       -2460.134          46.000  
  23849177.980     -925185.474        2794.455          48.000  
  23828822.650      645668.815       -1974.285          37.000  
  23943717.396     1087715.213       -3295.942          39.000  
  23527495.012     -768503.713        2299.477          41.000  
  23340217.321     1311226.834       -4124.111          47.000  
  24767149.336    -1020856.238        3080.034          39.000  
  20174028.385      525938.736       -1639.429          45.000  
  22611520.763      599968.825       -1856.551          44.000  
 19 10  5 11  3 24.0000000  0 12G 1G22G 3G18G23G28G32G17G 8G19G11G14
  20369581.668      282755.159        -873.786          49.000  
  20689003.401      203422.424        -636.606          45.000  
  20765428.724     -275662.440         791.701          48.000  
  20804552.042      812690.134       -2460.222          46.000  
  23848646.272     -927980.467        2794.436          48.000  
  23829198.423      647643.404       -1974.700          36.000  
  23944344.592     1091010.947       -3296.002          38.000  
  23527058.128     -770803.081        2298.874          41.000  
  23341002.371     1315350.962       -4124.329          47.000  
  24766563.079    -1023937.028        3080.821          39.000  
  20174340.535      527577.946       -1639.419          45.000  
  22611873.467      601825.525       -1857.861          44.000  
 19 10  5 11  3 25.0000000  0 12G 1G22G 3G18G23G28G32G17G 8G19G11G14
  20369747.584      283628.715        -874.050          49.000  
  20689124.192      204059.266        -637.004          45.000  
  20765278.094     -276454.069         791.331          49.000  
  20805019.708      815150.235       -2460.334          46.000  
  23848114.459     -930775.604        2795.104          48.000  
  23829573.812      649618.108       -1975.501          37.000  
  23944970.357     1094306.790       -3296.311          39.000  
  23526620.512     -773102.421        2299.356          42.000  
  23341787.422     1319475.005       -4124.543          47.000  
  24765976.717    -1027017.893        3081.259          39.000  
  20174652.266      529217.468       -1639.983          46.000  
  22612226.973      603682.533       -1857.738          44.000  
 19 10  5 11  3 26.0000000  0 12G 1G22G 3G18G23G28G32G17G 8G19G11G14
  20369913.745      284502.853        -874.027          49.000  
  20689245.890      204696.708        -637.192          45.000  
  20765127.952     -277245.068         791.416          49.000  
  20805487.758      817610.931       -2460.643          46.000  
  23847582.611     -933570.421        2795.219          48.000  
  23829949.550      651593.480       -1974.844          37.000  
  23945597.099     1097603.224       -3297.389          38.000  
  23526182.651     -775401.280        2299.379          42.000  
  23342571.704     1323599.465       -4124.117          47.000  
  24765390.180    -1030098.407        3080.679          39.000  
  20174963.892      530857.791       -1640.367          46.000  
  22612580.410      605540.313       -1857.063          44.000  
 19 10  5 11  3 27.0000000  0 12G 1G22G 3G18G23G28G32G17G 8G19G11G14
  20370080.081      285377.410        -874.844          49.000  
  20689366.750      205334.556        -637.649          45.000  
  20764976.973     -278035.624         790.513          48.000  
  20805956.157      820072.051       -2461.237          46.000  
  23847050.694     -936365.076        2794.831          48.000  
  23830325.463      653569.299       -1975.451          37.000  
  23946223.771     1100900.074       -3297.111          38.000  
  23525745.453     -777699.843        2298.530          42.000  
  23343356.720     1327724.148       -4124.201          47.000  
  24764804.202    -1033178.687        3079.945          39.000  
  20175276.320      532498.747       -1640.574          46.000  
  22612933.498      607398.648       -1858.457          44.000  
 19 10  5 11  3 28.0000000  0 12G 1G22G 3G18G23G28G32G17G 8G19G11G14
  20370247.045      286252.021        -874.034          49.000  
  20689487.540      205972.442        -637.944          44.000  
  20764826.691     -278826.114         790.837          47.000  
  20806424.381      822533.215       -2460.625          45.000  
  23846518.671     -939159.959        2795.259          47.000  
  23830701.515      655545.205       -1976.252          37.000  
  23946851.071     1104196.947       -3295.802          37.000  
  23525308.290     -779998.463        2298.318          40.000  
  23344141.735     1331848.666       -4124.062          46.000  
  24764218.014    -1036259.171        3080.450          37.000  
  20175588.540      534139.904       -1640.766          45.000  
  22613287.249      609257.204       -1858.787          43.000  
 19 10  5 11  3 29.0000000  0 12G 1G22G 3G18G23G28G32G17G 8G19G11G14
  20370413.240      287126.697        -875.007          50.000  
  20689608.435      206610.414        -637.957          45.000  
  20764676.061     -279616.488         790.170          49.000  
  20806893.408      824994.460       -2461.534          46.000  
  23845986.824     -941955.024        2794.890          49.000  
  23831078.265      657521.210       -1976.611          38.000  
  23947477.988     1107493.872       -3296.999          38.000  
  23524870.639     -782297.058        2297.946          42.000  
  23344926.855     1335973.058       -4124.578          47.000  
  24763632.245    -1039339.783        3080.634          39.000  
  20175900.933      535781.334       -1641.930          46.000  
  22613641.244      611115.999       -1859.284          44.000  
 19 10  5 11  3 30.0000000  0 12G 1G22G 3G18G23G28G32G17G 8G19G11G14
  20370580.030      288001.928        -875.345          50.000  
  20689730.063      207248.915        -638.876          44.000  
  20764525.815     -280406.272         789.686          49.000  
  20807361.807      827456.229       -2462.167          46.000  
  23845454.383     -944749.808        2794.630          49.000  
  23831454.771      659497.783       -1977.162          38.000  
  23948105.184     1110791.356       -3297.745          38.000  
  23524433.511     -784595.254        2297.803          42.000  
  23345711.836     1340097.812       -4124.672          47.000  
  24763045.324    -1042420.089        3079.937          39.000  
  20176213.083      537423.525       -1642.302          46.000  
  22613994.750      612975.506       -1860.234          44.000  
 19 10  5 11  3 31.0000000  0 12G 1G22G 3G18G23G28G32G17G 8G19G11G14
  20370746.854      288877.538        -875.673          50.000  
  20689852.005      207887.788        -638.905          45.000  
  20764375.813     -281195.650         789.463          49.000  
  20807830.973      829918.394       -2461.685          46.000  
  23844923.163     -947544.477        2794.773          49.000  
  23831831.137      661474.776       -1977.119          38.000  
  23948732.449     1114089.230       -3298.570          38.000  
  23523996.313     -786893.121        2297.908          42.000  
  23346496.503     1344222.721       -4124.794          47.000  
  24762459.137    -1045500.207        3079.919          39.000  
  20176525.651      539066.285       -1642.376          46.000  
  22614348.536      614835.548       -1859.697          44.000  
 19 10  5 11  3 32.0000000  0 12G 1G22G 3G18G23G28G32G17G 8G19G11G14
  20370913.713      289752.959        -875.124          50.000  
  20689973.808      208526.490        -638.375          45.000  
  20764225.392     -281985.181         789.423          49.000  
  20808299.651      832380.368       -2461.744          46.000  
  23844391.664     -950339.609        2795.637          49.000  
  23832208.132      663451.644       -1976.381          39.000  
  23949360.203     1117386.895       -3297.735          38.000  
  23523559.081     -789191.336        2298.215          42.000  
  23347281.274     1348347.260       -4124.190          48.000  
  24761872.740    -1048580.740        3080.849          39.000  
  20176838.673      540709.043       -1642.547          46.000  
  22614702.391      616695.562       -1859.802          44.000  
 19 10  5 11  3 33.0000000  0 12G 1G22G 3G18G23G28G32G17G 8G19G11G14
  20371079.664      290628.344        -876.148          50.000  
  20690095.052      209165.143        -639.734          45.000  
  20764075.599     -282774.731         789.041          49.000  
  20808768.294      834842.280       -2462.857          46.000  
  23843859.398     -953135.055        2794.701          49.000  
  23832584.917      665428.494       -1978.119          39.000  
  23949987.190     1120684.493       -3298.935          37.000  
  23523121.848     -791489.651        2297.543          42.000  
  23348066.219     1352471.564       -4124.794          47.000  
  24761287.040    -1051661.542        3081.305          40.000  
  20177150.962      542351.950       -1643.807          46.000  
  22615056.142      618555.688       -1860.863          44.000  
 19 10  5 11  3 34.0000000  0 12G 1G22G 3G18G23G28G32G17G 8G19G11G14
  20371246.453      291504.312        -876.223          49.000  
  20690216.715      209804.369        -639.642          45.000  
  20763925.178     -283563.661         788.672          48.000  
  20809237.426      837304.793       -2462.815          46.000  
  23843327.515     -955930.163        2794.983          48.000  
  23832961.458      667405.973       -1977.378          39.000  
  23950613.792     1123982.691       -3298.201          37.000  
  23522684.790     -793787.504        2297.705          42.000  
  23348851.235     1356596.271       -4124.881          47.000  
  24760701.411    -1054741.986        3080.186          39.000  
  20177463.530      543995.630       -1644.195          44.000  
  22615410.731      620416.563       -1861.194          44.000  
 19 10  5 11  3 35.0000000  0 12G 1G22G 3G18G23G28G32G17G 8G19G11G14
  20371413.208      292380.832        -876.746          49.000  
  20690338.727      210444.144        -639.913          45.000  
  20763775.316     -284351.999         788.781          48.000  
  20809705.859      839767.840       -2462.901          46.000  
  23842795.388     -958725.018        2794.759          48.000  
  23833338.103      669384.005       -1977.768          39.000  
  23951241.825     1127281.415       -3299.462          38.000  
  23522247.487     -796084.922        2297.746          42.000  
  23349636.076     1360721.316       -4124.891          47.000  
  24760115.363    -1057822.074        3080.605          39.000  
  20177776.413      545640.052       -1644.316          45.000  
  22615765.145      622278.137       -1861.712          44.000  
 19 10  5 11  3 36.0000000  0 12G 1G22G 3G18G23G28G32G17G 8G19G11G14
  20371579.578      293257.513        -876.442          49.000  
  20690460.774      211084.071        -639.753          45.000  
  20763625.174     -285140.161         788.649          48.000  
  20810174.468      842231.054       -2463.272          46.000  
  23842263.785     -961519.954        2795.174          49.000  
  23833714.330      671362.228       -1978.218          38.000  
  23951869.265     1130580.281       -3298.125          37.000  
  23521810.010     -798382.265        2297.621          41.000  
  23350421.266     1364846.349       -4124.667          47.000  
  24759529.001    -1060902.246        3079.650          39.000  
  20178089.121      547284.838       -1644.283          45.000  
  22616119.384      624140.052       -1861.547          44.000  
 19 10  5 11  3 37.0000000  0 12G 1G22G 3G18G23G28G32G17G 8G19G11G14
  20371746.612      294134.153        -877.172          48.000  
  20690582.611      211723.959        -640.451          45.000  
  20763474.893     -285928.314         787.728          48.000  
  20810643.006      844694.225       -2463.694          45.000  
  23841731.693     -964315.191        2794.789          48.000  
  23834089.998      673340.470       -1978.452          37.000  
  23952497.334     1133879.123       -3299.500          37.000  
  23521372.289     -800679.754        2297.304          41.000  
  23351206.142     1368971.165       -4125.294          47.000  
  24758942.988    -1063982.654        3078.484          39.000  
  20178402.143      548929.755       -1645.662          45.000  
  22616473.449      626002.084       -1862.500          44.000  
 19 10  5 11  3 38.0000000  0 12G 1G22G 3G18G23G28G32G17G 8G19G11G14
  20371913.401      295011.679        -877.807          48.000  
  20690704.449      212364.711        -641.055          45.000  
  20763325.449     -286715.589         787.121          47.000  
  20811112.277      847158.240       -2464.367          46.000  
  23841199.950     -967109.822        2794.446          48.000  
  23834465.387      675319.594       -1978.479          37.000  
  23953124.844     1137178.805       -3299.614          37.000  
  23520934.917     -802976.490        2296.506          41.000  
  23351991.122     1373096.628       -4125.089          47.000  
  24758356.590    -1067062.414        3079.529          38.000  
  20178715.444      550575.757       -1646.235          45.000  
  22616828.177      627865.128       -1862.548          44.000  
 19 10  5 11  3 39.0000000  0 12G 1G22G 3G18G23G28G32G17G 8G19G11G14
  20372080.155      295889.626        -878.730          49.000  
  20690826.740      213005.911        -641.769          45.000  
  20763175.657     -287502.378         786.248          48.000  
  20811580.711      849622.708       -2464.969          46.000  
  23840668.660     -969904.286        2794.175          49.000  
  23834841.020      677299.223       -1980.662          37.000  
  23953753.819     1140478.935       -3300.348          38.000  
  23520497.719     -805272.878        2295.904          41.000  
  23352776.243     1377222.336       -4125.910          47.000  
  24757770.507    -1070141.953        3079.266          37.000  
  20179029.094      552222.393       -1647.145          45.000  
  22617182.486      629728.794       -1864.220          44.000  
 19 10  5 11  3 40.0000000  0 12G 1G22G 3G18G23G28G32G17G 8G19G11G14
  20372246.979      296767.895        -878.539          49.000  
  20690948.891      213647.402        -641.966          45.000  
  20763026.004     -288288.829         785.770          48.000  
  20812048.935      852087.476       -2465.219          46.000  
  23840136.882     -972698.688        2794.126          49.000  
  23835216.549      679279.182       -1979.864          36.000  
  23954382.027     1143779.356       -3300.749          38.000  
  23520060.626     -807569.071        2295.916          41.000  
  23353560.979     1381348.143       -4126.070          47.000  
  24757184.006    -1073221.379        3080.048          38.000  
  20179342.291      553869.516       -1648.059          45.000  
  22617537.284      631592.915       -1864.744          44.000  
 19 10  5 11  3 41.0000000  0 12G 1G22G 3G18G23G28G32G17G 8G19G11G14
  20372413.454      297646.053        -877.750          49.000  
  20691071.287      214288.812        -640.994          45.000  
  20762876.001     -289075.332         786.779          48.000  
  20812517.508      854552.149       -2464.252          45.000  
  23839605.000     -975493.457        2794.992          49.000  
  23835591.938      681259.045       -1980.251          35.000  
  23955010.863     1147079.662       -3301.013          38.000  
  23519622.800     -809865.436        2296.654          41.000  
  23354345.645     1385473.667       -4125.421          46.000  
  24756598.062    -1076301.122        3080.486          38.000  
  20179655.836      555516.753       -1647.645          45.000  
  22617892.117      633457.131       -1863.760          44.000  
 19 10  5 11  3 42.0000000  0 12G 1G22G 3G18G23G28G32G17G 8G19G11G14
  20372580.767      298524.485        -878.548          49.000  
  20691193.229      214930.451        -641.961          45.000  
  20762726.453     -289861.548         785.761          49.000  
  20812986.186      857017.075       -2465.369          45.000  
  23839073.571     -978288.227        2794.388          49.000  
  23835967.537      683239.213       -1980.363          35.000  
  23955639.420     1150380.226       -3300.526          38.000  
  23519184.974     -812161.648        2295.556          40.000  
  23355130.451     1389599.257       -4125.979          46.000  
  24756012.293    -1079380.845        3078.939          38.000  
  20179969.277      557164.442       -1648.362          45.000  
  22618247.264      635321.751       -1865.424          44.000  
 19 10  5 11  3 43.0000000  0 12G 1G22G 3G18G23G28G32G17G 8G19G11G14
  20372747.905      299403.571        -879.191          48.000  
  20691315.695      215572.738        -642.170          45.000  
  20762577.009     -290647.097         785.601          48.000  
  20813455.178      859482.635       -2465.763          46.000  
  23838541.618     -981082.610        2794.243          49.000  
  23836343.833      685220.054       -1981.467          35.000  
  23956267.558     1153681.433       -3301.549          38.000  
  23518747.881     -814457.349        2295.293          39.000  
  23355915.572     1393725.311       -4126.187          46.000  
  24755426.350    -1082460.139        3078.558          38.000  
  20180282.857      558812.966       -1649.045          45.000  
  22618602.341      637187.156       -1865.454          43.000  
 19 10  5 11  3 44.0000000  0 12G 1G22G 3G18G23G28G32G17G 8G19G11G14
  20372915.881      300282.949        -879.898          49.000  
  20691438.265      216215.326        -643.148          45.000  
  20762427.566     -291432.289         784.676          49.000  
  20813924.275      861948.519       -2466.681          46.000  
  23838009.875     -983876.959        2793.856          49.000  
  23836721.002      687201.257       -1981.234          35.000  
  23956896.150     1156982.927       -3301.658          38.000  
  23518310.788     -816752.799        2295.270          40.000  
  23356701.355     1397851.466       -4126.726          46.000  
  24754840.232    -1085539.308        3077.984          38.000  
  20180596.438      560461.987       -1649.606          45.000  
  22618956.929      639053.040       -1866.849          44.000  
 19 10  5 11  3 45.0000000  0 12G 1G22G 3G18G23G28G32G17G 8G19G11G14
  20373083.333      301162.610        -879.575          49.000  
  20691560.556      216858.209        -643.149          45.000  
  20762278.331     -292217.190         784.716          49.000  
  20814393.581      864414.661       -2466.157          46.000  
  23837477.958     -986671.285        2794.482          49.000  
  23837098.067      689182.742       -1981.852          35.000  
  23957524.183     1160284.697       -3302.113          38.000  
  23517873.904     -819048.086        2295.705          40.000  
  23357486.301     1401977.725       -4126.104          47.000  
  24754253.800    -1088618.438        3079.128          38.000  
  20180910.542      562111.489       -1649.866          45.000  
  22619312.599      640919.382       -1866.150          44.000  
 19 10  5 11  3 46.0000000  0 12G 1G22G 3G18G23G28G32G17G 8G19G11G14
  20373250.332      302042.540        -880.592          49.000  
  20691682.778      217501.336        -643.564          45.000  
  20762129.167     -293001.780         783.999          49.000  
  20814862.748      866881.070       -2466.918          46.000  
  23836945.726     -989465.611        2793.869          48.000  
  23837475.724      691164.560       -1982.935          35.000  
  23958152.216     1163586.720       -3303.112          38.000  
  23517437.440     -821343.206        2294.606          40.000  
  23358271.386     1406104.044       -4127.003          47.000  
  24753668.136    -1091697.526        3079.230          38.000  
  20181224.925      563761.439       -1650.602          45.000  
  22619667.956      642786.137       -1866.982          44.000  
 19 10  5 11  3 47.0000000  0 12G 1G22G 3G18G23G28G32G17G 8G19G11G14
  20373418.552      302923.222        -880.786          49.000  
  20691805.383      218145.196        -644.106          45.000  
  20761979.933     -293785.594         783.531          49.000  
  20815332.089      869348.189       -2467.571          46.000  
  23836414.018     -992259.455        2793.728          49.000  
  23837853.696      693147.127       -1982.230          36.000  
  23958780.808     1166889.458       -3303.290          38.000  
  23517000.870     -823637.695        2294.159          40.000  
  23359056.890     1410230.910       -4126.980          47.000  
  24753082.157    -1094776.062        3078.385          36.000  
  20181538.331      565412.348       -1651.428          45.000  
  22620023.102      644653.797       -1867.779          45.000  
 19 10  5 11  3 48.0000000  0 12G 1G22G 3G18G23G28G32G17G 8G19G11G14
  20373586.388      303804.061        -880.851          49.000  
  20691927.988      218789.248        -643.845          45.000  
  20761830.698     -294569.217         783.587          49.000  
  20815802.233      871815.513       -2467.063          46.000  
  23835882.624     -995053.395        2793.939          49.000  
  23838231.982      695129.908       -1983.484          37.000  
  23959410.168     1170192.397       -3303.914          39.000  
  23516564.056     -825932.125        2293.901          40.000  
  23359841.975     1414357.745       -4126.435          47.000  
  24752496.284    -1097854.676        3079.371          37.000  
  20181852.505      567063.595       -1651.653          45.000  
  22620378.773      646521.777       -1868.039          45.000  
 19 10  5 11  3 49.0000000  0 12G 1G22G 3G18G23G28G32G17G 8G19G11G14
  20373754.120      304684.820        -881.247          49.000  
  20692050.314      219433.204        -643.746          45.000  
  20761681.150     -295352.868         783.748          48.000  
  20816272.202      874282.751       -2467.346          46.000  
  23835350.392     -997847.692        2794.149          48.000  
  23838610.477      697112.647       -1982.932          37.000  
  23960038.969     1173495.221       -3302.538          38.000  
  23516127.068     -828226.701        2293.909          40.000  
  23360627.270     1418484.306       -4126.628          47.000  
  24751910.236    -1100933.536        3079.948          37.000  
  20182167.027      568714.965       -1651.654          45.000  
  22620734.653      648389.841       -1868.530          44.000  
 19 10  5 11  3 50.0000000  0 12G 1G22G 3G18G23G28G32G17G 8G19G11G14
  20373921.956      305565.828        -881.363          49.000  
  20692173.094      220077.394        -644.498          45.000  
  20761531.951     -296136.262         782.920          48.000  
  20816742.695      876750.224       -2467.886          46.000  
  23834818.580    -1000642.004        2794.104          48.000  
  23838988.658      699095.643       -1984.146          37.000  
  23960667.561     1176798.278       -3303.558          38.000  
  23515690.638     -830521.159        2293.967          40.000  
  23361412.739     1422610.905       -4126.949          47.000  
  24751324.153    -1104012.421        3077.970          38.000  
  20182481.271      570366.770       -1652.082          45.000  
  22621090.288      650258.316       -1869.404          44.000  
 19 10  5 11  3 51.0000000  0 12G 1G22G 3G18G23G28G32G17G 8G19G11G14
  20374090.769      306447.621        -882.095          50.000  
  20692296.013      220722.385        -644.731          45.000  
  20761383.310     -296918.840         782.428          48.000  
  20817213.432      879218.459       -2468.391          46.000  
  23834287.046    -1003435.776        2794.084          48.000  
  23839367.258      701079.487       -1984.551          38.000  
  23961296.641     1180102.123       -3304.384          39.000  
  23515254.382     -832814.943        2293.806          40.000  
  23362198.418     1426738.110       -4127.225          47.000  
  24750738.209    -1107090.695        3077.774          37.000  
  20182796.177      572019.558       -1652.988          45.000  
  22621446.447      652127.720       -1869.623          45.000  
 19 10  5 11  3 52.0000000  0 12G 1G22G 3G18G23G28G32G17G 8G19G11G14
  20374258.605      307329.781        -881.630          49.000  
  20692419.072      221367.691        -645.524          44.000  
  20761234.634     -297701.028         782.700          48.000  
  20817683.436      881687.042       -2468.104          46.000  
  23833755.512    -1006229.482        2794.522          48.000  
  23839746.137      703063.718       -1983.891          39.000  
  23961926.175     1183406.292       -3303.838          39.000  
  23514817.813     -835108.477        2294.615          40.000  
  23362983.992     1430865.446       -4126.955          46.000  
  24750152.894    -1110168.859        3079.094          37.000  
  20183110.875      573672.867       -1652.857          45.000  
  22621802.711      653997.626       -1870.326          44.000  
 19 10  5 11  3 53.0000000  0 12G 1G22G 3G18G23G28G32G17G 8G19G11G14
  20374426.616      308212.037        -882.101          50.000  
  20692541.608      222013.130        -645.148          45.000  
  20761085.888     -298483.077         782.074          49.000  
  20818153.405      884155.744       -2468.576          46.000  
  23833223.874    -1009023.322        2794.323          48.000  
  23840124.737      705048.068       -1984.184          39.000  
  23962555.360     1186710.584       -3304.472          39.000  
  23514381.453     -837401.960        2294.227          40.000  
  23363769.635     1434992.695       -4127.085          47.000  
  24749566.951    -1113247.123        3078.011          37.000  
  20183425.328      575326.501       -1653.148          45.000  
  22622159.323      655867.848       -1869.769          45.000  
 19 10  5 11  3 54.0000000  0 12G 1G22G 3G18G23G28G32G17G 8G19G11G14
  20374594.382      309094.438        -882.785          50.000  
  20692664.562      222658.688        -646.329          45.000  
  20760936.933     -299264.954         781.202          48.000  
  20818623.619      886624.570       -2469.385          47.000  
  23832692.061    -1011817.300        2793.799          49.000  
  23840503.407      707032.595       -1985.218          40.000  
  23963184.231     1190014.953       -3304.812          39.000  
  23513944.429     -839695.445        2293.928          40.000  
  23364555.628     1439119.894       -4127.418          47.000  
  24748981.112    -1116325.466        3076.835          37.000  
  20183739.990      576980.455       -1654.404          45.000  
  22622515.028      657738.321       -1870.585          45.000  
 19 10  5 11  3 55.0000000  0 12G 1G22G 3G18G23G28G32G17G 8G19G11G14
  20374762.323      309977.552        -883.210          50.000  
  20692787.656      223304.966        -646.144          45.000  
  20760788.188     -300046.088         781.190          48.000  
  20819092.820      889094.107       -2469.503          46.000  
  23832160.842    -1014610.815        2793.501          49.000  
  23840882.321      709017.870       -1985.079          40.000  
  23963813.172     1193320.076       -3304.840          39.000  
  23513508.069     -841988.351        2291.959          40.000  
  23365341.237     1443247.613       -4127.737          48.000  
  24748395.273    -1119403.281        3077.683          37.000  
  20184054.478      578635.304       -1655.837          45.000  
  22622870.350      659609.694       -1871.540          44.000  
 19 10  5 11  3 56.0000000  0 12G 1G22G 3G18G23G28G32G17G 8G19G11G14
  20374930.299      310861.024        -883.290          49.000  
  20692909.947      223951.579        -646.045          45.000  
  20760639.582     -300826.831         781.163          48.000  
  20819562.301      891564.006       -2469.649          46.000  
  23831629.517    -1017404.244        2794.060          49.000  
  23841260.711      711003.508       -1985.807          40.000  
  23964441.973     1196625.518       -3304.887          39.000  
  23513072.198     -844280.945        2293.175          40.000  
  23366126.671     1447375.485       -4127.848          47.000  
  24747809.679    -1122481.004        3078.711          37.000  
  20184369.384      580290.732       -1655.175          45.000  
  22623226.613      661481.563       -1871.864          44.000  
 19 10  5 11  3 57.0000000  0 12G 1G22G 3G18G23G28G32G17G 8G19G11G14
  20375098.380      311744.414        -883.484          49.000  
  20693033.494      224598.114        -646.880          44.000  
  20760491.359     -301607.635         780.405          47.000  
  20820031.712      894033.839       -2469.694          45.000  
  23831097.984    -1020197.998        2793.916          48.000  
  23841638.892      712989.141       -1985.149          39.000  
  23965070.983     1199930.878       -3306.112          37.000  
  23512635.942     -846573.723        2292.834          39.000  
  23366912.838     1451503.084       -4127.658          47.000  
  24747224.050    -1125558.985        3078.790          37.000  
  20184684.710      581946.270       -1655.546          44.000  
  22623582.772      663353.534       -1872.579          43.000  
 19 10  5 11  3 58.0000000  0 12G 1G22G 3G18G23G28G32G17G 8G19G11G14
  20375266.390      312627.882        -883.488          49.000  
  20693156.728      225244.717        -646.983          45.000  
  20760342.823     -302388.316         780.753          48.000  
  20820500.704      896503.704       -2470.167          45.000  
  23830566.625    -1022991.956        2793.670          49.000  
  23842017.457      714974.841       -1986.558          40.000  
  23965699.436     1203236.296       -3305.727          38.000  
  23512199.373     -848866.546        2292.830          40.000  
  23367698.552     1455630.551       -4127.725          48.000  
  24746637.862    -1128637.133        3077.867          37.000  
  20184999.442      583602.068       -1656.392          45.000  
  22623939.211      665225.737       -1872.329          44.000  
 19 10  5 11  3 59.0000000  0 12G 1G22G 3G18G23G28G32G17G 8G19G11G14
  20375434.506      313512.012        -884.492          49.000  
  20693279.822      225891.982        -647.703          45.000  
  20760194.112     -303168.320         779.991          48.000  
  20820970.289      898974.247       -2470.968          45.000  
  23830035.056    -1025785.514        2793.612          49.000  
  23842395.150      716961.246       -1986.536          41.000  
  23966328.411     1206542.372       -3306.880          38.000  
  23511763.013     -851158.809        2291.376          41.000  
  23368484.370     1459758.479       -4128.166          48.000  
  24746051.988    -1131714.786        3078.259          37.000  
  20185314.977      585258.735       -1657.031          45.000  
  22624295.753      667098.739       -1873.592          44.000  
 19 10  5 11  4  0.0000000  0 12G 1G22G 3G18G23G28G32G17G 8G19G11G14
  20375602.900      314396.763        -884.506          49.000  
  20693402.811      226539.863        -647.198          45.000  
  20760045.576     -303947.656         779.524          48.000  
  20821440.119      901445.424       -2471.281          45.000  
  23829503.767    -1028578.720        2793.254          49.000  
  23842772.912      718948.305       -1987.057          40.000  
  23966957.910     1209849.049       -3306.834          38.000  
  23511327.001     -853450.520        2292.149          41.000  
  23369270.084     1463886.829       -4128.328          49.000  
  24745466.533    -1134792.087        3078.282          37.000  
  20185630.442      586916.183       -1658.276          45.000  
  22624652.087      668972.532       -1873.699          44.000  
 19 10  5 11  4  1.0000000  0 12G 1G22G 3G18G23G28G32G17G 8G19G11G14
  20375770.667      315281.479        -884.842          49.000  
  20693526.079      227187.696        -647.504          45.000  
  20759896.691     -304727.006         779.747          48.000  
  20821910.018      903916.554       -2471.585          45.000  
  23828972.024    -1031372.216        2793.563          49.000  
  23843151.268      720935.387       -1986.814          40.000  
  23967586.781     1213155.697       -3306.431          38.000  
  23510890.781     -855742.403        2292.669          41.000  
  23370055.029     1468014.939       -4128.100          48.000  
  24744880.520    -1137869.693        3076.293          37.000  
  20185945.767      588573.809       -1658.079          45.000  
  22625008.246      670846.435       -1874.458          44.000  
 19 10  5 11  4  2.0000000  0 12G 1G22G 3G18G23G28G32G17G 8G19G11G14
  20375939.026      316166.203        -884.721          50.000  
  20693648.998      227835.543        -647.909          45.000  
  20759748.364     -305506.294         779.424          48.000  
  20822379.708      906387.688       -2471.429          45.000  
  23828440.420    -1034165.965        2793.785          49.000  
  23843528.821      722922.474       -1987.393          40.000  
  23968216.664     1216462.308       -3307.091          38.000  
  23510455.084     -858034.371        2291.825          41.000  
  23370840.708     1472142.842       -4127.905          48.000  
  24744294.612    -1140947.373        3077.700          37.000  
  20186261.023      590231.654       -1657.887          45.000  
  22625364.754      672720.526       -1874.439          44.000  
 19 10  5 11  4  3.0000000  0 12G 1G22G 3G18G23G28G32G17G 8G19G11G14
  20376107.177      317051.475        -885.679          49.000  
  20693772.651      228483.924        -649.267          45.000  
  20759600.247     -306285.025         778.346          48.000  
  20822849.503      908859.361       -2471.952          45.000  
  23827908.677    -1036959.427        2793.077          48.000  
  23843907.700      724910.143       -1988.435          40.000  
  23968845.256     1219769.471       -3307.314          38.000  
  23510019.596     -860325.881        2290.600          41.000  
  23371625.479     1476271.097       -4128.757          48.000  
  24743708.808    -1144024.813        3077.620          35.000  
  20186576.662      591890.197       -1659.112          45.000  
  22625721.331      674595.307       -1875.336          44.000  
 19 10  5 11  4  4.0000000  0 12G 1G22G 3G18G23G28G32G17G 8G19G11G14
  20376276.060      317937.427        -886.324          50.000  
  20693895.744      229132.992        -649.316          45.000  
  20759452.722     -307063.035         778.054          48.000  
  20823320.135      911331.716       -2472.961          46.000  
  23827377.178    -1039752.480        2792.156          48.000  
  23844286.195      726898.551       -1989.224          40.000  
  23969475.628     1223077.311       -3309.061          38.000  
  23509583.725     -862616.789        2290.863          41.000  
  23372411.158     1480399.856       -4128.926          48.000  
  24743123.283    -1147101.769        3076.561          36.000  
  20186892.686      593549.646       -1659.682          45.000  
  22626078.642      676470.943       -1875.731          44.000  
 19 10  5 11  4  5.0000000  0 12G 1G22G 3G18G23G28G32G17G 8G19G11G14
  20376444.873      318823.526        -886.177          49.000  
  20694019.397      229782.208        -648.938          45.000  
  20759304.570     -307840.864         777.979          48.000  
  20823791.047      913804.204       -2472.354          45.000  
  23826845.715    -1042545.638        2793.381          48.000  
  23844664.551      728887.107       -1988.451          40.000  
  23970105.022     1226385.304       -3308.325          38.000  
  23509148.481     -864907.676        2291.151          41.000  
  23373197.185     1484528.567       -4129.063          48.000  
  24742538.073    -1150178.772        3076.526          37.000  
  20187208.954      595209.414       -1660.034          45.000  
  22626435.429      678346.877       -1875.474          44.000  
 19 10  5 11  4  6.0000000  0 12G 1G22G 3G18G23G28G32G17G 8G19G11G14
  20376613.722      319709.767        -885.690          49.000  
  20694143.119      230431.519        -649.090          45.000  
  20759156.767     -308618.550         778.044          48.000  
  20824262.308      916276.836       -2472.064          46.000  
  23826314.321    -1045338.919        2794.233          48.000  
  23845043.535      730875.835       -1988.986          40.000  
  23970734.905     1229693.369       -3308.740          38.000  
  23508713.413     -867198.544        2291.664          40.000  
  23373982.306     1488657.205       -4128.295          47.000  
  24741952.932    -1153255.844        3077.016          36.000  
  20187525.082      596869.512       -1659.688          45.000  
  22626792.740      680223.111       -1875.981          44.000  
 19 10  5 11  4  7.0000000  0 12G 1G22G 3G18G23G28G32G17G 8G19G11G14
  20376782.186      320596.265        -887.224          49.000  
  20694267.015      231081.111        -650.305          45.000  
  20759008.859     -309395.912         776.575          47.000  
  20824733.324      918749.720       -2473.554          45.000  
  23825782.543    -1048132.234        2792.642          48.000  
  23845421.611      732864.829       -1990.203          41.000  
  23971364.998     1233001.705       -3309.139          37.000  
  23508278.134     -869489.260        2290.333          42.000  
  23374767.496     1492785.932       -4129.146          47.000  
  24741367.582    -1156332.933        3076.132          36.000  
  20187841.245      598530.058       -1661.243          45.000  
  22627150.120      682099.732       -1877.401          43.000  
 19 10  5 11  4  8.0000000  0 12G 1G22G 3G18G23G28G32G17G 8G19G11G14
  20376951.453      321483.660        -887.475          49.000  
  20694390.842      231731.581        -650.576          45.000  
  20758861.614     -310172.373         776.404          48.000  
  20825204.480      921223.486       -2473.841          46.000  
  23825251.079    -1050924.905        2792.910          48.000  
  23845800.246      734854.768       -1990.123          40.000  
  23971994.671     1236310.947       -3308.958          38.000  
  23507843.065     -871779.193        2289.574          42.000  
  23375553.488     1496915.358       -4129.224          47.000  
  24740782.092    -1159409.301        3077.449          36.000  
  20188157.862      600191.691       -1661.631          45.000  
  22627507.361      683977.441       -1877.867          44.000  
 19 10  5 11  4  9.0000000  0 12G 1G22G 3G18G23G28G32G17G 8G19G11G14
  20377120.720      322371.362        -887.527          49.000  
  20694515.018      232382.366        -650.203          45.000  
  20758713.776     -310948.476         776.402          48.000  
  20825675.915      923697.572       -2473.792          46.000  
  23824719.091    -1053717.519        2792.914          48.000  
  23846178.706      736845.065       -1990.517          40.000  
  23972624.275     1239620.447       -3309.160          38.000  
  23507407.648     -874068.840        2290.478          42.000  
  23376339.446     1501044.870       -4129.400          47.000  
  24740196.323    -1162485.558        3076.532          36.000  
  20188474.025      601853.813       -1662.160          45.000  
  22627864.637      685855.592       -1878.367          44.000  
 19 10  5 11  4 10.0000000  0 12G 1G22G 3G18G23G28G32G17G 8G19G11G14
  20377289.638      323259.068        -887.659          49.000  
  20694638.914      233033.141        -651.008          45.000  
  20758566.740     -311724.550         776.060          48.000  
  20826147.559      926171.648       -2473.994          46.000  
  23824187.348    -1056510.400        2793.115          48.000  
  23846556.957      738835.399       -1990.397          40.000  
  23973253.600     1242929.980       -3308.944          38.000  
  23506971.253     -876358.656        2290.070          41.000  
  23377124.985     1505174.238       -4128.862          47.000  
  24739611.392    -1165562.019        3077.631          36.000  
  20188790.676      603516.152       -1661.822          45.000  
  22628222.471      687733.920       -1878.084          44.000  
 19 10  5 11  4 11.0000000  0 12G 1G22G 3G18G23G28G32G17G 8G19G11G14
  20377458.347      324146.913        -888.097          49.000  
  20694762.846      233684.035        -651.147          45.000  
  20758418.972     -312500.486         775.790          48.000  
  20826618.994      928645.844       -2474.172          46.000  
  23823656.269    -1059303.420        2792.863          47.000  
  23846934.824      740825.858       -1989.748          39.000  
  23973883.727     1246239.580       -3310.090          37.000  
  23506535.381     -878648.418        2289.313          41.000  
  23377910.873     1509303.494       -4129.607          46.000  
  24739026.531    -1168638.623        3077.628          36.000  
  20189107.084      605178.796       -1663.006          45.000  
  22628580.375      689612.518       -1879.040          44.000  
 19 10  5 11  4 12.0000000  0 12G 1G22G 3G18G23G28G32G17G 8G19G11G14
  20377627.998      325035.512        -888.595          49.000  
  20694886.882      234335.692        -651.340          45.000  
  20758271.761     -313275.602         775.204          48.000  
  20827090.011      931120.812       -2474.959          46.000  
  23823124.560    -1062095.924        2792.793          47.000  
  23847312.272      742817.108       -1990.983          37.000  
  23974513.889     1249549.938       -3310.688          37.000  
  23506099.684     -880937.524        2289.533          41.000  
  23378696.761     1513433.331       -4129.988          46.000  
  24738441.669    -1171714.651        3076.791          36.000  
  20189423.561      606842.384       -1664.008          45.000  
  22628937.476      691492.049       -1880.031          43.000  
 19 10  5 11  4 13.0000000  0 12G 1G22G 3G18G23G28G32G17G 8G19G11G14
  20377797.405      325924.674        -889.320          50.000  
  20695011.197      234987.902        -651.728          45.000  
  20758125.110     -314050.127         774.502          49.000  
  20827561.446      933596.304       -2475.560          46.000  
  23822592.957    -1064888.142        2792.434          48.000  
  23847689.790      744808.963       -1991.349          39.000  
  23975143.807     1252860.873       -3309.914          38.000  
  23505663.812     -883226.164        2288.957          41.000  
  23379482.579     1517563.543       -4129.627          47.000  
  24737856.144    -1174790.367        3075.458          36.000  
  20189740.177      608506.731       -1664.699          45.000  
  22629295.520      693372.289       -1879.555          44.000  
 19 10  5 11  4 14.0000000  0 12G 1G22G 3G18G23G28G32G17G 8G19G11G14
  20377966.951      326813.794        -889.072          50.000  
  20695134.989      235640.046        -652.455          45.000  
  20757977.446     -314824.680         774.204          49.000  
  20828032.357      936071.744       -2475.764          46.000  
  23822061.039    -1067680.651        2792.372          47.000  
  23848067.378      746800.800       -1991.889          38.000  
  23975774.249     1256171.698       -3311.489          38.000  
  23505228.011     -885514.952        2288.707          41.000  
  23380269.200     1521693.493       -4129.850          47.000  
  24737271.039    -1177866.268        3075.857          36.000  
  20190057.213      610171.233       -1664.626          45.000  
  22629652.935      695252.633       -1880.738          44.000  
 19 10  5 11  4 15.0000000  0 12G 1G22G 3G18G23G28G32G17G 8G19G11G14
  20378135.869      327703.055        -889.224          50.000  
  20695258.990      236292.346        -652.547          45.000  
  20757830.096     -315599.052         774.459          49.000  
  20828502.815      938547.342       -2475.781          46.000  
  23821529.576    -1070473.294        2792.717          47.000  
  23848445.908      748792.798       -1992.587          38.000  
  23976404.062     1259482.700       -3311.916          38.000  
  23504792.174     -887803.701        2288.925          41.000  
  23381054.879     1525823.382       -4129.749          47.000  
  24736685.549    -1180942.277        3076.020          36.000  
  20190373.236      611836.069       -1664.789          45.000  
  22630011.049      697133.281       -1880.494          44.000  
 19 10  5 11  4 16.0000000  0 12G 1G22G 3G18G23G28G32G17G 8G19G11G14
  20378305.136      328593.043        -890.319          50.000  
  20695383.410      236945.353        -653.308          45.000  
  20757682.258     -316372.666         773.286          49.000  
  20828973.936      941023.664       -2476.245          46.000  
  23820998.251    -1073265.464        2792.229          47.000  
  23848824.299      750785.536       -1993.485          37.000  
  23977033.945     1262794.427       -3311.496          37.000  
  23504356.093     -890091.806        2288.016          41.000  
  23381841.116     1529953.782       -4130.334          47.000  
  24736100.094    -1184017.792        3075.558          36.000  
  20190689.888      613501.824       -1666.132          45.000  
  22630368.778      699014.834       -1881.657          44.000  
 19 10  5 11  4 17.0000000  0 12G 1G22G 3G18G23G28G32G17G 8G19G11G14
  20378474.927      329483.678        -890.673          50.000  
  20695507.865      237599.013        -653.255          45.000  
  20757535.572     -317145.603         772.929          48.000  
  20829445.092      943500.644       -2477.019          46.000  
  23820467.137    -1076057.253        2791.960          47.000  
  23849202.968      752778.989       -1993.486          36.000  
  23977663.549     1266106.759       -3312.177          38.000  
  23503920.815     -892379.358        2287.202          41.000  
  23382627.772     1534084.644       -4130.820          48.000  
  24735514.325    -1187092.855        3074.692          35.000  
  20191007.168      615168.424       -1666.604          45.000  
  22630726.996      700897.192       -1882.274          44.000  
 19 10  5 11  4 18.0000000  0 12G 1G22G 3G18G23G28G32G17G 8G19G11G14
  20378644.683      330374.458        -890.375          50.000  
  20695631.971      238252.797        -653.420          45.000  
  20757388.117     -317918.363         772.985          49.000  
  20829916.422      945977.753       -2476.969          45.000  
  23819935.952    -1078849.167        2792.101          48.000  
  23849581.568      754772.585       -1992.690          37.000  
  23978294.549     1269419.229       -3312.489          38.000  
  23503485.188     -894666.893        2287.835          41.000  
  23383414.532     1538215.437       -4130.246          48.000  
  24734929.045    -1190167.991        3075.603          36.000  
  20191324.483      616835.349       -1666.877          45.000  
  22631085.808      702779.819       -1882.523          44.000  
 19 10  5 11  4 19.0000000  0 12G 1G22G 3G18G23G28G32G17G 8G19G11G14
  20378814.055      331265.206        -890.610          50.000  
  20695756.182      238906.561        -653.674          45.000  
  20757241.047     -318691.114         772.563          48.000  
  20830387.299      948454.838       -2476.776          45.000  
  23819404.837    -1081641.347        2792.337          47.000  
  23849960.657      756766.186       -1993.594          37.000  
  23978924.432     1272731.661       -3312.907          38.000  
  23503049.456     -896954.507        2287.296          41.000  
  23384200.699     1542346.008       -4130.707          48.000  
  24734343.939    -1193243.387        3074.588          36.000  
  20191641.414      618502.445       -1667.023          45.000  
  22631443.816      704662.604       -1883.091          44.000  
 19 10  5 11  4 20.0000000  0 12G 1G22G 3G18G23G28G32G17G 8G19G11G14
  20378983.391      332156.572        -891.640          49.000  
  20695880.637      239560.913        -654.914          45.000  
  20757094.674     -319463.245         771.821          48.000  
  20830858.455      950932.510       -2477.884          45.000  
  23818873.478    -1084433.202        2791.912          48.000  
  23850339.850      758760.436       -1994.093          37.000  
  23979554.350     1276044.671       -3312.942          38.000  
  23502614.422     -899241.673        2286.860          40.000  
  23384986.343     1546476.985       -4131.094          48.000  
  24733758.659    -1196318.374        3074.345          36.000  
  20191958.868      620170.326       -1668.410          45.000  
  22631802.348      706546.146       -1883.284          44.000  
 19 10  5 11  4 21.0000000  0 12G 1G22G 3G18G23G28G32G17G 8G19G11G14
  20379153.008      333048.737        -892.117          50.000  
  20696005.441      240216.074        -655.550          46.000  
  20756947.569     -320234.513         771.378          48.000  
  20831329.750      953410.963       -2478.563          46.000  
  23818342.852    -1087224.500        2791.083          48.000  
  23850719.707      760755.486       -1995.782          38.000  
  23980185.071     1279358.472       -3314.454          38.000  
  23502178.795     -901528.090        2286.218          41.000  
  23385772.650     1550608.557       -4131.595          48.000  
  24733174.042    -1199392.732        3074.672          36.000  
  20192276.706      621839.231       -1668.977          45.000  
  22632160.636      708430.667       -1884.972          44.000  
 19 10  5 11  4 22.0000000  0 12G 1G22G 3G18G23G28G32G17G 8G19G11G14
  20379322.310      333941.069        -892.341          50.000  
  20696130.000      240871.389        -655.303          46.000  
  20756801.197     -321005.609         770.966          49.000  
  20831800.941      955889.589       -2478.598          46.000  
  23817811.283    -1090015.917        2791.277          48.000  
  23851099.807      762750.756       -1995.474          38.000  
  23980816.210     1282672.463       -3313.892          38.000  
  23501743.761     -903814.451        2286.049          41.000  
  23386558.747     1554740.105       -4131.640          48.000  
  24732588.901    -1202467.169        3073.279          37.000  
  20192593.951      623508.473       -1669.692          45.000  
  22632518.889      710315.473       -1885.223          44.000  
 19 10  5 11  4 23.0000000  0 12G 1G22G 3G18G23G28G32G17G 8G19G11G14
  20379491.786      334833.319        -892.698          50.000  
  20696254.630      241526.627        -655.440          45.000  
  20756654.580     -321776.729         771.221          48.000  
  20832272.376      958368.123       -2478.953          46.000  
  23817280.273    -1092807.664        2791.900          48.000  
  23851479.943      764745.968       -1994.973          38.000  
  23981447.036     1285986.307       -3314.175          38.000  
  23501308.866     -906100.993        2285.741          41.000  
  23387344.670     1558871.371       -4131.421          48.000  
  24732004.249    -1205541.898        3074.421          36.000  
  20192911.929      625177.830       -1669.719          45.000  
  22632877.317      712200.387       -1885.230          44.000  
 19 10  5 11  4 24.0000000  0 12G 1G22G 3G18G23G28G32G17G 8G19G11G14
  20379661.297      335726.256        -892.920          50.000  
  20696379.748      242182.533        -656.243          45.000  
  20756507.684     -322547.153         769.791          48.000  
  20832743.777      960847.345       -2479.446          46.000  
  23816749.368    -1095598.990        2791.145          49.000  
  23851860.602      766741.906       -1995.940          39.000  
  23982077.826     1289300.842       -3314.717          38.000  
  23500874.251     -908386.944        2286.263          41.000  
  23388130.349     1563003.120       -4131.684          48.000  
  24731419.527    -1208616.158        3074.181          36.000  
  20193229.558      626848.075       -1670.264          45.000  
  22633236.198      714086.141       -1885.933          44.000  
 19 10  5 11  4 25.0000000  0 12G 1G22G 3G18G23G28G32G17G 8G19G11G14
  20379831.228      336619.858        -893.752          49.000  
  20696505.075      242839.096        -657.214          44.000  
  20756361.207     -323316.867         769.473          48.000  
  20833216.049      963327.238       -2480.131          45.000  
  23816218.218    -1098389.897        2791.011          48.000  
  23852240.947      768738.506       -1997.300          39.000  
  23982708.163     1292616.069       -3315.778          38.000  
  23500439.846     -910672.326        2285.526          40.000  
  23388916.656     1567135.355       -4132.064          47.000  
  24730834.735    -1211689.990        3073.160          36.000  
  20193547.501      628519.165       -1671.350          44.000  
  22633595.323      715972.708       -1886.609          44.000  
 19 10  5 11  4 26.0000000  0 12G 1G22G 3G18G23G28G32G17G 8G19G11G14
  20380001.367      337513.499        -893.638          49.000  
  20696629.810      243495.708        -656.608          45.000  
  20756214.625     -324086.513         769.556          49.000  
  20833687.973      965807.161       -2479.930          46.000  
  23815687.068    -1101181.038        2791.104          49.000  
  23852621.257      770735.230       -1996.760          39.000  
  23983339.198     1295931.262       -3315.344          38.000  
  23500004.986     -912957.763        2286.038          40.000  
  23389703.451     1571267.418       -4132.028          48.000  
  24730249.839    -1214763.958        3074.571          37.000  
  20193865.514      630190.480       -1672.109          45.000  
  22633954.519      717859.467       -1886.228          44.000  
 19 10  5 11  4 27.0000000  0 12G 1G22G 3G18G23G28G32G17G 8G19G11G14
  20380171.577      338407.248        -894.064          49.000  
  20696755.137      244152.396        -656.672          45.000  
  20756067.799     -324856.027         768.882          48.000  
  20834160.071      968287.178       -2480.404          46.000  
  23815156.267    -1103972.326        2791.127          49.000  
  23853002.370      772732.040       -1997.196          39.000  
  23983970.616     1299246.575       -3314.891          37.000  
  23499570.964     -915243.207        2285.545          40.000  
  23390489.374     1575399.376       -4132.565          48.000  
  24729664.803    -1217838.069        3073.381          37.000  
  20194184.015      631862.089       -1672.017          45.000  
  22634313.819      719746.482       -1887.507          44.000  
 19 10  5 11  4 28.0000000  0 12G 1G22G 3G18G23G28G32G17G 8G19G11G14
  20380341.681      339301.383        -894.518          50.000  
  20696879.906      244809.474        -657.616          46.000  
  20755921.810     -325625.130         768.905          49.000  
  20834632.937      970767.592       -2480.681          46.000  
  23814625.362    -1106763.481        2790.962          50.000  
  23853383.622      774729.308       -1997.831          40.000  
  23984601.546     1302562.229       -3316.141          37.000  
  23499136.349     -917528.342        2284.970          41.000  
  23391276.204     1579531.553       -4132.188          48.000  
  24729080.325    -1220911.977        3074.322          37.000  
  20194502.691      633534.299       -1672.537          46.000  
  22634673.119      721634.046       -1888.011          45.000  
 19 10  5 11  4 29.0000000  0 12G 1G22G 3G18G23G28G32G17G 8G19G11G14
  20380512.589      340196.223        -895.197          50.000  
  20697005.303      245467.230        -658.071          46.000  
  20755775.403     -326393.503         768.197          49.000  
  20835105.559      973248.659       -2481.092          47.000  
  23814094.108    -1109554.207        2790.959          49.000  
  23853764.351      776727.262       -1998.053          40.000  
  23985232.686     1305878.598       -3316.444          37.000  
  23498701.804     -919812.904        2284.076          41.000  
  23392062.337     1583664.180       -4132.829          48.000  
  24728495.708    -1223985.450        3072.798          37.000  
  20194821.262      635207.375       -1673.539          46.000  
  22635032.384      723522.470       -1888.624          45.000  
 19 10  5 11  4 30.0000000  0 12G 1G22G 3G18G23G28G32G17G 8G19G11G14
  20380683.147      341091.598        -895.349          50.000  
  20697130.840      246125.525        -658.828          46.000  
  20755628.682     -327161.309         767.709          49.000  
  20835577.831      975730.259       -2481.512          46.000  
  23813563.516    -1112344.660        2790.573          49.000  
  23854145.289      778725.793       -1997.604          40.000  
  23985863.930     1309195.462       -3316.151          37.000  
  23498266.944     -922096.996        2285.209          41.000  
  23392848.713     1587797.167       -4132.861          48.000  
  24727911.231    -1227058.545        3074.794          37.000  
  20195139.938      636881.190       -1674.002          46.000  
  22635391.788      725411.588       -1888.865          44.000  
 19 10  5 11  4 31.0000000  0 12G 1G22G 3G18G23G28G32G17G 8G19G11G14
  20380853.810      341986.870        -894.888          50.000  
  20697256.098      246783.696        -657.955          46.000  
  20755482.798     -327929.191         768.324          49.000  
  20836050.523      978211.765       -2480.925          46.000  
  23813032.332    -1115135.477        2791.423          49.000  
  23854525.774      780724.244       -1997.745          41.000  
  23986494.825     1312512.220       -3316.629          37.000  
  23497832.399     -924381.311        2285.274          41.000  
  23393635.404     1591929.849       -4132.109          48.000  
  24727326.613    -1230131.996        3072.693          38.000  
  20195458.404      638555.077       -1673.431          46.000  
  22635751.054      727300.742       -1888.564          44.000  
 19 10  5 11  4 32.0000000  0 12G 1G22G 3G18G23G28G32G17G 8G19G11G14
  20381024.090      342882.173        -896.007          50.000  
  20697381.705      247441.919        -658.860          45.000  
  20755336.251     -328696.993         767.079          48.000  
  20836523.319      980693.318       -2482.140          46.000  
  23812501.531    -1117926.508        2790.301          49.000  
  23854906.677      782722.770       -1999.191          41.000  
  23987125.755     1315829.037       -3317.336          37.000  
  23497397.889     -926665.682        2283.906          41.000  
  23394421.676     1596062.361       -4133.260          47.000  
  24726741.647    -1233205.610        3072.592          37.000  
  20195777.185      640229.210       -1675.085          46.000  
  22636110.772      729190.106       -1890.512          44.000  
 19 10  5 11  4 33.0000000  0 12G 1G22G 3G18G23G28G32G17G 8G19G11G14
  20381194.892      343778.320        -896.546          49.000  
  20697507.416      248100.972        -659.474          45.000  
  20755190.437     -329463.926         766.431          48.000  
  20836996.220      983175.662       -2482.828          46.000  
  23811970.416    -1120716.957        2790.384          48.000  
  23855287.964      784722.150       -2000.024          41.000  
  23987756.999     1319146.623       -3317.609          37.000  
  23496963.518     -928949.306        2283.649          41.000  
  23395207.738     1600195.527       -4133.917          47.000  
  24726157.100    -1236278.568        3071.979          37.000  
  20196096.245      641904.375       -1675.644          46.000  
  22636470.631      731080.453       -1891.596          43.000  
 19 10  5 11  4 34.0000000  0 12G 1G22G 3G18G23G28G32G17G 8G19G11G14
  20381365.905      344675.201        -896.889          49.000  
  20697632.674      248760.754        -659.702          45.000  
  20755044.553     -330230.097         765.978          48.000  
  20837468.004      985658.775       -2483.012          46.000  
  23811439.092    -1123506.948        2790.070          48.000  
  23855669.356      786722.317       -2000.367          40.000  
  23988388.278     1322464.972       -3318.778          36.000  
  23496529.077     -931232.300        2282.916          42.000  
  23395994.499     1604329.230       -4133.383          47.000  
  24725572.343    -1239351.026        3071.974          37.000  
  20196415.409      643580.460       -1676.390          45.000  
  22636830.384      732971.708       -1890.611          43.000  
 19 10  5 11  4 35.0000000  0 12G 1G22G 3G18G23G28G32G17G 8G19G11G14
  20381536.498      345572.157        -896.828          49.000  
  20697758.001      249420.584        -659.696          45.000  
  20754898.530     -330996.162         766.010          47.000  
  20837940.416      988141.930       -2483.484          46.000  
  23810907.628    -1126297.121        2790.268          47.000  
  23856050.120      788722.560       -2000.513          40.000  
  23989019.348     1325783.313       -3319.872          36.000  
  23496094.637     -933515.308        2282.613          41.000  
  23396781.573     1608462.790       -4133.608          47.000  
  24724988.110    -1242423.620        3070.844          37.000  
  20196734.085      645256.802       -1676.427          44.000  
  22637190.662      734863.180       -1891.189          43.000  
 19 10  5 11  4 36.0000000  0 12G 1G22G 3G18G23G28G32G17G 8G19G11G14
  20381707.336      346469.114        -897.225          50.000  
  20697883.363      250080.429        -660.059          45.000  
  20754752.611     -331762.185         765.367          48.000  
  20838412.759      990625.114       -2483.800          46.000  
  23810376.304    -1129087.536        2790.176          48.000  
  23856430.779      790722.851       -2001.268          40.000  
  23989649.720     1329101.730       -3319.044          36.000  
  23495660.021     -935798.383        2282.933          41.000  
  23397567.636     1612596.173       -4133.810          47.000  
  24724402.934    -1245496.417        3072.722          37.000  
  20197052.203      646933.356       -1677.218          45.000  
  22637550.136      736754.831       -1892.314          44.000  
 19 10  5 11  4 37.0000000  0 12G 1G22G 3G18G23G28G32G17G 8G19G11G14
  20381878.034      347366.601        -898.036          50.000  
  20698008.831      250740.802        -660.461          45.000  
  20754606.588     -332527.650         764.931          48.000  
  20838885.067      993108.803       -2484.055          46.000  
  23809844.875    -1131877.695        2789.885          48.000  
  23856811.682      792723.710       -2001.663          40.000  
  23990281.069     1332420.626       -3319.939          36.000  
  23495225.546     -938081.063        2282.656          41.000  
  23398354.571     1616729.882       -4133.962          48.000  
  24723818.073    -1248568.886        3072.612          37.000  
  20197370.913      648610.610       -1677.710          45.000  
  22637909.645      738647.167       -1892.256          44.000  
 19 10  5 11  4 38.0000000  0 12G 1G22G 3G18G23G28G32G17G 8G19G11G14
  20382048.313      348264.837        -898.340          50.000  
  20698134.716      251401.896        -660.844          45.000  
  20754460.529     -333292.328         764.697          48.000  
  20839357.339      995593.232       -2484.646          46.000  
  23809313.481    -1134667.371        2789.679          47.000  
  23857193.144      794725.321       -2001.667          40.000  
  23990912.452     1335740.235       -3318.908          35.000  
  23494791.385     -940363.113        2282.004          41.000  
  23399141.436     1620864.134       -4134.167          48.000  
  24723233.560    -1251640.857        3072.547          37.000  
  20197689.938      650288.812       -1678.141          45.000  
  22638269.748      740540.390       -1893.755          44.000  
 19 10  5 11  4 39.0000000  0 12G 1G22G 3G18G23G28G32G17G 8G19G11G14
  20382219.185      349163.257        -898.058          49.000  
  20698260.637      252063.176        -661.101          45.000  
  20754315.099     -334056.820         764.278          48.000  
  20839830.101      998077.846       -2484.275          46.000  
  23808782.157    -1137457.115        2790.441          47.000  
  23857573.943      796727.138       -2001.360          40.000  
  23991543.871     1339060.015       -3319.920          35.000  
  23494357.851     -942645.066        2282.195          41.000  
  23399928.441     1624998.342       -4134.148          48.000  
  24722649.257    -1254712.829        3072.583          39.000  
  20198009.522      651967.391       -1678.427          45.000  
  22638630.479      742433.957       -1893.662          43.000  
 19 10  5 11  4 40.0000000  0 12G 1G22G 3G18G23G28G32G17G 8G19G11G14
  20382389.918      350061.663        -898.440          49.000  
  20698386.663      252724.417        -661.721          45.000  
  20754169.774     -334821.298         764.370          48.000  
  20840303.036     1000562.417       -2485.201          46.000  
  23808251.147    -1140247.159        2789.990          47.000  
  23857954.462      798728.974       -2002.472          40.000  
  23992175.534     1342379.743       -3320.607          35.000  
  23493923.376     -944927.117        2281.450          41.000  
  23400715.027     1629132.331       -4133.878          48.000  
  24722064.744    -1257785.076        3071.328          38.000  
  20198329.314      653646.128       -1678.696          45.000  
  22638990.826      744327.658       -1894.277          44.000  
 19 10  5 11  4 41.0000000  0 12G 1G22G 3G18G23G28G32G17G 8G19G11G14
  20382561.105      350960.413        -899.022          50.000  
  20698512.653      253386.007        -662.000          46.000  
  20754024.064     -335585.384         763.945          48.000  
  20840776.147     1003047.337       -2485.545          46.000  
  23807720.555    -1143037.117        2789.480          47.000  
  23858334.353      800731.148       -2002.460          40.000  
  23992807.267     1345699.829       -3320.304          35.000  
  23493489.389     -947208.952        2280.883          41.000  
  23401501.962     1633266.454       -4134.159          48.000  
  24721480.023    -1260857.135        3072.303          37.000  
  20198648.793      655325.412       -1679.011          45.000  
  22639351.382      746221.856       -1894.684          44.000  
 19 10  5 11  4 42.0000000  0 12G 1G22G 3G18G23G28G32G17G 8G19G11G14
  20382732.187      351859.641        -899.545          49.000  
  20698638.434      254048.073        -662.175          46.000  
  20753878.739     -336348.956         763.668          48.000  
  20841249.048     1005532.762       -2485.495          46.000  
  23807189.266    -1145826.827        2790.110          46.000  
  23858714.977      802733.871       -2002.901          39.000  
  23993439.000     1349020.375       -3321.776          35.000  
  23493056.030     -949490.363        2281.174          41.000  
  23402289.211     1637400.883       -4134.624          48.000  
  24720895.440    -1263928.933        3071.191          37.000  
  20198968.620      657005.366       -1680.435          45.000  
  22639712.253      748116.690       -1894.894          44.000  
 19 10  5 11  4 43.0000000  0 12G 1G22G 3G18G23G28G32G17G 8G19G11G14
  20382902.920      352759.143        -899.091          49.000  
  20698764.390      254710.397        -661.729          45.000  
  20753733.658     -337112.232         763.672          48.000  
  20841722.053     1008018.421       -2485.172          46.000  
  23806657.977    -1148616.551        2790.094          46.000  
  23859094.973      804736.851       -2003.046          39.000  
  23994070.523     1352341.163       -3320.453          35.000  
  23492621.624     -951771.632        2282.020          41.000  
  23403075.693     1641535.372       -4133.910          48.000  
  24720310.893    -1267000.694        3073.196          37.000  
  20199288.274      658685.771       -1680.463          45.000  
  22640072.565      750011.955       -1894.905          44.000  
 19 10  5 11  4 44.0000000  0 12G 1G22G 3G18G23G28G32G17G 8G19G11G14
  20383073.722      353658.277        -899.011          49.000  
  20698890.450      255372.335        -662.102          45.000  
  20753588.298     -337875.871         763.616          48.000  
  20842194.675     1010503.698       -2485.307          46.000  
  23806127.141    -1151406.895        2790.512          46.000  
  23859475.423      806739.493       -2003.100          38.000  
  23994701.628     1355661.567       -3319.435          35.000  
  23492186.870     -954053.367        2281.819          41.000  
  23403862.523     1645669.295       -4133.744          48.000  
  24719726.869    -1270073.070        3072.223          37.000  
  20199608.206      660365.994       -1680.419          45.000  
  22640433.087      751906.999       -1894.726          44.000  
 19 10  5 11  4 45.0000000  0 12G 1G22G 3G18G23G28G32G17G 8G19G11G14
  20383244.769      354557.530        -899.607          49.000  
  20699016.336      256034.411        -662.562          46.000  
  20753442.972     -338639.328         763.062          48.000  
  20842667.576     1012989.132       -2485.617          46.000  
  23805595.852    -1154197.359        2789.472          46.000  
  23859855.245      808742.344       -2003.073          38.000  
  23995333.814     1358982.105       -3320.459          35.000  
  23491752.429     -956335.050        2281.951          41.000  
  23404649.318     1649803.141       -4133.944          48.000  
  24719142.077    -1273145.492        3072.536          38.000  
  20199928.173      662046.559       -1681.240          45.000  
  22640793.678      753802.339       -1895.992          44.000  
 19 10  5 11  4 46.0000000  0 12G 1G22G 3G18G23G28G32G17G 8G19G11G14
  20383415.956      355458.152        -901.235          48.000  
  20699142.676      256697.846        -663.578          45.000  
  20753298.275     -339401.388         761.390          47.000  
  20843141.454     1015475.897       -2487.390          45.000  
  23805065.016    -1156986.725        2789.107          46.000  
  23860236.113      810746.531       -2004.867          37.000  
  23995966.419     1362303.983       -3321.051          35.000  
  23491318.058     -958615.449        2280.606          40.000  
  23405436.288     1653938.172       -4135.263          47.000  
  24718557.635    -1276216.740        3070.573          38.000  
  20200247.512      663728.673       -1682.817          44.000  
  22641154.618      755699.195       -1897.438          44.000  
 19 10  5 11  4 47.0000000  0 12G 1G22G 3G18G23G28G32G17G 8G19G11G14
  20383587.911      356359.844        -902.004          49.000  
  20699269.155      257362.325        -664.771          45.000  
  20753153.368     -340162.347         760.898          47.000  
  20843614.704     1017963.730       -2487.605          45.000  
  23804534.564    -1159775.282        2788.573          46.000  
  23860617.016      812751.838       -2006.142          37.000  
  23996598.885     1365626.895       -3322.899          35.000  
  23490884.036     -960894.919        2279.458          41.000  
  23406223.223     1658074.041       -4136.103          47.000  
  24717972.808    -1279287.119        3069.877          38.000  
  20200568.352      665412.036       -1683.678          44.000  
  22641516.571      757597.275       -1898.450          44.000  
 19 10  5 11  4 48.0000000  0 12G 1G22G 3G18G23G28G32G17G 8G19G11G14
  20383759.691      357261.539        -901.763          49.000  
  20699395.181      258026.804        -664.256          45.000  
  20753008.985     -340923.272         761.178          48.000  
  20844088.512     1020451.549       -2487.650          46.000  
  23804004.078    -1162564.095        2789.103          46.000  
  23860997.815      814757.179       -2005.899          37.000  
  23997232.607     1368949.752       -3323.165          35.000  
  23490450.189     -963174.470        2279.781          41.000  
  23407010.542     1662209.712       -4135.370          48.000  
  24717388.365    -1282357.753        3070.286          38.000  
  20200889.122      667095.597       -1683.597          45.000  
  22641878.907      759495.532       -1898.386          44.000  
 19 10  5 11  4 49.0000000  0 12G 1G22G 3G18G23G28G32G17G 8G19G11G14
  20383931.575      358163.074        -901.837          49.000  
  20699521.974      258691.107        -664.431          45.000  
  20752864.358     -341684.336         760.858          48.000  
  20844562.669     1022939.210       -2487.845          46.000  
  23803473.207    -1165353.352        2788.955          46.000  
  23861379.696      816762.357       -2006.055          37.000  
  23997865.422     1372272.479       -3323.949          35.000  
  23490016.132     -965454.274        2279.464          41.000  
  23407797.617     1666345.018       -4135.563          48.000  
  24716803.783    -1285428.744        3070.712          38.000  
  20201209.438      668779.188       -1683.754          45.000  
  22642240.266      761393.753       -1898.694          44.000  
 19 10  5 11  4 50.0000000  0 12G 1G22G 3G18G23G28G32G17G 8G19G11G14
  20384103.425      359065.642        -903.787          49.000  
  20699648.418      259356.435        -666.780          45.000  
  20752719.661     -342444.336         758.802          47.000  
  20845035.954     1025427.902       -2489.841          45.000  
  23802943.035    -1168141.808        2787.442          46.000  
  23861761.227      818768.637       -2007.120          37.000  
  23998498.097     1375596.241       -3325.148          35.000  
  23489581.762     -967733.147        2278.818          40.000  
  23408585.075     1670481.159       -4137.232          48.000  
  24716219.654    -1288498.922        3069.483          38.000  
  20201530.277      670464.001       -1686.165          45.000  
  22642601.241      763293.178       -1900.767          44.000  
 19 10  5 11  4 51.0000000  0 12G 1G22G 3G18G23G28G32G17G 8G19G11G14
  20384275.414      359969.453        -904.774          50.000  
  20699775.525      260023.017        -666.524          45.000  
  20752575.452     -343203.053         758.082          48.000  
  20845509.867     1027917.852       -2490.657          46.000  
  23802412.897    -1170929.282        2787.052          47.000  
  23862143.666      820776.152       -2007.844          37.000  
  23999130.912     1378921.230       -3325.674          35.000  
  23489148.822     -970010.890        2277.222          41.000  
  23409372.464     1674618.339       -4137.399          48.000  
  24715635.386    -1291568.072        3068.967          38.000  
  20201851.222      672150.264       -1687.251          45.000  
  22642962.565      765194.016       -1901.423          44.000  
 19 10  5 11  4 52.0000000  0 12G 1G22G 3G18G23G28G32G17G 8G19G11G14
  20384447.578      360873.459        -903.416          50.000  
  20699902.109      260689.762        -666.438          45.000  
  20752431.418     -343961.566         758.684          48.000  
  20845983.466     1030407.955       -2489.884          46.000  
  23801882.864    -1173716.841        2788.341          47.000  
  23862526.419      822783.872       -2008.119          38.000  
  23999763.936     1382246.338       -3327.014          35.000  
  23488715.219     -972288.535        2278.451          41.000  
  23410159.608     1678755.470       -4136.923          48.000  
  24715051.362    -1294637.261        3068.979          38.000  
  20202172.027      673836.905       -1686.574          45.000  
  22643324.692      767095.172       -1900.946          44.000  
 19 10  5 11  4 53.0000000  0 12G 1G22G 3G18G23G28G32G17G 8G19G11G14
  20384619.428      361777.249        -903.594          50.000  
  20700028.798      261356.301        -666.427          45.000  
  20752287.000     -344720.255         758.556          48.000  
  20846456.402     1032897.843       -2489.773          46.000  
  23801352.098    -1176504.868        2788.344          48.000  
  23862908.335      824791.439       -2007.558          38.000  
  24000396.611     1385571.258       -3325.736          35.000  
  23488281.441     -974566.466        2278.260          39.000  
  23410946.578     1682892.201       -4136.576          48.000  
  24714467.059    -1297706.848        3069.845          38.000  
  20202492.936      675523.510       -1686.599          45.000  
  22643686.470      768996.269       -1901.173          44.000  
 19 10  5 11  4 54.0000000  0 12G 1G22G 3G18G23G28G32G17G 8G19G11G14
  20384792.080      362681.695        -904.962          50.000  
  20700155.591      262023.488        -667.335          45.000  
  20752142.966     -345478.248         757.630          48.000  
  20846930.489     1035388.379       -2490.981          46.000  
  23800822.170    -1179292.490        2787.245          48.000  
  23863290.913      826799.660       -2009.434          38.000  
  24001029.635     1388896.851       -3324.708          35.000  
  23487847.245     -976843.852        2276.666          40.000  
  23411733.967     1687029.391       -4137.798          48.000  
  24713883.594    -1300775.986        3068.736          38.000  
  20202813.846      677210.979       -1688.130          45.000  
  22644048.632      770898.198       -1903.219          44.000  
 19 10  5 11  4 55.0000000  0 12G 1G22G 3G18G23G28G32G17G 8G19G11G14
  20384964.384      363587.260        -906.724          50.000  
  20700282.175      262691.782        -668.756          45.000  
  20751999.071     -346235.086         755.769          48.000  
  20847404.263     1037880.008       -2492.282          45.000  
  23800291.893    -1182079.239        2786.354          48.000  
  23863673.631      828809.059       -2011.005          38.000  
  24001662.170     1392223.467       -3328.171          35.000  
  23487413.747     -979120.212        2275.374          40.000  
  23412520.902     1691167.510       -4138.635          48.000  
  24713299.640    -1303844.197        3067.456          38.000  
  20203135.174      678899.746       -1689.509          45.000  
  22644409.886      772801.401       -1903.862          45.000  
 19 10  5 11  4 56.0000000  0 13G 1G22G 3G18G23G28G32G17G 8G19G11G14
                                G31
  20385136.164      364493.299        -905.621          50.000  
  20700408.829      263360.534        -669.027          45.000  
  20751854.967     -346991.424         756.461          49.000  
  20847878.281     1040372.123       -2492.348          45.000  
  23799761.301    -1184865.792        2787.062          48.000  
  23864056.838      830818.963       -2008.962          39.000  
  24002294.880     1395550.599       -3327.130          35.000  
  23486980.911     -981396.197        2275.495          41.000  
  23413308.291     1695305.872       -4138.118          48.000  
  24712715.755    -1306912.189        3068.432          38.000  
  20203456.921      680589.171       -1689.589          45.000  
  22644772.362      774705.210       -1903.532          44.000  
  25133377.440      -50574.2203       1668.201          28.000  
 19 10  5 11  4 57.0000000  0 13G 1G22G 3G18G23G28G32G17G 8G19G11G14
                                G31
  20385308.851      365399.468        -905.846          50.000  
  20700536.425      264029.429        -669.104          45.000  
  20751711.143     -347747.600         756.509          49.000  
  20848351.775     1042864.386       -2492.321          46.000  
  23799231.164    -1187652.455        2787.119          48.000  
  23864439.661      832828.995       -2010.026          39.000  
  24002927.870     1398877.796       -3326.837          35.000  
  23486548.006     -983672.129        2276.153          41.000  
  23414095.610     1699444.172       -4137.662          48.000  
  24712131.976    -1309980.222        3069.385          38.000  
  20203778.110      682278.937       -1689.643          45.000  
  22645134.769      776609.325       -1904.486          44.000  
  25133058.206      -52241.9413       1667.550          29.000  
 19 10  5 11  4 58.0000000  0 13G 1G22G 3G18G23G28G32G17G 8G19G11G14
                                G31
  20385480.980      366305.755        -906.828          49.000  
  20700663.148      264698.414        -669.434          45.000  
  20751566.899     -348503.648         755.602          48.000  
  20848826.281     1045356.749       -2493.145          45.000  
  23798700.782    -1190439.280        2786.423          47.000  
  23864822.763      834839.190       -2010.540          39.000  
  24003561.208     1402205.114       -3327.788          35.000  
  23486114.648     -985948.070        2275.367          41.000  
  23414882.475     1703582.363       -4138.738          47.000  
  24711547.428    -1313048.375        3068.754          37.000  
  20204099.403      683968.991       -1690.781          45.000  
  22645496.965      778513.689       -1905.231          44.000  
  25132740.891      -53909.7513       1668.077          30.000  
 19 10  5 11  4 59.0000000  0 14G 1G22G 3G18G23G28G32G17G 8G19S27G11
                                G14G31
  20385653.353      367213.121        -907.783          50.000  
  20700791.268      265368.473        -670.459          45.000  
  20751422.830     -349258.570         754.675          49.000  
  20849301.241     1047850.185       -2493.977          46.000  
  23798171.063    -1193225.276        2785.928          49.000  
  23865205.795      836850.472       -2011.635          39.000  
  24004194.721     1405533.492       -3327.743          35.000  
  23485681.568     -988223.029        2274.405          41.000  
  23415669.899     1707721.441       -4139.540          48.000  
  24710963.265    -1316115.661        3066.465          37.000  
  39912577.741       88520.7532       -580.703          34.000  
  20204421.499      685660.322       -1691.623          45.000  
  22645859.197      780419.293       -1906.353          44.000  
  25132413.246      -55576.4103       1666.419          31.000  
 19 10  5 11  5  0.0000000  0 14G 1G22G 3G18G23G28G32G17G 8G19S27G11
                                G14G31
  20385826.041      368121.246        -907.985          50.000  
  20700919.003      266039.284        -670.358          45.000  
  20751279.529     -350012.719         754.610          49.000  
  20849775.957     1050344.369       -2493.713          46.000  
  23797641.275    -1196010.780        2785.806          49.000  
  23865588.967      838862.550       -2011.232          39.000  
  24004828.059     1408862.622       -3327.913          35.000  
  23485249.222     -990497.315        2275.181          41.000  
  23416457.392     1711861.061       -4139.087          47.000  
  24710380.114    -1319182.375        3067.362          38.000  
  39912687.817       89101.1902       -580.219          34.000  
  20204743.142      687352.585       -1692.047          45.000  
  22646221.987      782325.802       -1906.516          44.000  
  25132081.412      -57242.5842       1665.210          31.000  
 19 10  5 11  5  1.0000000  0 14G 1G22G 3G18G23G28G32G17G 8G19S27G11
                                G14G31
  20385999.007      369028.887        -907.419          50.000  
  20701046.460      266709.586        -670.000          45.000  
  20751135.286     -350767.302         754.817          48.000  
  20850251.022     1052838.034       -2493.568          47.000  
  23797110.997    -1198797.028        2786.557          49.000  
  23865972.104      840874.156       -2010.794          39.000  
  24005461.711     1412191.219       -3328.466          35.000  
  23484816.247     -992772.176        2275.474          41.000  
  23417244.990     1715999.985       -4138.395          47.000  
  24709796.962    -1322249.835        3067.617          38.000  
  39912797.893       89680.6682       -578.414          34.000  
  20205065.308      689044.567       -1691.637          45.000  
  22646584.882      784231.982       -1906.269          44.000  
  25131762.911      -58909.4222       1667.618          31.000  
 19 10  5 11  5  2.0000000  0 14G 1G22G 3G18G23G28G32G17G 8G19S27G11
                                G14G31
  20386172.044      369936.521        -908.288          50.000  
  20701174.126      267379.892        -671.111          45.000  
  20750991.845     -351521.881         754.024          48.000  
  20850726.296     1055331.689       -2494.417          47.000  
  23796580.895    -1201583.534        2786.189          49.000  
  23866355.067      842885.777       -2012.131          39.000  
  24006095.712     1415519.825       -3328.743          35.000  
  23484383.586     -995047.164        2274.763          42.000  
  23418032.344     1720138.719       -4139.099          47.000  
  24709213.322    -1325317.475        3067.317          38.000  
  39912907.759       90259.7792       -579.257          34.000  
  20205387.404      690736.737       -1692.729          45.000  
  22646947.009      786138.303       -1907.400          44.000  
  25131446.120      -60576.3322       1665.737          31.000  
 19 10  5 11  5  3.0000000  0 14G 1G22G 3G18G23G28G32G17G 8G19S27G11
                                G14G31
  20386344.521      370845.452        -909.364          49.000  
  20701301.966      268051.485        -671.991          45.000  
  20750848.718     -352275.129         752.890          48.000  
  20851201.081     1057826.665       -2495.118          47.000  
  23796050.931    -1204369.010        2785.209          49.000  
  23866737.506      844898.761       -2013.700          39.000  
  24006729.574     1418849.656       -3330.619          35.000  
  23483950.821     -997320.930        2273.958          42.000  
  23418820.012     1724278.547       -4140.040          47.000  
  24708629.752    -1328384.004        3066.697          38.000  
  39913017.975       90839.8342       -579.800          34.000  
  20205709.325      692430.391       -1693.691          45.000  
  22647310.497      788046.087       -1907.947          43.000  
  25131131.946      -62242.1302       1665.216          30.000  
 19 10  5 11  5  4.0000000  0 14G 1G22G 3G18G23G28G32G17G 8G19S27G11
                                G14G31
  20386517.732      371755.360        -910.049          50.000  
  20701429.876      268724.057        -672.406          45.000  
  20750705.766     -353027.367         752.248          48.000  
  20851676.111     1060322.590       -2496.129          47.000  
  23795521.178    -1207153.751        2784.862          48.000  
  23867120.363      846912.728       -2014.017          39.000  
  24007363.540     1422180.503       -3331.983          35.000  
  23483518.369     -999593.824        2272.732          41.000  
  23419607.296     1728419.179       -4140.750          47.000  
  24708046.077    -1331449.842        3066.092          37.000  
  39913128.819       91420.2852       -580.105          34.000  
  20206032.294      694125.210       -1695.293          45.000  
  22647673.496      789955.001       -1909.092          44.000  
  25130823.426      -63906.9902       1662.691          30.000  
 19 10  5 11  5  5.0000000  0 14G 1G22G 3G18G23G28G32G17G 8G19S27G11
                                G14G31
  20386690.734      372665.214        -909.762          50.000  
  20701558.065      269396.547        -672.356          45.000  
  20750562.569     -353779.632         751.979          49.000  
  20852151.001     1062818.453       -2495.942          47.000  
  23794991.284    -1209938.821        2784.990          48.000  
  23867503.326      848926.651       -2013.723          38.000  
  24007997.821     1425511.237       -3331.442          35.000  
  23483086.093    -1001866.844        2273.396          41.000  
  23420395.313     1732559.500       -4140.438          47.000  
  24707462.507    -1334515.873        3066.112          37.000  
  39913238.895       92000.1402       -578.991          34.000  
  20206354.879      695820.171       -1695.217          46.000  
  22648036.391      791864.016       -1909.562          44.000  
  25130514.487      -65572.0073       1661.985          28.000  
 19 10  5 11  5  6.0000000  0 13G 1G22G 3G18G23G28G32G17G 8G19S27G11
                                G14
  20386863.665      373575.003        -909.958          50.000  
  20701686.150      270068.980        -672.661          45.000  
  20750419.827     -354531.922         751.828          48.000  
  20852625.577     1065314.268       -2496.105          47.000  
  23794461.007    -1212724.211        2785.275          48.000  
  23867886.149      850940.523       -2014.923          38.000  
  24008631.857     1428841.889       -3331.327          35.000  
  23482653.013    -1004140.048        2272.746          41.000  
  23421183.155     1736699.588       -4140.158          47.000  
  24706879.181    -1337582.206        3065.948          38.000  
  39913349.425       92579.5662       -580.104          34.000  
  20206677.289      697515.248       -1695.696          46.000  
  22648399.181      793773.125       -1910.129          44.000  
 19 10  5 11  5  7.0000000  0 14G 1G22G 3G18G23G28G32G17G 8G19S27G11
                                G14G31
  20387036.841      374485.727        -911.426          49.000  
  20701814.095      270742.328        -674.132          45.000  
  20750276.630     -355283.244         750.702          48.000  
  20853100.223     1067811.004       -2497.286          47.000  
  23793930.730    -1215508.915        2784.309          48.000  
  23868268.343      852955.371       -2015.814          38.000  
  24009266.068     1432173.503       -3333.158          35.000  
  23482220.562    -1006412.398        2271.638          41.000  
  23421970.893     1740840.397       -4141.426          47.000  
  24706295.995    -1340647.799        3065.736          38.000  
  39913459.884       93159.6022       -582.420          35.000  
  20207000.188      699211.467       -1696.542          46.000  
  22648762.390      795683.332       -1910.562          44.000  
  25129903.486      -68902.2523       1664.113          29.000  
 19 10  5 11  5  8.0000000  0 14G 1G22G 3G18G23G28G32G17G 8G19S27G11
                                G14G31
  20387210.436      375397.542        -912.310          49.000  
  20701942.249      271416.745        -674.969          45.000  
  20750133.922     -356033.464         749.604          48.000  
  20853575.114     1070308.798       -2498.655          46.000  
  23793401.116    -1218292.812        2783.231          48.000  
  23868651.934      854971.341       -2016.363          38.000  
  24009900.872     1435506.153       -3333.718          36.000  
  23481788.250    -1008683.772        2270.832          41.000  
  23422759.259     1744982.074       -4142.280          47.000  
  24705713.332    -1343712.532        3064.668          38.000  
  39913570.240       93740.2872       -579.703          35.000  
  20207322.982      700908.940       -1698.179          46.000  
  22649125.668      797594.757       -1912.040          44.000  
  25129586.310      -70565.8593       1662.949          28.000  
 19 10  5 11  5  9.0000000  0 14G 1G22G 3G18G23G28G32G17G 8G19S27G11
                                G14G31
  20387383.752      376309.328        -912.086          50.000  
  20702071.171      272091.152        -674.619          46.000  
  20749990.796     -356783.661         750.360          48.000  
  20854049.690     1072806.583       -2497.611          46.000  
  23792871.118    -1221076.976        2784.196          48.000  
  23869034.966      856987.267       -2016.140          37.000  
  24010535.327     1438838.763       -3332.297          35.000  
  23481356.113    -1010955.265        2272.071          41.000  
  23423547.381     1749123.539       -4141.149          47.000  
  24705130.495    -1346777.495        3064.464          37.000  
  39913680.141       94320.4572       -580.757          35.000  
  20207645.567      702606.587       -1698.171          45.000  
  22649489.435      799506.342       -1911.631          44.000  
  25129269.240      -72229.5823       1664.710          28.000  
 19 10  5 11  5 10.0000000  0 14G 1G22G 3G18G23G28G32G17G 8G19S27G11
                                G14G31
  20387557.312      377220.847        -911.698          50.000  
  20702199.675      272765.277        -674.651          46.000  
  20749848.367     -357534.100         750.246          48.000  
  20854524.894     1075304.081       -2497.917          46.000  
  23792340.876    -1223861.670        2784.891          48.000  
  23869418.313      859002.993       -2015.757          37.000  
  24011169.642     1442171.086       -3332.713          36.000  
  23480923.976    -1013227.115        2271.774          41.000  
  23424335.502     1753264.504       -4140.889          47.000  
  24704547.134    -1349842.935        3065.078          38.000  
  39913790.915       94899.8872       -578.245          35.000  
  20207968.535      704304.168       -1698.348          45.000  
  22649853.831      801417.807       -1911.330          44.000  
  25128953.286      -73893.6733       1664.110          28.000  
 19 10  5 11  5 11.0000000  0 14G 1G22G 3G18G23G28G32G17G 8G19S27G11
                                G14G31
  20387731.325      378133.154        -913.219          50.000  
  20702328.353      273440.180        -675.978          46.000  
  20749706.008     -358283.729         748.890          48.000  
  20855000.343     1077802.343       -2498.907          46.000  
  23791811.122    -1226645.849        2783.629          48.000  
  23869800.822      861019.468       -2018.133          36.000  
  24011804.062     1445504.182       -3332.883          35.000  
  23480491.734    -1015498.277        2270.428          41.000  
  23425123.833     1757406.053       -4142.225          47.000  
  24703964.052    -1352907.794        3063.203          38.000  
  39913901.829       95479.7042       -581.990          35.000  
  20208291.888      706002.720       -1699.310          45.000  
  22650218.296      803330.174       -1913.061          44.000  
  25128640.509      -75557.2063       1661.946          29.000  
 19 10  5 11  5 12.0000000  0 14G 1G22G 3G18G23G28G32G17G 8G19S27G11
                                G14G31
  20387905.129      379046.677        -914.441          50.000  
  20702456.926      274116.294        -677.256          46.000  
  20749563.370     -359032.114         747.698          48.000  
  20855476.001     1080301.825       -2500.155          46.000  
  23791281.438    -1229429.074        2782.739          47.000  
  23870184.028      863037.244       -2016.879          36.000  
  24012438.483     1448838.417       -3333.714          35.000  
  23480060.923    -1017768.311        2268.600          42.000  
  23425912.339     1761548.626       -4142.942          47.000  
  24703381.529    -1355971.641        3063.835          37.000  
  39914011.939       96060.4322       -581.521          35.000  
  20208615.764      707702.672       -1700.392          45.000  
  22650582.203      805243.932       -1914.785          44.000  
  25128326.474      -77219.4913       1661.595          29.000  
 19 10  5 11  5 13.0000000  0 14G 1G22G 3G18G23G28G32G17G 8G19S27G11
                                G14G31
  20388078.968      379960.350        -913.344          50.000  
  20702585.220      274792.547        -675.895          46.000  
  20749421.395     -359780.327         748.296          48.000  
  20855951.973     1082801.469       -2499.372          46.000  
  23790751.963    -1232212.394        2783.743          47.000  
  23870566.747      865055.140       -2017.297          36.000  
  24013072.484     1452172.846       -3333.620          35.000  
  23479628.925    -1020038.307        2270.329          42.000  
  23426700.809     1765691.155       -4141.975          47.000  
  24702798.343    -1359035.523        3063.164          37.000  
  39914122.539       96640.8872       -579.810          34.000  
  20208939.151      709402.955       -1700.600          45.000  
  22650946.913      807157.990       -1914.052          44.000  
  25128011.847      -78881.7263       1664.156          29.000  
 19 10  5 11  5 14.0000000  0 14G 1G22G 3G18G23G28G32G17G 8G19S27G11
                                G14G31
  20388253.191      380873.849        -913.534          50.000  
  20702713.863      275468.604        -676.358          45.000  
  20749279.211     -360528.668         748.478          48.000  
  20856427.596     1085300.904       -2499.633          46.000  
  23790222.000    -1234996.139        2783.879          47.000  
  23870949.918      867072.902       -2017.040          36.000  
  24013707.044     1455507.040       -3334.597          35.000  
  23479197.346    -1022308.541        2270.045          42.000  
  23427489.001     1769833.303       -4142.023          47.000  
  24702215.052    -1362099.813        3063.560          38.000  
  39914232.475       97220.7992       -580.863          34.000  
  20209262.923      711103.273       -1700.333          45.000  
  22651311.343      809072.046       -1914.205          44.000  
  25127696.452      -80544.3793       1662.632          28.000  
 19 10  5 11  5 15.0000000  0 14G 1G22G 3G18G23G28G32G17G 8G19S27G11
                                G14G31
  20388427.345      381788.059        -915.190          50.000  
  20702842.646      276145.380        -677.204          45.000  
  20749136.991     -361276.271         746.659          48.000  
  20856903.114     1087801.053       -2500.924          46.000  
  23789692.351    -1237779.436        2782.541          47.000  
  23871333.230      869091.375       -2019.281          36.000  
  24014341.708     1458841.977       -3336.080          35.000  
  23478765.593    -1024578.178        2269.156          42.000  
  23428276.808     1773975.957       -4143.567          47.000  
  24701631.517    -1365163.606        3061.824          38.000  
  39914343.354       97800.9982       -581.504          34.000  
  20209586.624      712804.480       -1702.077          45.000  
  22651675.843      810986.951       -1915.898          44.000  
  25127380.917      -82206.3983       1661.926          27.000  
 19 10  5 11  5 16.0000000  0 14G 1G22G 3G18G23G28G32G17G 8G19S27G11
                                G14G31
  20388601.288      382703.417        -915.965          50.000  
  20702971.568      276823.268        -678.860          45.000  
  20748994.842     -362022.714         745.842          48.000  
  20857379.191     1090302.333       -2502.077          46.000  
  23789162.528    -1240561.850        2781.964          47.000  
  23871716.856      871111.011       -2020.122          36.000  
  24014976.582     1462178.003       -3336.667          35.000  
  23478333.735    -1026846.776        2267.696          42.000  
  23429065.593     1778119.537       -4144.274          48.000  
  24701048.819    -1368226.443        3060.738          38.000  
  39914453.570       98382.0312       -581.296          34.000  
  20209910.849      714507.032       -1702.783          46.000  
  22652040.448      812903.143       -1917.097          44.000  
  25127065.138      -83867.3903       1659.669          27.000  
 19 10  5 11  5 17.0000000  0 14G 1G22G 3G18G23G28G32G17G 8G19S27G11
                                G14G31
  20388775.721      383619.232        -915.822          50.000  
  20703100.595      277501.624        -678.849          45.000  
  20748853.844     -362768.658         745.985          49.000  
  20857855.757     1092804.080       -2502.011          46.000  
  23788633.088    -1243344.050        2782.098          47.000  
  23872100.830      873131.172       -2020.625          36.000  
  24015611.525     1465514.485       -3335.944          36.000  
  23477902.715    -1029114.984        2268.396          42.000  
  23429854.203     1782263.387       -4143.799          48.000  
  24700466.261    -1371289.031        3062.168          38.000  
  39914563.855       98963.1922       -583.424          34.000  
  20210235.039      716210.225       -1703.595          46.000  
  22652405.332      814819.983       -1917.125          44.000  
  25126749.219      -85528.0093       1661.610          27.000  
 19 10  5 11  5 18.0000000  0 14G 1G22G 3G18G23G28G32G17G 8G19S27G11
                                G14G31
  20388950.293      384534.981        -915.818          50.000  
  20703230.075      278179.912        -678.093          45.000  
  20748711.555     -363514.624         745.845          49.000  
  20858332.078     1095305.775       -2501.673          46.000  
  23788103.718    -1246126.569        2782.438          47.000  
  23872486.061      875151.275       -2020.180          36.000  
  24016246.190     1468850.885       -3336.971          36.000  
  23477471.311    -1031383.363        2268.626          42.000  
  23430642.848     1786406.965       -4143.589          48.000  
  24699883.563    -1374351.902        3062.477          38.000  
  39914674.105       99543.8812       -579.869          34.000  
  20210559.509      717913.546       -1703.641          45.000  
  22652770.495      816736.875       -1917.160          44.000  
  25126432.882      -87188.8353       1661.352          27.000  
 19 10  5 11  5 19.0000000  0 14G 1G22G 3G18G23G28G32G17G 8G19S27G11
                                G14G31
  20389124.341      385451.217        -916.844          50.000  
  20703358.963      278858.673        -679.140          45.000  
  20748569.789     -364260.081         745.106          49.000  
  20858807.945     1097807.937       -2502.446          46.000  
  23787574.174    -1248908.869        2781.745          47.000  
  23872870.908      877171.908       -2020.926          36.000  
  24016880.680     1472187.763       -3336.673          35.000  
  23477039.208    -1033651.341        2267.704          42.000  
  23431431.529     1790550.835       -4144.023          48.000  
  24699300.447    -1377414.473        3063.233          38.000  
  39914784.705      100124.5762       -582.940          34.000  
  20210883.734      719617.556       -1704.897          45.000  
  22653136.042      818654.445       -1917.136          45.000  
  25126117.661      -88849.3683       1660.380          28.000  
 19 10  5 11  5 20.0000000  0 14G 1G22G 3G18G23G28G32G17G 8G19S27G11
                                G14G31
  20389298.948      386368.344        -917.181          50.000  
  20703487.990      279538.301        -679.850          45.000  
  20748427.954     -365004.613         744.231          49.000  
  20859284.650     1100310.972       -2503.649          46.000  
  23787044.909    -1251690.540        2781.073          47.000  
  23873256.139      879193.437       -2022.419          36.000  
  24017516.112     1475525.467       -3338.818          35.000  
  23476607.769    -1035918.523        2266.874          42.000  
  23432220.732     1794695.363       -4144.882          48.000  
  24698717.993    -1380476.399        3062.026          39.000  
  39914895.374      100705.7992       -581.029          34.000  
  20211207.994      721322.631       -1705.457          45.000  
  22653501.624      820572.993       -1919.533          45.000  
  25125801.986      -90509.1723       1659.781          30.000  
 19 10  5 11  5 21.0000000  0 14G 1G22G 3G18G23G28G32G17G 8G19S27G11
                                G14G31
  20389473.031      387285.833        -917.480          50.000  
  20703617.505      280218.296        -680.247          45.000  
  20748285.979     -365748.768         743.980          49.000  
  20859760.902     1102814.378       -2503.502          46.000  
  23786515.714    -1254472.101        2781.594          47.000  
  23873641.615      881215.329       -2022.385          37.000  
  24018151.335     1478863.506       -3338.687          36.000  
  23476176.295    -1038185.456        2266.854          42.000  
  23433009.552     1798840.071       -4144.604          48.000  
  24698135.540    -1383538.183        3062.044          38.000  
  39915006.637      101286.9512       -581.074          34.000  
  20211531.730      723028.264       -1705.443          45.000  
  22653866.369      822492.110       -1918.741          44.000  
  25125485.579      -92168.6952       1657.925          29.000  
 19 10  5 11  5 22.0000000  0 14G 1G22G 3G18G23G28G32G17G 8G19S27G11
                                G14G31
  20389647.987      388203.212        -916.970          50.000  
  20703746.672      280898.173        -679.875          45.000  
  20748144.458     -366492.994         744.523          49.000  
  20860237.188     1105317.642       -2502.674          46.000  
  23785986.449    -1257254.024        2782.475          47.000  
  23874027.718      883237.192       -2021.564          37.000  
  24018786.767     1482201.440       -3337.775          36.000  
  23475744.437    -1040452.573        2267.364          42.000  
  23433798.302     1802984.464       -4143.686          48.000  
  24697552.528    -1386600.262        3063.518          38.000  
  39915116.468      101867.4832       -581.471          34.000  
  20211856.409      724733.979       -1705.224          45.000  
  22654231.672      824411.248       -1918.751          45.000  
  25125169.207      -93828.3973       1661.141          28.000  
 19 10  5 11  5 23.0000000  0 14G 1G22G 3G18G23G28G32G17G 8G19S27G11
                                G14G31
  20389822.559      389120.759        -918.358          50.000  
  20703876.222      281578.187        -680.925          45.000  
  20748002.273     -367237.054         742.891          48.000  
  20860713.509     1107821.058       -2504.188          46.000  
  23785456.904    -1260036.057        2781.363          47.000  
  23874412.879      885259.202       -2023.154          38.000  
  24019421.990     1485539.519       -3338.448          36.000  
  23475312.300    -1042719.645        2266.631          42.000  
  23434586.458     1807128.793       -4145.075          48.000  
  24696969.866    -1389662.392        3061.320          38.000  
  39915226.789      102447.7052       -580.951          34.000  
  20212180.704      726440.021       -1707.219          45.000  
  22654596.381      826330.702       -1920.135          44.000  
  25124850.635      -95488.1793       1659.146          27.000  
 19 10  5 11  5 24.0000000  0 13G 1G22G 3G18G23G28G32G17G 8G19S27G11
                                G14
  20389997.341      390039.360        -919.149          50.000  
  20704005.633      282259.280        -681.326          45.000  
  20747860.578     -367979.988         742.371          48.000  
  20861190.144     1110325.542       -2504.860          46.000  
  23784928.023    -1262817.265        2781.172          48.000  
  23874798.983      887282.320       -2023.341          38.000  
  24020057.283     1488878.617       -3339.304          36.000  
  23474881.105    -1044985.725        2265.698          42.000  
  23435375.871     1811273.993       -4145.524          48.000  
  24696387.482    -1392723.639        3061.460          38.000  
  39915337.109      103028.6862       -581.164          34.000  
  20212506.150      728147.349       -1708.358          45.000  
  22654961.579      828251.379       -1921.104          45.000  
 19 10  5 11  5 25.0000000  0 13G 1G22G 3G18G23G28G32G17G 8G19S27G11
                                G14
  20390172.262      390958.757        -919.104          49.000  
  20704135.427      282941.125        -681.546          45.000  
  20747719.231     -368722.112         742.634          47.000  
  20861666.640     1112830.775       -2505.259          46.000  
  23784399.351    -1265597.968        2780.999          47.000  
  23875185.784      889306.214       -2023.863          38.000  
  24020692.366     1492218.481       -3339.741          35.000  
  23474449.247    -1047251.144        2265.592          42.000  
  23436164.970     1815419.746       -4145.381          48.000  
  24695804.784    -1395784.372        3061.211          37.000  
  39915447.604      103610.0142       -581.180          34.000  
  20212831.318      729855.622       -1708.155          45.000  
  22655327.266      830172.967       -1921.349          44.000  
 19 10  5 11  5 26.0000000  0 13G 1G22G 3G18G23G28G32G17G 8G19S27G11
                                G14
  20390346.973      391878.001        -918.850          50.000  
  20704265.152      283622.837        -681.399          45.000  
  20747577.779     -369464.335         742.672          47.000  
  20862143.101     1115335.917       -2504.677          46.000  
  23783870.400    -1268379.038        2781.684          48.000  
  23875572.307      891330.041       -2023.248          39.000  
  24021327.449     1495558.218       -3338.958          35.000  
  23474018.261    -1049516.757        2266.203          42.000  
  23436953.650     1819565.175       -4144.966          48.000  
  24695222.645    -1398845.396        3061.106          37.000  
  39915558.378      104190.8702       -580.093          34.000  
  20213156.206      731563.974       -1707.996          45.000  
  22655692.778      832094.606       -1921.704          44.000  
 19 10  5 11  5 27.0000000  0 13G 1G22G 3G18G23G28G32G17G 8G19S27G11
                                G14
  20390522.243      392797.245        -918.714          50.000  
  20704394.877      284304.521        -681.627          45.000  
  20747435.665     -370206.559         742.230          47.000  
  20862619.387     1117841.007       -2504.750          46.000  
  23783341.205    -1271160.398        2781.548          48.000  
  23875957.887      893353.826       -2024.230          39.000  
  24021962.183     1498897.890       -3339.948          35.000  
  23473587.241    -1051782.498        2266.237          42.000  
  23437742.644     1823710.360       -4145.070          48.000  
  24694640.296    -1401906.663        3061.627          37.000  
  39915669.117      104771.2212       -579.611          34.000  
  20213481.513      733272.489       -1708.447          45.000  
  22656058.640      834016.388       -1921.492          44.000  
 19 10  5 11  5 28.0000000  0 13G 1G22G 3G18G23G28G32G17G 8G19S27G11
                                G14
  20390697.443      393717.706        -920.223          50.000  
  20704524.498      284987.425        -683.050          45.000  
  20747294.179     -370947.514         741.351          47.000  
  20863096.197     1120347.317       -2505.558          46.000  
  23782812.079    -1273940.781        2780.963          48.000  
  23876343.885      895378.889       -2025.725          39.000  
  24022597.511     1502238.823       -3339.698          35.000  
  23473155.907    -1054047.091        2264.953          42.000  
  23438531.987     1827856.590       -4145.863          48.000  
  24694057.878    -1404966.905        3061.597          37.000  
  39915779.577      105352.4832       -580.411          34.000  
  20213806.890      734982.418       -1710.066          45.000  
  22656424.536      835939.547       -1923.172          44.000  
 19 10  5 11  5 29.0000000  0 13G 1G22G 3G18G23G28G32G17G 8G19S27G11
                                G14
  20390872.434      394639.078        -921.838          50.000  
  20704654.711      285671.221        -684.163          45.000  
  20747152.797     -371687.530         739.706          47.000  
  20863573.704     1122854.524       -2507.750          46.000  
  23782282.745    -1276720.516        2779.539          48.000  
  23876729.745      897404.881       -2026.556          39.000  
  24023233.222     1505580.561       -3342.554          35.000  
  23472724.921    -1056310.886        2263.961          42.000  
  23439320.737     1832003.522       -4147.171          48.000  
  24693475.634    -1408026.427        3060.258          37.000  
  39915890.316      105934.1642       -582.455          34.000  
  20214132.825      736693.456       -1710.776          45.000  
  22656790.467      837863.746       -1923.941          44.000  
 19 10  5 11  5 30.0000000  0 13G 1G22G 3G18G23G28G32G17G 8G19S27G11
                                G14
  20391047.565      395560.610        -921.484          50.000  
  20704784.959      286355.179        -683.804          45.000  
  20747011.939     -372427.365         740.111          47.000  
  20864050.828     1125361.903       -2507.443          46.000  
  23781753.968    -1279500.346        2779.990          48.000  
  23877115.813      899431.069       -2026.062          39.000  
  24023868.236     1508922.502       -3343.459          35.000  
  23472294.878    -1058574.607        2264.120          42.000  
  23440110.010     1836150.390       -4146.792          48.000  
  24692893.215    -1411086.020        3059.671          37.000  
  39916000.636      106515.5452       -581.938          34.000  
  20214458.236      738404.827       -1711.623          45.000  
  22657157.061      839788.269       -1924.360          44.000  
 19 10  5 11  5 31.0000000  0 13G 1G22G 3G18G23G28G32G17G 8G19S27G11
                                G14
  20391222.939      396482.191        -922.272          50.000  
  20704914.999      287039.147        -684.498          45.000  
  20746871.290     -373167.133         739.369          47.000  
  20864528.127     1127869.281       -2508.031          46.000  
  23781225.715    -1282280.395        2780.016          48.000  
  23877501.428      901457.285       -2026.813          39.000  
  24024503.040     1512264.439       -3341.256          35.000  
  23471864.241    -1060838.404        2263.841          42.000  
  23440899.039     1840297.069       -4147.040          48.000  
  24692311.111    -1414145.797        3059.301          37.000  
  39916110.433      107096.4542       -582.468          34.000  
  20214784.241      740116.419       -1712.153          45.000  
  22657523.586      841712.977       -1925.034          44.000  
 19 10  5 11  5 32.0000000  0 13G 1G22G 3G18G23G28G32G17G 8G19S27G11
                                G14
  20391398.977      397404.873        -923.314          50.000  
  20705045.631      287724.225        -685.655          45.000  
  20746730.781     -373905.752         738.310          47.000  
  20865005.006     1130377.785       -2508.579          46.000  
  23780697.357    -1285059.586        2778.527          48.000  
  23877887.008      903484.661       -2027.391          39.000  
  24025138.402     1515607.444       -3343.439          34.000  
  23471432.523    -1063101.188        2262.922          41.000  
  23441688.662     1844444.654       -4147.942          48.000  
  24691728.832    -1417204.657        3058.610          37.000  
  39916221.661      107678.1542       -581.861          34.000  
  20215110.351      741829.333       -1713.207          45.000  
  22657889.551      843638.955       -1926.130          44.000  
 19 10  5 11  5 33.0000000  0 13G 1G22G 3G18G23G28G32G17G 8G19S27G11
                                G14
  20391575.085      398328.873        -924.660          50.000  
  20705176.368      288410.592        -686.711          45.000  
  20746590.795     -374643.050         737.134          47.000  
  20865483.631     1132887.548       -2510.374          46.000  
  23780169.000    -1287837.733        2777.922          48.000  
  23878272.763      905513.342       -2029.076          39.000  
  24025774.567     1518951.742       -3345.046          34.000  
  23471002.270    -1065362.733        2260.954          41.000  
  23442478.249     1848593.341       -4148.923          48.000  
  24691147.461    -1420262.399        3057.766          37.000  
  39916332.888      108260.7652       -583.012          34.000  
  20215436.740      743543.728       -1714.865          45.000  
  22658255.901      845566.364       -1928.179          44.000  
 19 10  5 11  5 34.0000000  0 13G 1G22G 3G18G23G28G32G17G 8G19S27G11
                                G14
  20391750.878      399252.799        -924.209          48.000  
  20705307.105      289096.886        -686.345          44.000  
  20746450.809     -375380.362         737.536          47.000  
  20865961.208     1135397.263       -2509.790          45.000  
  23779640.153    -1290616.199        2778.436          48.000  
  23878658.727      907542.015       -2028.682          38.000  
  24026410.523     1522295.989       -3342.568          33.000  
  23470572.507    -1067624.447        2261.827          40.000  
  23443267.837     1852741.768       -4148.457          47.000  
  24690565.671    -1423320.417        3058.369          37.000  
  39916443.732      108842.9232       -582.488          33.000  
  20215763.338      745258.257       -1714.706          44.000  
  22658622.705      847493.902       -1928.133          44.000  
 19 10  5 11  5 35.0000000  0 13G 1G22G 3G18G23G28G32G17G 8G19S27G11
                                G14
  20391926.567      400176.630        -924.315          48.000  
  20705437.423      289783.081        -686.461          44.000  
  20746310.824     -376117.761         736.805          46.000  
  20866439.135     1137906.854       -2510.242          44.000  
  23779112.075    -1293395.023        2778.317          47.000  
  23879044.830      909570.596       -2029.565          38.000  
  24027047.037     1525640.050       -3345.838          33.000  
  23470141.835    -1069886.355        2262.093          39.000  
  23444057.180     1856889.886       -4148.309          47.000  
  24689983.880    -1426378.787        3057.948          35.000  
  39916554.855      109424.6862       -581.291          33.000  
  20216089.343      746972.869       -1715.193          44.000  
  22658989.857      849421.458       -1927.695          43.000  
 19 10  5 11  5 36.0000000  0 13G 1G22G 3G18G23G28G32G17G 8G19S27G11
                                G14
  20392102.675      401101.469        -925.834          48.000  
  20705568.439      290470.257        -688.098          44.000  
  20746171.257     -376854.100         735.531          47.000  
  20866917.166     1140417.494       -2511.161          44.000  
  23778583.787    -1296173.074        2777.530          47.000  
  23879431.108      911600.203       -2030.075          38.000  
  24027683.481     1528985.197       -3343.802          33.000  
  23469711.757    -1072147.352        2259.207          39.000  
  23444846.383     1861038.810       -4149.305          47.000  
  24689401.497    -1429436.333        3056.284          36.000  
  39916665.524      110007.1492       -582.844          33.000  
  20216416.395      748688.699       -1716.167          44.000  
  22659357.429      851350.218       -1929.368          43.000  
 19 10  5 11  5 37.0000000  0 13G 1G22G 3G18G23G28G32G17G 8G19S27G11
                                G14
  20392279.375      402027.733        -926.689          49.000  
  20705700.119      291158.874        -688.692          45.000  
  20746031.934     -377589.004         734.383          47.000  
  20867395.407     1142929.512       -2512.468          45.000  
  23778055.988    -1298949.986        2776.865          48.000  
  23879817.316      913631.231       -2030.721          38.000  
  24028320.240     1532331.654       -3346.159          33.000  
  23469281.888    -1074407.029        2258.304          41.000  
  23445636.459     1865188.942       -4150.467          48.000  
  24688820.230    -1432492.665        3056.233          38.000  
  39916776.682      110590.5282       -584.604          34.000  
  20216743.622      750406.111       -1717.439          45.000  
  22659725.175      853280.524       -1930.545          44.000  
 19 10  5 11  5 38.0000000  0 14G 1G22G 3G18G23G28G32G17G 8G19S27G11
                                G14G31
  20392455.623      402954.157        -926.736          49.000  
  20705831.205      291847.629        -688.721          44.000  
  20745892.647     -378323.708         734.097          47.000  
  20867873.752     1145441.693       -2512.280          45.000  
  23777527.630    -1301726.974        2777.202          48.000  
  23880203.245      915662.468       -2031.550          38.000  
  24028957.766     1535678.287       -3345.439          33.000  
  23468851.531    -1076666.629        2259.348          40.000  
  23446426.396     1869339.043       -4150.365          47.000  
  24688238.858    -1435548.972        3056.623          36.000  
  39916887.805      111173.6872       -583.061          33.000  
  20217070.394      752123.886       -1718.249          44.000  
  22660092.921      855211.158       -1931.037          43.000  
  25120142.113     -120338.4013       1652.989          28.000  
 19 10  5 11  5 39.0000000  0 14G 1G22G 3G18G23G28G32G17G 8G19S27G11
                                G14G31
  20392632.114      403880.349        -926.774          49.000  
  20705962.675      292536.146        -689.347          44.000  
  20745753.254     -379058.603         734.637          47.000  
  20868351.958     1147953.630       -2512.391          45.000  
  23776999.272    -1304504.453        2777.538          48.000  
  23880588.791      917693.482       -2031.240          38.000  
  24029595.606     1539024.630       -3347.237          33.000  
  23468421.662    -1078926.529        2259.851          40.000  
  23447215.285     1873488.706       -4149.973          47.000  
  24687657.487    -1438605.778        3057.034          37.000  
  39916999.556      111756.2072       -582.458          33.000  
  20217397.377      753841.622       -1718.034          44.000  
  22660460.318      857141.714       -1930.546          44.000  
  25119832.023     -121991.4513       1652.730          29.000  
 19 10  5 11  5 40.0000000  0 14G 1G22G 3G18G23G28G32G17G 8G19S27G11
                                G14G31
  20392808.152      404807.423        -927.851          49.000  
  20706094.040      293225.516        -690.360          45.000  
  20745613.653     -379792.616         732.975          47.000  
  20868829.850     1150466.425       -2513.525          45.000  
  23776470.670    -1307281.317        2776.412          48.000  
  23880974.440      919725.397       -2032.223          37.000  
  24030232.644     1542371.868       -3347.828          33.000  
  23467991.689    -1081185.681        2258.854          40.000  
  23448004.454     1877639.014       -4151.321          47.000  
  24687075.801    -1441661.926        3056.425          36.000  
  39917111.063      112339.1762       -584.921          33.000  
  20217723.556      755560.425       -1719.871          44.000  
  22660827.994      859073.275       -1932.454          43.000  
  25119517.325     -123643.8773       1651.625          28.000  
 19 10  5 11  5 41.0000000  0 14G 1G22G 3G18G23G28G32G17G 8G19S27G11
                                G14G31
  20392984.923      405735.938        -928.961          49.000  
  20706225.335      293916.340        -691.273          44.000  
  20745474.156     -380525.131         731.963          47.000  
  20869308.265     1152980.675       -2514.427          45.000  
  23775941.929    -1310056.989        2775.415          47.000  
  23881360.544      921758.799       -2032.645          37.000  
  24030869.682     1545720.551       -3349.735          33.000  
  23467562.274    -1083443.455        2257.311          40.000  
  23448794.390     1881790.594       -4151.864          47.000  
  24686494.465    -1444716.834        3053.512          36.000  
  39917221.837      112923.2372       -585.235          33.000  
  20218050.922      757280.876       -1720.916          44.000  
  22661195.949      861006.463       -1933.812          43.000  
  25119209.853     -125295.3763       1653.566          27.000  
 19 10  5 11  5 42.0000000  0 13G 1G22G 3G18G23G28G32G17G 8G19S27G11
                                G14
  20393162.636      406664.838        -929.266          50.000  
  20706356.875      294607.522        -691.872          45.000  
  20745335.182     -381257.260         731.762          48.000  
  20869786.994     1155495.292       -2514.965          46.000  
  23775413.676    -1312832.547        2775.248          48.000  
  23881747.101      923792.592       -2034.312          37.000  
  24031506.964     1549069.524       -3349.954          33.000  
  23467132.894    -1085700.966        2257.289          40.000  
  23449584.501     1885942.322       -4151.971          47.000  
  24685913.791    -1447771.576        3054.865          39.000  
  39917332.960      113507.2452       -584.891          33.000  
  20218378.079      759001.893       -1721.518          45.000  
  22661563.765      862940.178       -1934.503          44.000  
 19 10  5 11  5 43.0000000  0 13G 1G22G 3G18G23G28G32G17G 8G19S27G11
                                G14
  20393339.197      407594.167        -929.596          50.000  
  20706488.764      295299.119        -691.710          46.000  
  20745196.244     -381988.908         731.367          49.000  
  20870264.990     1158010.338       -2515.281          46.000  
  23774885.632    -1315607.923        2775.345          49.000  
  23882134.391      925826.806       -2034.591          38.000  
  24032144.734     1552418.921       -3349.273          34.000  
  23466703.200    -1087958.130        2256.869          41.000  
  23450374.508     1890094.289       -4152.111          47.000  
  24685333.013    -1450826.076        3054.549          39.000  
  39917443.769      114091.2532       -584.125          33.000  
  20218705.410      760723.536       -1721.889          45.000  
  22661931.615      864874.466       -1933.934          45.000  
 19 10  5 11  5 44.0000000  0 13G 1G22G 3G18G23G28G32G17G 8G19S27G11
                                G14
  20393516.456      408524.336        -930.787          50.000  
  20706620.653      295991.541        -693.064          46.000  
  20745056.886     -382719.702         730.251          49.000  
  20870743.510     1160526.214       -2516.470          46.000  
  23774357.972    -1318382.713        2774.162          49.000  
  23882521.263      927861.872       -2036.010          38.000  
  24032782.051     1555769.169       -3349.645          35.000  
  23466273.715    -1090214.568        2255.104          41.000  
  23451163.851     1894246.876       -4152.879          47.000  
  24684751.502    -1453879.971        3052.725          39.000  
  39917554.543      114675.5622       -585.799          33.000  
  20219033.439      762446.196       -1723.535          45.000  
  22662299.780      866809.718       -1936.221          44.000  
 19 10  5 11  5 45.0000000  0 13G 1G22G 3G18G23G28G32G17G 8G19S27G11
                                G14
  20393693.052      409455.751        -932.225          50.000  
  20706752.123      296685.203        -694.755          46.000  
  20744918.052     -383449.218         728.262          49.000  
  20871222.100     1163043.339       -2517.977          46.000  
  23773829.510    -1321156.501        2772.844          49.000  
  23882908.622      929898.236       -2037.615          38.000  
  24033420.799     1559120.601       -3352.721          35.000  
  23465844.126    -1092469.820        2254.431          41.000  
  23451954.241     1898400.521       -4154.490          47.000  
  24684170.550    -1456932.766        3051.784          39.000  
  39917665.701      115260.8052       -585.327          34.000  
  20219360.945      764170.298       -1725.107          45.000  
  22662668.328      868746.408       -1937.260          45.000  
 19 10  5 11  5 46.0000000  0 13G 1G22G 3G18G23G28G32G17G 8G19S27G11
                                G14
  20393869.963      410387.941        -932.009          50.000  
  20706883.488      297379.647        -694.584          46.000  
  20744779.183     -384177.890         729.004          49.000  
  20871701.004     1165561.246       -2517.805          46.000  
  23773301.397    -1323929.765        2773.593          49.000  
  23883295.913      931935.400       -2037.478          38.000  
  24034058.569     1562472.798       -3351.278          35.000  
  23465415.164    -1094724.389        2255.181          41.000  
  23452744.561     1902554.733       -4153.909          48.000  
  24683589.422    -1459985.042        3052.648          38.000  
  39917776.719      115846.4542       -585.196          33.000  
  20219688.730      765895.390       -1724.862          45.000  
  22663036.074      870684.021       -1937.299          45.000  
 19 10  5 11  5 47.0000000  0 13G 1G22G 3G18G23G28G32G17G 8G19S27G11
                                G14
  20394047.082      411320.245        -932.439          50.000  
  20707015.446      298074.167        -694.527          45.000  
  20744640.035     -384906.466         728.574          48.000  
  20872179.977     1168079.230       -2517.799          46.000  
  23772772.795    -1326703.191        2773.223          49.000  
  23883683.133      933972.680       -2037.413          38.000  
  24034696.759     1565825.086       -3352.881          35.000  
  23464986.133    -1096978.964        2254.192          41.000  
  23453534.882     1906708.792       -4154.173          48.000  
  24683008.121    -1463037.392        3053.279          38.000  
  39917888.191      116431.8072       -585.691          33.000  
  20220017.143      767620.758       -1725.701          45.000  
  22663404.065      872621.897       -1938.530          44.000  
 19 10  5 11  5 48.0000000  0 13G 1G22G 3G18G23G28G32G17G 8G19S27G11
                                G14
  20394224.132      412253.223        -933.646          50.000  
  20707147.056      298769.378        -695.415          46.000  
  20744501.481     -385634.318         727.488          49.000  
  20872658.846     1170597.895       -2519.007          46.000  
  23772244.926    -1329476.188        2772.531          49.000  
  23884070.877      936010.688       -2038.344          38.000  
  24035334.634     1569178.013       -3352.632          35.000  
  23464557.242    -1099232.932        2253.056          41.000  
  23454325.167     1910863.349       -4155.049          48.000  
  24682427.866    -1466089.283        3051.943          38.000  
  39917999.559      117017.3652       -586.533          33.000  
  20220345.765      769346.999       -1726.817          45.000  
  22663772.683      874560.603       -1939.366          44.000  
 19 10  5 11  5 49.0000000  0 13G 1G22G 3G18G23G28G32G17G 8G19S27G11
                                G14
  20394401.252      413187.183        -934.580          50.000  
  20707279.468      299465.558        -696.984          46.000  
  20744363.100     -386361.164         725.876          49.000  
  20873138.308     1173117.538       -2520.293          46.000  
  23771717.510    -1332248.456        2771.638          49.000  
  23884458.760      938049.674       -2039.378          38.000  
  24035972.684     1572531.928       -3354.440          35.000  
  23464128.979    -1101486.003        2253.046          41.000  
  23455116.151     1915018.687       -4155.896          48.000  
  24681847.088    -1469140.407        3049.955          38.000  
  39918111.484      117603.4092       -586.873          33.000  
  20220674.423      771074.408       -1728.140          45.000  
  22664142.069      876500.428       -1940.655          44.000  
 19 10  5 11  5 50.0000000  0 13G 1G22G 3G18G23G28G32G17G 8G19S27G11
                                G14
  20394578.930      414121.972        -934.815          50.000  
  20707412.055      300162.552        -696.789          45.000  
  20744224.476     -387087.147         726.063          48.000  
  20873617.561     1175637.972       -2520.304          46.000  
  23771189.711    -1335020.156        2772.284          48.000  
  23884846.574      940089.519       -2040.045          38.000  
  24036611.327     1575886.661       -3352.791          35.000  
  23463700.401    -1103738.352        2253.325          41.000  
  23455907.064     1919174.644       -4155.812          48.000  
  24681265.926    -1472190.883        3050.788          38.000  
  39918223.375      118189.8492       -586.724          33.000  
  20221003.953      772802.835       -1728.459          46.000  
  22664511.246      878441.234       -1940.783          44.000  
 19 10  5 11  5 51.0000000  0 13G 1G22G 3G18G23G28G32G17G 8G19S27G11
                                G14
  20394756.818      415057.119        -935.017          50.000  
  20707544.816      300859.881        -697.966          45.000  
  20744086.584     -387812.753         725.410          49.000  
  20874096.884     1178158.755       -2521.073          46.000  
  23770662.296    -1337791.765        2771.388          49.000  
  23885234.213      942129.731       -2040.687          38.000  
  24037249.586     1579241.674       -3354.756          35.000  
  23463272.103    -1105990.456        2252.563          41.000  
  23456697.978     1923330.716       -4156.199          48.000  
  24680685.462    -1475241.233        3050.529          38.000  
  39918334.428      118776.3082       -587.111          34.000  
  20221332.959      774531.798       -1729.238          46.000  
  22664880.562      880382.547       -1942.326          44.000  
 19 10  5 11  5 52.0000000  0 13G 1G22G 3G18G23G28G32G17G 8G19S27G11
                                G14
  20394934.566      415992.504        -936.263          50.000  
  20707677.577      301557.457        -698.112          45.000  
  20743948.588     -388538.072         724.832          49.000  
  20874577.218     1180679.790       -2521.897          46.000  
  23770134.706    -1340563.360        2771.124          49.000  
  23885622.480      944170.214       -2040.926          39.000  
  24037887.880     1582596.953       -3355.625          35.000  
  23462843.456    -1108242.393        2251.063          41.000  
  23457488.508     1927486.831       -4156.539          48.000  
  24680105.207    -1478291.524        3050.488          38.000  
  39918445.621      119362.7052       -586.138          33.000  
  20221661.547      776261.204       -1730.201          46.000  
  22665249.600      882324.317       -1941.558          44.000  
 19 10  5 11  5 53.0000000  0 13G 1G22G 3G18G23G28G32G17G 8G19S27G11
                                G14
  20395112.593      416929.240        -937.430          48.000  
  20707810.723      302256.355        -699.493          44.000  
  20743810.522     -389262.038         723.365          47.000  
  20875056.995     1183202.151       -2522.751          45.000  
  23769607.186    -1343333.906        2770.173          47.000  
  23886011.201      946212.028       -2043.167          38.000  
  24038526.209     1585953.550       -3354.730          35.000  
  23462414.879    -1110493.099        2249.577          41.000  
  23458279.387     1931644.058       -4157.910          47.000  
  24679524.743    -1481340.711        3049.494          38.000  
  39918557.337      119949.9562       -588.526          34.000  
  20221990.832      777992.128       -1731.561          45.000  
  22665619.300      884267.495       -1943.028          43.000  
 19 10  5 11  5 54.0000000  0 13G 1G22G 3G18G23G28G32G17G 8G19S27G11
                                G14
  20395291.039      417867.052        -937.412          49.000  
  20707944.007      302956.311        -699.828          45.000  
  20743673.293     -389984.888         722.937          48.000  
  20875537.783     1185725.551       -2523.431          46.000  
  23769080.259    -1346103.613        2769.988          48.000  
  23886400.551      948254.991       -2042.522          39.000  
  24039165.341     1589311.176       -3356.427          35.000  
  23461987.767    -1112742.805        2249.259          41.000  
  23459070.963     1935802.151       -4157.998          48.000  
  24678944.384    -1484389.011        3049.294          38.000  
  39918669.577      120537.8842       -587.718          34.000  
  20222320.851      779724.329       -1732.202          45.000  
  22665989.314      886211.913       -1944.591          44.000  
 19 10  5 11  5 55.0000000  0 13G 1G22G 3G18G23G28G32G17G 8G19S27G11
                                G14
  20395469.450      418805.050        -938.074          50.000  
  20708076.873      303656.457        -700.218          45.000  
  20743535.786     -390707.518         722.564          48.000  
  20876018.606     1188249.161       -2523.228          46.000  
  23768553.227    -1348873.377        2770.150          48.000  
  23886789.830      950298.126       -2043.149          38.000  
  24039804.507     1592668.913       -3357.667          36.000  
  23461559.469    -1114992.407        2249.490          41.000  
  23459862.086     1939960.231       -4157.746          48.000  
  24678363.606    -1487437.314        3048.634          38.000  
  39918781.398      121125.6492       -587.645          34.000  
  20222650.311      781456.904       -1732.569          45.000  
  22666359.782      888156.678       -1944.957          44.000  
 19 10  5 11  5 56.0000000  0 13G 1G22G 3G18G23G28G32G17G 8G19S27G11
                                G14
  20395648.035      419743.268        -938.688          50.000  
  20708209.984      304356.800        -700.887          45.000  
  20743398.208     -391429.911         721.649          48.000  
  20876499.465     1190772.952       -2524.603          46.000  
  23768025.986    -1351643.193        2769.363          48.000  
  23887178.935      952341.532       -2043.696          39.000  
  24040444.581     1596026.910       -3359.258          36.000  
  23461131.485    -1117241.884        2249.407          41.000  
  23460653.524     1944118.315       -4158.777          48.000  
  24677783.386    -1490485.615        3047.125          38.000  
  39918892.905      121713.2822       -586.949          34.000  
  20222980.329      783189.877       -1733.974          45.000  
  22666729.797      890101.796       -1946.044          44.000  
 19 10  5 11  5 57.0000000  0 13G 1G22G 3G18G23G28G32G17G 8G19S27G11
                                G14
  20395827.005      420682.836        -940.284          50.000  
  20708343.373      305058.501        -702.288          45.000  
  20743260.840     -392150.901         720.254          48.000  
  20876980.183     1193298.117       -2525.705          46.000  
  23767498.676    -1354411.889        2768.130          47.000  
  23887568.494      954386.274       -2044.932          39.000  
  24041084.376     1599386.227       -3360.769          36.000  
  23460703.571    -1119490.105        2247.762          41.000  
  23461444.856     1948277.573       -4159.809          47.000  
  24677203.201    -1493532.756        3047.048          37.000  
  39919004.900      122301.8632       -589.033          34.000  
  20223310.662      784924.420       -1735.120          45.000  
  22667099.567      892048.446       -1947.870          44.000  
 19 10  5 11  5 58.0000000  0 13G 1G22G 3G18G23G28G32G17G 8G19S27G11
                                G14
  20396006.428      421623.867        -941.064          49.000  
  20708477.286      305761.656        -703.018          45.000  
  20743123.716     -392870.417         719.342          48.000  
  20877461.356     1195824.736       -2527.032          47.000  
  23766972.063    -1357179.402        2767.609          47.000  
  23887957.808      956432.522       -2046.381          38.000  
  24041723.857     1602746.981       -3361.158          36.000  
  23460275.273    -1121736.979        2246.225          41.000  
  23462237.026     1952438.080       -4160.518          48.000  
  24676624.343    -1496578.656        3044.882          38.000  
  39919117.036      122891.4212       -589.024          34.000  
  20223640.960      786660.579       -1736.488          45.000  
  22667471.187      893996.691       -1948.774          44.000  
 19 10  5 11  5 59.0000000  0 13G 1G22G 3G18G23G28G32G17G 8G19S27G11
                                G14
  20396186.095      422565.276        -941.998          49.000  
  20708611.269      306465.150        -704.037          43.000  
  20742986.871     -393589.515         718.942          47.000  
  20877941.725     1198351.717       -2527.573          45.000  
  23766445.416    -1359946.767        2767.322          46.000  
  23888347.437      958479.162       -2046.785          37.000  
  24042363.931     1606108.079       -3361.639          35.000  
  23459847.777    -1123983.551        2245.314          40.000  
  23463029.336     1956598.758       -4161.204          47.000  
  24676044.821    -1499624.372        3046.247          38.000  
  39919229.275      123480.8892       -589.860          33.000  
  20223971.676      788397.323       -1737.091          44.000  
  22667842.144      895945.480       -1949.153          43.000  
 19 10  5 11  6  0.0000000  0 13G 1G22G 3G18G23G28G32G17G 8G19S27G11
                                G14
  20396366.007      423506.831        -942.481          50.000  
  20708745.601      307168.806        -703.866          44.000  
  20742850.271     -394308.445         718.259          48.000  
  20878422.723     1200878.837       -2527.971          46.000  
  23765919.117    -1362714.262        2766.759          47.000  
  23888737.658      960525.958       -2048.034          38.000  
  24043003.342     1609469.344       -3361.711          36.000  
  23459420.282    -1126230.062        2245.941          41.000  
  23463821.296     1960759.365       -4161.217          48.000  
  24675465.404    -1502670.154        3044.981          38.000  
  39919341.934      124070.1432       -590.574          34.000  
  20224302.044      790134.383       -1737.746          45.000  
  22668213.205      897894.552       -1949.385          44.000  
 19 10  5 11  6  1.0000000  0 13G 1G22G 3G18G23G28G32G17G 8G19S27G11
                                G14
  20396545.674      424449.775        -943.329          48.000  
  20708879.653      307873.826        -705.612          43.000  
  20742714.055     -395025.968         716.669          47.000  
  20878903.651     1203407.325       -2529.344          44.000  
  23765392.993    -1365480.607        2766.204          45.000  
  23889127.531      962574.157       -2049.040          36.000  
  24043644.463     1612831.919       -3362.947          36.000  
  23458992.961    -1128475.276        2244.557          40.000  
  23464613.501     1964921.127       -4162.086          47.000  
  24674886.755    -1505714.743        3044.203          36.000  
  39919453.755      124660.4362       -591.166          34.000  
  20224633.703      791873.037       -1739.386          43.000  
  22668584.895      899845.135       -1951.415          42.000  
 19 10  5 11  6  2.0000000  0 13G 1G22G 3G18G23G28G32G17G 8G19S27G11
                                G14
  20396725.621      425394.173        -945.009          50.000  
  20709014.055      308580.277        -707.421          45.000  
  20742577.978     -395741.990         715.249          48.000  
  20879384.649     1205937.277       -2530.341          46.000  
  23764866.869    -1368245.760        2764.691          47.000  
  23889518.032      964623.834       -2050.607          38.000  
  24044284.921     1616195.946       -3363.980          37.000  
  23458566.024    -1130719.144        2243.356          42.000  
  23465405.532     1969084.137       -4163.453          48.000  
  24674307.861    -1508758.111        3042.623          38.000  
  39919566.239      125251.8922       -592.335          34.000  
  20224964.559      793613.326       -1740.747          45.000  
  22668956.584      901797.344       -1952.942          44.000  
 19 10  5 11  6  3.0000000  0 13G 1G22G 3G18G23G28G32G17G 8G19S27G11
                                G14
  20396905.638      426339.033        -945.414          50.000  
  20709148.910      309287.214        -707.438          45.000  
  20742441.936     -396457.506         714.863          49.000  
  20879866.030     1208467.682       -2530.815          46.000  
  23764341.373    -1371010.688        2764.435          47.000  
  23889907.975      966674.026       -2049.965          38.000  
  24044926.076     1619560.414       -3364.982          37.000  
  23458139.017    -1132962.603        2243.368          42.000  
  23466197.528     1973247.419       -4163.768          48.000  
  24673728.584    -1511801.175        3042.426          37.000  
  39919679.316      125843.2532       -591.068          34.000  
  20225296.253      795354.285       -1741.576          45.000  
  22669327.995      903750.196       -1952.975          44.000  
 19 10  5 11  6  4.0000000  0 13G 1G22G 3G18G23G28G32G17G 8G19S27G11
                                G14
  20397085.445      427284.379        -945.936          50.000  
  20709283.277      309994.604        -707.752          45.000  
  20742305.894     -397172.526         714.396          48.000  
  20880347.447     1210998.564       -2532.000          46.000  
  23763814.970    -1373775.412        2763.973          47.000  
  23890298.127      968724.685       -2051.959          36.000  
  24045566.848     1622925.318       -3366.747          36.000  
  23457712.080    -1135205.710        2242.816          42.000  
  23466990.012     1977410.963       -4164.489          47.000  
  24673149.167    -1514844.019        3040.059          37.000  
  39919791.975      126434.6242       -591.502          34.000  
  20225627.493      797095.887       -1742.290          45.000  
  22669700.347      905703.653       -1954.052          44.000  
 19 10  5 11  6  5.0000000  0 13G 1G22G 3G18G23G28G32G17G 8G19S27G11
                                G14
  20397265.077      428230.729        -947.044          49.000  
  20709417.748      310702.985        -709.594          44.000  
  20742169.887     -397886.512         712.903          48.000  
  20880829.143     1213530.452       -2532.936          46.000  
  23763289.334    -1376539.378        2763.062          47.000  
  23890687.720      970776.379       -2052.310          37.000  
  24046207.481     1626291.258       -3366.589          36.000  
  23457285.562    -1137447.867        2241.464          42.000  
  23467782.461     1981575.309       -4164.958          47.000  
  24672570.378    -1517886.012        3039.689          37.000  
  39919904.320      127026.5812       -593.384          34.000  
  20225958.802      798838.695       -1744.262          45.000  
  22670072.630      907658.300       -1955.125          43.000  
 19 10  5 11  6  6.0000000  0 14G 1G22G 3G18G23G28G32G17G 8G19S27G11
                                G14G31
  20397445.373      429178.512        -948.360          50.000  
  20709553.336      311412.793        -710.227          45.000  
  20742034.927     -398599.033         711.974          48.000  
  20881311.781     1216063.761       -2533.807          46.000  
  23762763.106    -1379302.166        2762.220          47.000  
  23891077.802      972829.532       -2053.856          37.000  
  24046848.672     1629658.525       -3367.950          36.000  
  23456858.904    -1139688.698        2240.526          42.000  
  23468575.015     1985740.871       -4166.339          48.000  
  24671991.589    -1520926.759        3039.995          38.000  
  39920017.153      127619.4152       -593.373          34.000  
  20226291.369      800583.128       -1745.449          45.000  
  22670445.262      909614.512       -1956.982          44.000  
  25111186.906     -166404.1953       1634.042          27.000  
 19 10  5 11  6  7.0000000  0 14G 1G22G 3G18G23G28G32G17G 8G19S27G11
                                G14G31
  20397625.913      430127.082        -948.846          49.000  
  20709688.785      312123.372        -710.540          44.000  
  20741899.025     -399310.749         711.503          48.000  
  20881793.686     1218597.838       -2534.432          46.000  
  23762237.330    -1382064.424        2762.359          46.000  
  23891468.199      974883.448       -2054.172          37.000  
  24047490.002     1633026.618       -3368.471          36.000  
  23456432.665    -1141928.853        2238.635          42.000  
  23469367.394     1989907.018       -4165.915          47.000  
  24671413.044    -1523966.971        3038.706          38.000  
  39920129.916      128212.6412       -592.028          34.000  
  20226623.551      802328.520       -1745.444          45.000  
  22670817.126      911571.645       -1957.278          43.000  
  25110887.146     -168038.3053       1634.885          28.000  
 19 10  5 11  6  8.0000000  0 14G 1G22G 3G18G23G28G32G17G 8G19S27G11
                                G14G31
  20397806.453      431076.033        -949.365          50.000  
  20709824.233      312834.324        -711.226          45.000  
  20741763.716     -400022.045         711.095          48.000  
  20882276.324     1221132.286       -2534.620          47.000  
  23761711.974    -1384826.549        2761.854          47.000  
  23891858.944      976937.803       -2054.740          37.000  
  24048130.460     1636395.026       -3367.549          37.000  
  23456007.333    -1144168.703        2239.533          42.000  
  23470160.297     1994073.323       -4166.387          48.000  
  24670834.151    -1527007.003        3039.649          37.000  
  39920243.412      128805.8852       -592.755          35.000  
  20226955.733      804074.496       -1746.195          46.000  
  22671189.689      913529.312       -1957.717          44.000  
  25110571.471     -169672.3103       1633.196          29.000  
 19 10  5 11  6  9.0000000  0 14G 1G22G 3G18G23G28G32G17G 8G19S27G11
                                G14G31
  20397986.923      432025.804        -950.402          50.000  
  20709959.961      313546.096        -712.691          45.000  
  20741628.163     -400732.492         709.712          48.000  
  20882759.137     1223667.546       -2535.781          47.000  
  23761186.269    -1387588.112        2760.824          47.000  
  23892249.480      978992.987       -2055.861          35.000  
  24048772.209     1639764.253       -3370.122          37.000  
  23455580.710    -1146407.812        2238.409          42.000  
  23470953.305     1998240.244       -4167.884          48.000  
  24670256.025    -1530046.374        3039.814          37.000  
  39920356.594      129399.5922       -593.592          34.000  
  20227288.439      805821.476       -1747.704          46.000  
  22671562.006      915487.976       -1959.380          45.000  
  25110261.695     -171305.5573       1632.638          29.000  
 19 10  5 11  6 10.0000000  0 14G 1G22G 3G18G23G28G32G17G 8G19S27G11
                                G14G31
  20398167.602      432976.964        -951.598          48.000  
  20710095.584      314259.232        -714.098          43.000  
  20741492.784     -401441.519         708.422          47.000  
  20883241.950     1226204.183       -2537.088          46.000  
  23760660.808    -1390348.534        2760.241          45.000  
  23892640.469      981049.564       -2057.253          36.000  
  24049413.574     1643134.830       -3372.091          36.000  
  23455154.995    -1148645.650        2237.513          41.000  
  23471746.313     2002408.352       -4168.232          46.000  
  24669677.306    -1533084.596        3037.071          37.000  
  39920469.742      129994.4062       -595.018          34.000  
  20227620.796      807570.041       -1749.428          44.000  
  22671935.232      917448.162       -1959.899          43.000  
  25109948.813     -172937.5593       1630.883          28.000  
 19 10  5 11  6 11.0000000  0 14G 1G22G 3G18G23G28G32G17G 8G19S27G11
                                G14G31
  20398348.875      433928.954        -952.335          50.000  
  20710231.591      314973.197        -713.958          46.000  
  20741358.173     -402149.682         707.970          48.000  
  20883725.286     1228741.631       -2537.880          47.000  
  23760135.626    -1393108.394        2759.761          47.000  
  23893031.389      983107.013       -2057.727          36.000  
  24050054.695     1646506.218       -3371.824          36.000  
  23454729.140    -1150882.723        2237.208          41.000  
  23472540.123     2006577.060       -4169.004          48.000  
  24669098.273    -1536122.224        3037.035          37.000  
  39920583.133      130589.7252       -594.214          34.000  
  20227953.467      809319.631       -1749.527          45.000  
  22672308.248      919409.313       -1961.408          44.000  
  25109639.525     -174568.7653       1631.676          28.000  
 19 10  5 11  6 12.0000000  0 14G 1G22G 3G18G23G28G32G17G 8G19S27G11
                                G14G31
  20398529.729      434881.538        -952.686          50.000  
  20710366.970      315687.740        -715.089          45.000  
  20741222.829     -402857.235         706.938          48.000  
  20884208.168     1231279.684       -2538.159          47.000  
  23759610.654    -1395867.911        2759.330          47.000  
  23893422.832      985165.063       -2058.749          37.000  
  24050696.270     1649878.160       -3372.022          36.000  
  23454303.320    -1153119.311        2236.300          41.000  
  23473332.922     2010746.164       -4169.255          48.000  
  24668520.147    -1539159.397        3037.154          38.000  
  39920695.966      131185.0052       -593.607          34.000  
  20228286.382      811069.987       -1750.718          45.000  
  22672681.543      921371.204       -1962.325          45.000  
  25109325.002     -176199.7013       1629.272          27.000  
 19 10  5 11  6 13.0000000  0 14G 1G22G 3G18G23G28G32G17G 8G19S27G11
                                G14G31
  20398711.246      435834.920        -953.818          49.000  
  20710503.186      316403.055        -715.656          45.000  
  20741088.288     -403563.958         706.341          48.000  
  20884691.225     1233818.496       -2539.513          47.000  
  23759085.437    -1398626.879        2758.826          47.000  
  23893814.520      987223.905       -2059.724          37.000  
  24051337.601     1653250.863       -3372.781          36.000  
  23453877.674    -1155355.216        2234.901          41.000  
  23474126.243     2014915.841       -4170.106          48.000  
  24667941.638    -1542196.031        3036.318          37.000  
  39920808.974      131780.6432       -595.739          34.000  
  20228619.367      812821.336       -1751.757          45.000  
  22673054.838      923334.040       -1963.387          45.000  
  25109015.505     -177829.8933       1629.388          26.000  
 19 10  5 11  6 14.0000000  0 14G 1G22G 3G18G23G28G32G17G 8G19S27G11
                                G14G31
  20398892.589      436789.461        -955.265          49.000  
  20710638.844      317119.528        -717.256          45.000  
  20740953.153     -404269.494         704.576          48.000  
  20885174.666     1236358.452       -2540.799          46.000  
  23758560.744    -1401384.946        2757.532          47.000  
  23894207.080      989283.948       -2061.421          37.000  
  24051979.280     1656624.718       -3375.727          36.000  
  23453452.238    -1157590.011        2233.679          41.000  
  23474919.949     2019086.481       -4171.282          48.000  
  24667364.036    -1545231.689        3036.003          38.000  
  39920921.946      132377.1112       -597.329          34.000  
  20228953.015      814574.019       -1753.385          45.000  
  22673428.412      925298.192       -1965.041          45.000  
  25108710.336     -179459.0303       1628.199          27.000  
 19 10  5 11  6 15.0000000  0 14G 1G22G 3G18G23G28G32G17G 8G19S27G11
                                G14G31
  20399074.560      437745.011        -955.652          50.000  
  20710775.759      317837.013        -717.321          45.000  
  20740818.996     -404973.990         704.539          47.000  
  20885657.932     1238899.419       -2541.004          46.000  
  23758035.911    -1404142.246        2757.585          48.000  
  23894599.640      991345.007       -2062.032          37.000  
  24052620.680     1659999.561       -3374.050          36.000  
  23453026.766    -1159823.896        2233.337          41.000  
  23475713.690     2023257.945       -4171.441          48.000  
  24666786.538    -1548266.522        3035.105          38.000  
  39921035.757      132974.1992       -596.680          34.000  
  20229286.978      816327.925       -1754.249          45.000  
  22673802.754      927263.506       -1964.964          45.000  
  25108402.304     -181087.2383       1627.569          27.000  
 19 10  5 11  6 16.0000000  0 14G 1G22G 3G18G23G28G32G17G 8G19S27G11
                                G14G31
  20399256.601      438701.091        -956.254          50.000  
  20710912.254      318554.993        -718.346          45.000  
  20740685.641     -405677.910         704.067          48.000  
  20886141.199     1241440.892       -2541.637          46.000  
  23757511.637    -1406899.274        2757.223          48.000  
  23894992.061      993406.639       -2061.424          38.000  
  24053262.883     1663374.872       -3375.129          36.000  
  23452602.377    -1162057.351        2233.771          41.000  
  23476507.360     2027429.710       -4171.681          48.000  
  24666208.517    -1551301.064        3034.594          38.000  
  39921149.742      133571.3832       -595.882          34.000  
  20229621.080      818082.540       -1754.728          45.000  
  22674177.131      929229.493       -1966.039          45.000  
  25108091.342     -182715.0253       1627.887          28.000  
 19 10  5 11  6 17.0000000  0 14G 1G22G 3G18G23G28G32G17G 8G19S27G11
                                G14G31
  20399439.130      439657.630        -957.300          49.000  
  20711049.099      319273.431        -718.956          44.000  
  20740551.624     -406381.362         702.930          47.000  
  20886624.884     1243982.822       -2542.293          46.000  
  23756987.188    -1409656.087        2756.296          48.000  
  23895386.052      995468.742       -2063.035          38.000  
  24053905.889     1666750.651       -3376.400          36.000  
  23452177.150    -1164290.434        2232.364          41.000  
  23477301.729     2031601.718       -4172.490          47.000  
  24665631.508    -1554335.347        3035.173          37.000  
  39921262.924      134168.6372       -597.954          33.000  
  20229954.588      819837.821       -1756.103          45.000  
  22674551.124      931196.103       -1967.007          44.000  
  25107784.288     -184342.5423       1626.710          29.000  
 19 10  5 11  6 18.0000000  0 14G 1G22G 3G18G23G28G32G17G 8G19S27G11
                                G14G31
  20399621.415      440615.394        -958.640          50.000  
  20711186.502      319993.090        -720.481          45.000  
  20740418.095     -407083.546         701.374          48.000  
  20887108.534     1246525.973       -2543.840          46.000  
  23756463.158    -1412411.922        2755.356          48.000  
  23895779.100      997532.080       -2062.997          38.000  
  24054548.790     1670127.619       -3377.104          36.000  
  23451752.691    -1166522.368        2231.637          41.000  
  23478095.610     2035774.733       -4173.417          48.000  
  24665053.906    -1557368.584        3034.030          38.000  
  39921376.978      134766.7842       -598.613          33.000  
  20230288.899      821594.489       -1757.500          45.000  
  22674925.361      933164.083       -1968.658          45.000  
  25107476.605     -185968.9483       1625.672          28.000  
 19 10  5 11  6 19.0000000  0 14G 1G22G 3G18G23G28G32G17G 8G19S27G11
                                G14G31
  20399803.386      441574.239        -958.687          50.000  
  20711323.521      320713.798        -720.404          45.000  
  20740284.810     -407784.642         701.157          48.000  
  20887592.184     1249070.192       -2544.017          46.000  
  23755938.779    -1415166.957        2755.377          48.000  
  23896172.742      999596.506       -2064.191          39.000  
  24055191.865     1673505.643       -3376.981          36.000  
  23451327.604    -1168753.357        2231.046          41.000  
  23478889.978     2039948.605       -4173.438          48.000  
  24664476.688    -1560400.982        3034.259          38.000  
  39921490.893      135365.6842       -598.087          33.000  
  20230623.595      823352.419       -1757.558          45.000  
  22675299.389      935133.276       -1969.151          44.000  
  25107171.017     -187594.3073       1624.769          29.000  
 19 10  5 11  6 20.0000000  0 14G 1G22G 3G18G23G28G32G17G 8G19S27G11
                                G14G31
  20399985.950      442533.400        -959.530          50.000  
  20711460.296      321434.821        -720.868          45.000  
  20740151.386     -408485.371         700.672          48.000  
  20888075.799     1251614.735       -2544.647          46.000  
  23755414.540    -1417921.905        2754.920          48.000  
  23896566.210     1001661.298       -2064.592          39.000  
  24055834.347     1676883.940       -3378.094          36.000  
  23450902.621    -1170984.086        2230.299          41.000  
  23479683.824     2044122.592       -4173.959          48.000  
  24663899.469    -1563433.233        3031.629          38.000  
  39921604.320      135964.5742       -597.269          34.000  
  20230958.290      825110.855       -1758.951          45.000  
  22675674.639      937102.941       -1970.021          44.000  
  25106861.764     -189219.5163       1625.122          29.000  
 19 10  5 11  6 21.0000000  0 14G 1G22G 3G18G23G28G32G17G 8G19S27G11
                                G14G31
  20400168.619      443493.127        -960.119          50.000  
  20711597.839      322156.396        -721.596          45.000  
  20740018.555     -409185.514         699.760          48.000  
  20888560.148     1254159.831       -2545.385          46.000  
  23754890.754    -1420676.553        2754.188          48.000  
  23896959.782     1003726.625       -2065.980          39.000  
  24056476.899     1680262.777       -3379.897          36.000  
  23450478.162    -1173214.355        2229.646          42.000  
  23480478.297     2048296.937       -4174.579          48.000  
  24663322.705    -1566464.5883       3032.398          38.000  
  39921718.514      136563.5452       -598.837          34.000  
  20231292.845      826870.058       -1759.895          45.000  
  22676049.888      939073.324       -1970.584          44.000  
  25106547.626     -190844.2463       1624.509          28.000  
 19 10  5 11  6 22.0000000  0 13G 1G22G 3G18G23G28G32G17G 8G19S27G11
                                G14
  20400351.986      444454.602        -961.948          50.000  
  20711735.207      322879.693        -724.015          45.000  
  20739885.305     -409883.893         697.725          48.000  
  20889043.938     1256706.649       -2547.431          46.000  
  23754366.026    -1423429.704        2752.556          48.000  
  23897353.075     1005793.740       -2067.648          39.000  
  24057120.184     1683643.339       -3379.992          36.000  
  23450054.017    -1175442.983        2227.759          42.000  
  23481273.015     2052472.803       -4176.460          48.000  
  24662745.800    -1569494.9942       3029.900          38.000  
  39921833.232      137163.7612       -601.834          34.000  
  20231628.064      828631.186       -1762.033          45.000  
  22676424.684      941045.606       -1972.348          45.000  
 19 10  5 11  6 23.0000000  0 13G 1G22G 3G18G23G28G32G17G 8G19S27G11
                                G14
  20400535.353      445417.315        -962.785          48.000  
  20711872.680      323604.230        -724.778          43.000  
  20739752.020     -410580.994         696.907          46.000  
  20889528.774     1259254.712       -2548.053          44.000  
  23753842.345    -1426181.878        2752.274          47.000  
  23897746.508     1007862.118       -2068.917          39.000  
  24057763.504     1687025.126       -3381.566          35.000  
  23449630.640    -1177670.425        2226.622          40.000  
  23482067.593     2056649.713       -4176.833          47.000  
  24662169.175    -1572524.3272       3028.647          37.000  
  39921947.880      137764.9022       -599.856          34.000  
  20231963.527      830393.742       -1762.416          44.000  
  22676800.387      943019.260       -1973.682          42.000  
 19 10  5 11  6 24.0000000  0 13G 1G22G 3G18G23G28G32G17G 8G19S27G11
                                G14
  20400718.510      446380.519        -963.362          49.000  
  20712010.571      324329.239        -725.233          45.000  
  20739619.608     -411277.579         696.422          48.000  
  20890013.541     1261803.255       -2548.713          46.000  
  23753318.699    -1428933.808        2751.699          48.000  
  23898140.150     1009930.993       -2069.608          38.000  
  24058406.474     1690407.361       -3381.610          35.000  
  23449206.983    -1179897.471        2226.142          41.000  
  23482862.451     2060826.900       -4177.139          48.000  
  24661593.214    -1575553.3272       3029.159          37.000  
  39922062.318      138366.0532       -600.592          34.000  
  20232299.165      832156.971       -1763.295          45.000  
  22677176.370      944993.569       -1974.545          44.000  
 19 10  5 11  6 25.0000000  0 13G 1G22G 3G18G23G28G32G17G 8G19S27G11
                                G14
  20400901.633      447344.057        -964.233          49.000  
  20712148.707      325054.573        -726.236          45.000  
  20739487.824     -411973.779         695.713          48.000  
  20890499.076     1264352.109       -2549.798          46.000  
  23752795.192    -1431685.648        2751.293          48.000  
  23898534.001     1012000.229       -2070.112          38.000  
  24059050.108     1693789.912       -3383.455          35.000  
  23448784.060    -1182124.261        2226.880          41.000  
  23483657.413     2065004.201       -4177.757          48.000  
  24661017.007    -1578582.2902       3026.886          37.000  
  39922176.792      138967.0652       -600.356          34.000  
  20232634.767      833920.725       -1764.490          45.000  
  22677551.968      946968.353       -1975.499          44.000  
 19 10  5 11  6 26.0000000  0 13G 1G22G 3G18G23G28G32G17G 8G19S27G11
                                G14
  20401085.558      448309.036        -965.583          50.000  
  20712286.913      325781.336        -727.549          45.000  
  20739354.958     -412668.533         693.636          48.000  
  20890984.646     1266902.398       -2551.269          46.000  
  23752271.406    -1434436.305        2750.139          48.000  
  23898927.713     1014070.897       -2071.676          39.000  
  24059693.602     1697173.886       -3385.125          35.000  
  23448360.718    -1184349.738        2225.011          41.000  
  23484452.619     2069182.728       -4179.046          48.000  
  24660441.046    -1581609.9542       3027.122          37.000  
  39922291.649      139568.9402       -601.336          34.000  
  20232970.789      835686.118       -1766.331          45.000  
  22677928.195      948944.737       -1977.395          44.000  
 19 10  5 11  6 27.0000000  0 13G 1G22G 3G18G23G28G32G17G 8G19S27G11
                                G14
  20401268.855      449275.325        -967.031          50.000  
  20712425.188      326509.416        -728.619          45.000  
  20739223.104     -413361.929         692.793          48.000  
  20891470.565     1269453.999       -2552.246          46.000  
  23751748.144    -1437185.898        2749.396          47.000  
  23899321.809     1016142.923       -2072.732          39.000  
  24060337.620     1700559.136       -3385.140          35.000  
  23447937.445    -1186573.955        2223.200          41.000  
  23485248.035     2073362.352       -4180.109          48.000  
  24659865.153    -1584636.5072       3025.596          37.000  
  39922406.402      140171.7312       -604.891          34.000  
  20233306.566      837453.015       -1767.626          45.000  
  22678304.317      950922.586       -1978.522          44.000  
 19 10  5 11  6 28.0000000  0 13G 1G22G 3G18G23G28G32G17G 8G19S27G11
                                G14
  20401452.885      450242.268        -967.568          49.000  
  20712564.162      327238.125        -729.014          45.000  
  20739091.459     -414054.652         692.361          48.000  
  20891956.937     1272006.253       -2552.413          46.000  
  23751224.987    -1439935.096        2748.621          47.000  
  23899716.847     1018215.607       -2073.169          38.000  
  24060981.394     1703944.981       -3387.091          35.000  
  23447514.277    -1188797.597        2223.634          42.000  
  23486043.241     2077542.413       -4180.383          48.000  
  24659288.703    -1587662.5872       3025.636          35.000  
  39922521.154      140774.8792       -603.277          34.000  
  20233643.215      839220.740       -1768.593          45.000  
  22678681.032      952901.225       -1979.224          44.000  
 19 10  5 11  6 29.0000000  0 13G 1G22G 3G18G23G28G32G17G 8G19S27G11
                                G14
  20401637.473      451209.639        -967.406          50.000  
  20712703.240      327967.264        -729.317          45.000  
  20738960.164     -414746.903         692.236          48.000  
  20892443.484     1274558.931       -2552.558          47.000  
  23750701.724    -1442684.123        2748.977          47.000  
  23900111.047     1020288.744       -2072.594          39.000  
  24061625.411     1707331.228       -3386.005          34.000  
  23447091.738    -1191020.924        2223.208          42.000  
  23486838.587     2081722.679       -4180.498          48.000  
  24658713.090    -1590688.4972       3025.476          37.000  
  39922636.012      141378.1232       -602.718          34.000  
  20233979.481      840989.095       -1768.636          45.000  
  22679057.817      954880.456       -1979.313          45.000  
 19 10  5 11  6 30.0000000  0 13G 1G22G 3G18G23G28G32G17G 8G19S27G11
                                G14
  20401821.922      452178.099        -969.470          50.000  
  20712842.179      328697.461        -731.571          45.000  
  20738828.729     -415438.058         690.145          48.000  
  20892929.578     1277112.658       -2554.763          46.000  
  23750178.846    -1445432.324        2746.907          47.000  
  23900505.876     1022362.974       -2075.296          39.000  
  24062269.638     1710718.579       -3387.430          34.000  
  23446669.198    -1193243.240        2221.954          43.000  
  23487633.933     2085903.820       -4181.753          48.000  
  24658137.547    -1593713.4882       3024.063          37.000  
  39922751.253      141981.9972       -604.815          34.000  
  20234315.921      842758.717       -1770.223          45.000  
  22679435.091      956860.887       -1981.863          45.000  
 19 10  5 11  6 31.0000000  0 13G 1G22G 3G18G23G28G32G17G 8G19S27G11
                                G14
  20402006.860      453147.956        -970.584          49.000  
  20712981.536      329429.050        -731.998          44.000  
  20738697.957     -416127.782         689.346          48.000  
  20893415.880     1279667.797       -2555.672          45.000  
  23749655.898    -1448179.348        2746.289          46.000  
  23900900.774     1024438.614       -2075.265          38.000  
  24062914.005     1714107.204       -3390.822          30.000  
  23446246.833    -1195464.259        2220.823          41.000  
  23488429.663     2090086.148       -4183.126          47.000  
  24657562.667    -1596737.759        3022.144          37.000  
  39922866.354      142586.8232       -605.982          33.000  
  20234653.024      844529.910       -1772.039          44.000  
  22679811.911      958842.914       -1982.205          44.000  
 19 10  5 11  6 32.0000000  0 13G 1G22G 3G18G23G28G32G17G 8G19S27G11
                                G14
  20402191.623      454118.807        -970.827          50.000  
  20713120.998      330161.612        -732.279          45.000  
  20738566.731     -416816.481         688.896          48.000  
  20893902.916     1282223.889       -2556.067          46.000  
  23749132.915    -1450925.670        2745.829          47.000  
  23901295.114     1026515.247       -2075.955          38.000  
  24063558.442     1717497.105       -3389.125          31.000  
  23445824.573    -1197684.400        2220.501          43.000  
  23489225.777     2094269.251       -4182.964          47.000  
  24656987.019    -1599760.798        3022.917          37.000  
  39922981.665      143192.2512       -605.342          34.000  
  20234990.093      846302.292       -1772.967          45.000  
  22680189.255      960826.048       -1983.057          44.000  
 19 10  5 11  6 33.0000000  0 13G 1G22G 3G18G23G28G32G17G 8G19S27G11
                                G14
  20402375.897      455090.194        -971.751          50.000  
  20713260.216      330894.699        -733.921          45.000  
  20738435.959     -417504.626         687.373          48.000  
  20894389.393     1284780.515       -2557.521          47.000  
  23748610.037    -1453671.664        2745.496          47.000  
  23901690.013     1028592.480       -2077.844          38.000  
  24064203.262     1720887.139       -3390.335          32.000  
  23445402.103    -1199904.041        2218.839          43.000  
  23490022.100     2098452.689       -4183.910          47.000  
  24656412.035    -1602783.477        3021.616          37.000  
  39923096.767      143797.9272       -606.314          34.000  
  20235328.069      848075.388       -1774.241          45.000  
  22680566.633      962809.856       -1984.702          43.000  
 19 10  5 11  6 34.0000000  0 13G 1G22G 3G18G23G28G32G17G 8G19S27G11
                                G14
  20402561.428      456062.725        -973.061          50.000  
  20713400.132      331628.910        -734.834          45.000  
  20738305.816     -418191.570         686.385          48.000  
  20894876.254     1287338.295       -2558.275          46.000  
  23748087.821    -1456416.804        2744.711          47.000  
  23902085.155     1030670.829       -2078.931          37.000  
  24064848.118     1724278.460       -3390.290          34.000  
  23444979.878    -1202122.633        2218.107          42.000  
  23490817.865     2102637.038       -4184.900          47.000  
  24655836.771    -1605805.227        3021.119          36.000  
  39923211.659      144404.3802       -606.810          34.000  
  20235665.835      849849.822       -1774.965          45.000  
  22680944.221      964794.984       -1986.081          44.000  
 19 10  5 11  6 35.0000000  0 13G 1G22G 3G18G23G28G32G17G 8G19S27G11
                                G14
  20402746.260      457036.703        -974.574          50.000  
  20713540.048      332364.572        -735.996          45.000  
  20738175.777     -418877.055         684.751          49.000  
  20895362.836     1289897.516       -2559.744          46.000  
  23747565.536    -1459160.719        2743.437          47.000  
  23902480.717     1032750.723       -2080.866          37.000  
  24065493.427     1727671.6413      -3392.502          34.000  
  23444558.141    -1204339.889        2216.511          42.000  
  23491615.096     2106822.632       -4186.202          47.000  
  24655261.821    -1608825.674        3020.539          36.000  
  39923326.691      145011.7442       -606.334          34.000  
  20236003.636      851625.903       -1776.659          46.000  
  22681322.716      966781.707       -1987.428          44.000  
 19 10  5 11  6 36.0000000  0 14G 1G22G 3G18G23G28G32G17G 8G19S27G11
                                G14G31
  20402932.175      458011.589        -975.033          50.000  
  20713680.243      333101.116        -736.990          45.000  
  20738045.738     -419561.581         684.232          48.000  
  20895849.592     1292457.623       -2560.515          47.000  
  23747044.298    -1461903.994        2743.121          47.000  
  23902876.278     1034831.428       -2081.548          38.000  
  24066138.945     1731065.2482      -3394.502          33.000  
  23444136.369    -1206556.316        2216.327          41.000  
  23492411.943     2111008.926       -4186.338          48.000  
  24654687.290    -1611845.397        3019.792          36.000  
  39923441.793      145619.7752       -606.632          30.000  
  20236342.205      853403.074       -1777.468          45.000  
  22681700.757      968769.470       -1987.938          44.000  
  25101936.406     -215115.4823       1610.655          29.000  
 19 10  5 11  6 37.0000000  0 14G 1G22G 3G18G23G28G32G17G 8G19S27G11
                                G14G31
  20403117.810      458986.895        -975.429          50.000  
  20713819.845      333838.069        -737.315          45.000  
  20737915.978     -420245.698         683.948          48.000  
  20896336.488     1295018.140       -2560.552          46.000  
  23746522.572    -1464647.098        2743.049          48.000  
  23903271.735     1036912.652       -2081.282          38.000  
  24066784.429     1734459.1592      -3394.236          33.000  
  23443714.876    -1208772.415        2216.050          43.000  
  23493208.859     2115195.459       -4186.199          47.000  
  24654112.410    -1614865.002        3018.539          36.000  
  39923557.697      146227.5683       -607.902          33.000  
  20236680.495      855180.834       -1777.919          45.000  
  22682079.253      970757.807       -1988.775          45.000  
  25101629.910     -216726.7873       1607.037          28.000  
 19 10  5 11  6 38.0000000  0 14G 1G22G 3G18G23G28G32G17G 8G19S27G11
                                G14G31
  20403303.411      459962.870        -976.504          50.000  
  20713960.807      334575.662        -738.652          45.000  
  20737786.323     -420929.094         682.725          48.000  
  20896823.349     1297579.292       -2562.007          46.000  
  23746000.287    -1467389.763        2742.429          48.000  
  23903667.611     1038994.497       -2082.814          38.000  
  24067429.947     1737853.8062      -3395.928          33.000  
  23443292.686    -1210987.983        2214.453          43.000  
  23494005.846     2119382.382       -4187.541          48.000  
  24653537.774    -1617884.124        3018.990          38.000  
  39923673.392      146835.8372       -607.446          34.000  
  20237018.471      856959.465       -1779.428          44.000  
  22682458.167      972746.945       -1989.997          44.000  
  25101325.753     -218337.3963       1609.998          28.000  
 19 10  5 11  6 39.0000000  0 14G 1G22G 3G18G23G28G32G17G 8G19S27G11
                                G14G31
  20403489.256      460940.202        -977.826          49.000  
  20714101.352      335314.614        -739.418          45.000  
  20737656.388     -421611.127         681.400          48.000  
  20897310.873     1300141.797       -2563.052          46.000  
  23745478.525    -1470131.375        2741.420          47.000  
  23904063.905     1041077.748       -2083.929          37.000  
  24068076.164     1741249.7522      -3396.169          32.000  
  23442871.787    -1213202.226        2213.695          43.000  
  23494802.692     2123570.460       -4188.200          47.000  
  24652963.104    -1620902.136        3017.023          36.000  
  39923789.436      147445.1282       -609.445          36.000  
  20237357.703      858739.647       -1780.733          45.000  
  22682837.360      974737.600       -1991.463          44.000  
  25101019.466     -219946.8003       1609.576          29.000  
 19 10  5 11  6 40.0000000  0 14G 1G22G 3G18G23G28G32G17G 8G19S27G11
                                G14G31
  20403675.519      461918.594        -978.739          49.000  
  20714242.559      336054.614        -740.556          44.000  
  20737526.175     -422292.067         680.466          48.000  
  20897798.398     1302705.362       -2563.805          45.000  
  23744957.427    -1472872.142        2740.646          47.000  
  23904459.990     1043162.072       -2084.937          35.000  
  24068722.555     1744646.7542      -3396.765          32.000  
  23442450.957    -1215415.501        2212.637          42.000  
  23495600.516     2127759.391       -4189.593          47.000  
  24652388.747    -1623919.248        3017.061          35.000  
  39923905.410      148055.0422       -610.483          36.000  
  20237696.971      860521.066       -1781.465          44.000  
  22683216.553      976729.467       -1992.308          44.000  
  25100714.157     -221555.1703       1608.564          29.000  
 19 10  5 11  6 41.0000000  0 14G 1G22G 3G18G23G28G32G17G 8G19S27G11
                                G14G31
  20403861.539      462897.534        -979.122          49.000  
  20714383.382      336795.159        -740.663          45.000  
  20737396.520     -422972.417         680.093          48.000  
  20898285.643     1305269.460       -2564.443          45.000  
  23744435.945    -1475612.619        2740.529          48.000  
  23904855.761     1045246.958       -2084.449          36.000  
  24069368.666     1748044.2272      -3396.419          32.000  
  23442029.430    -1217628.324        2212.603          43.000  
  23496396.979     2131948.641       -4189.642          48.000  
  24651814.251    -1626936.003        3015.575          35.000  
  39924021.105      148665.0432       -609.686          36.000  
  20238035.470      862303.215       -1782.014          45.000  
  22683595.886      978722.016       -1992.382          45.000  
  25100406.056     -223163.0913       1608.231          29.000  
 19 10  5 11  6 42.0000000  0 14G 1G22G 3G18G23G28G32G17G 8G19S27G11
                                G14G31
  20404047.558      463877.099        -979.849          50.000  
  20714524.066      337536.294        -741.810          45.000  
  20737267.004     -423652.118         679.070          49.000  
  20898773.167     1307834.178       -2565.545          46.000  
  23743914.392    -1478352.729        2739.348          48.000  
  23905252.160     1047332.479       -2085.787          37.000  
  24070015.267     1751442.3352      -3398.162          32.000  
  23441608.845    -1219840.606        2211.727          43.000  
  23497194.349     2136138.303       -4190.186          48.000  
  24651239.511    -1629952.314        3015.798          35.000  
  39924137.498      149275.2292       -610.926          36.000  
  20238374.597      864086.177       -1783.357          45.000  
  22683974.660      980715.344       -1994.463          45.000  
  25100101.690     -224770.5513       1606.521          29.000  
 19 10  5 11  6 43.0000000  0 14G 1G22G 3G18G23G28G32G17G 8G19S27G11
                                G14G31
  20404234.240      464858.281        -982.322          50.000  
  20714665.726      338279.046        -743.521          45.000  
  20737137.768     -424330.169         677.182          48.000  
  20899261.738     1310400.480       -2567.159          46.000  
  23743392.945    -1481091.465        2737.863          48.000  
  23905649.153     1049419.616       -2088.050          37.000  
  24070661.797     1754841.496       -3399.167          32.000  
  23441187.701    -1222051.359        2209.956          43.000  
  23497991.894     2140329.376       -4191.917          48.000  
  24650666.027    -1632967.242        3014.892          35.000  
  39924253.856      149886.5462       -612.272          36.000  
  20238714.528      865870.941       -1785.313          45.000  
  22684354.447      982710.433       -1996.152          45.000  
  25099796.450     -226376.5773       1605.156          28.000  
 19 10  5 11  6 44.0000000  0 14G 1G22G 3G18G23G28G32G17G 8G19S27G11
                                G14G31
  20404421.272      465840.825        -982.950          49.000  
  20714807.632      339023.138        -744.479          45.000  
  20737008.776     -425006.846         675.910          48.000  
  20899750.623     1312968.126       -2568.118          46.000  
  23742872.231    -1483829.099        2737.287          48.000  
  23906047.192     1051508.160       -2089.070          37.000  
  24071308.991     1758242.469       -3401.550          32.000  
  23440766.872    -1224260.852        2209.122          43.000  
  23498789.648     2144521.592       -4192.402          48.000  
  24650092.717    -1635981.007        3014.471          35.000  
  39924370.808      150498.7022       -611.631          36.000  
  20239054.423      867657.253       -1787.067          45.000  
  22684733.850      984707.034       -1997.727          45.000  
  25099489.396     -227981.2703       1604.344          26.000  
 19 10  5 11  6 45.0000000  0 13G 1G22G 3G18G23G28G32G17G 8G19S27G11
                                G14
  20404608.408      466823.808        -983.365          49.000  
  20714949.397      339767.660        -744.921          44.000  
  20736880.482     -425683.047         675.899          48.000  
  20900239.753     1315536.215       -2568.075          45.000  
  23742351.132    -1486566.538        2737.369          47.000  
  23906444.708     1053597.133       -2089.315          34.000  
  24071955.696     1761643.846       -3401.408          31.000  
  23440346.356    -1226469.993        2208.729          41.000  
  23499587.472     2148714.032       -4192.606          47.000  
  24649519.024    -1638994.502        3013.566          33.000  
  39924487.270      151110.8252       -611.701          36.000  
  20239394.737      869444.203       -1787.077          44.000  
  22685114.229      986704.221       -1997.356          44.000  
 19 10  5 11  6 46.0000000  0 14G 1G22G 3G18G23G28G32G17G 8G19S27G11
                                G14G31
  20404795.998      467807.483        -984.301          48.000  
  20715091.861      340512.867        -745.838          44.000  
  20736752.397     -426358.514         674.803          48.000  
  20900729.546     1318105.006       -2569.424          45.000  
  23741831.116    -1489303.539        2736.594          47.000  
  23906842.887     1055686.821       -2090.978          37.000  
  24072603.378     1765045.954       -3404.558          31.000  
  23439925.876    -1228678.515        2207.837          42.000  
  23500385.715     2152906.969       -4193.652          47.000  
  24648945.540    -1642007.535        3011.786          35.000  
  39924604.640      151723.2332       -613.195          36.000  
  20239734.877      871232.035       -1788.521          45.000  
  22685495.063      988702.279       -1998.217          44.000  
  25098873.683     -231189.3963       1603.006          25.000  
 19 10  5 11  6 47.0000000  0 13G 1G22G 3G18G23G28G32G17G 8G19S27G11
                                G14
  20404983.867      468792.628        -985.682          50.000  
  20715233.626      341259.534        -747.668          45.000  
  20736624.487     -427032.483         673.381          49.000  
  20901219.618     1320675.236       -2571.119          46.000  
  23741310.680    -1492039.323        2735.018          48.000  
  23907241.520     1057778.021       -2091.307          38.000  
  24073251.444     1768449.471       -3404.639          32.000  
  23439506.233    -1230885.680        2206.094          42.000  
  23501184.481     2157101.132       -4194.833          48.000  
  24648372.545    -1645019.260        3011.584          36.000  
  39924722.150      152336.7052       -615.094          36.000  
  20240075.889      873021.513       -1790.662          45.000  
  22685876.106      990701.922       -2000.963          45.000  
 19 10  5 11  6 48.0000000  0 13G 1G22G 3G18G23G28G32G17G 8G19S27G11
                                G14
  20405171.212      469779.422        -987.230          49.000  
  20715376.020      342007.846        -748.974          45.000  
  20736496.752     -427704.769         671.449          49.000  
  20901709.375     1323247.112       -2572.520          46.000  
  23740789.966    -1494773.692        2734.278          48.000  
  23907640.397     1059870.881       -2093.641          38.000  
  24073899.196     1771854.582       -3405.757          32.000  
  23439086.032    -1233091.278        2204.947          42.000  
  23501982.829     2161296.735       -4195.942          48.000  
  24647800.247    -1648029.581        3009.594          36.000  
  39924838.857      152951.4892       -615.640          36.000  
  20240416.482      874812.836       -1791.927          45.000  
  22686256.870      992703.369       -2002.227          45.000  
 19 10  5 11  6 49.0000000  0 13G 1G22G 3G18G23G28G32G17G 8G19S27G11
                                G14
  20405359.430      470766.773        -987.874          49.000  
  20715518.798      342756.692        -749.273          45.000  
  20736368.562     -428376.478         671.279          48.000  
  20902198.714     1325819.559       -2573.065          46.000  
  23740269.949    -1497507.760        2734.085          48.000  
  23908039.833     1061964.302       -2093.811          38.000  
  24074548.414     1775260.274       -3403.258          32.000  
  23438666.528    -1235296.410        2204.853          42.000  
  23502781.316     2165492.689       -4195.993          48.000  
  24647227.601    -1651039.513        3010.142          36.000  
  39924956.332      153566.4672       -614.625          36.000  
  20240757.390      876604.909       -1792.514          44.000  
  22686637.494      994705.532       -2002.781          45.000  
 19 10  5 11  6 50.0000000  0 13G 1G22G 3G18G23G28G32G17G 8G19S27G11
                                G14
  20405547.369      471754.930        -988.726          49.000  
  20715661.436      343506.311        -750.061          45.000  
  20736240.827     -429047.367         670.149          49.000  
  20902688.577     1328392.756       -2573.631          46.000  
  23739749.933    -1500241.294        2732.657          48.000  
  23908438.466     1064058.549       -2094.714          38.000  
  24075197.109     1778666.669       -3406.689          32.000  
  23438246.676    -1237500.830        2203.526          42.000  
  23503579.942     2169689.207       -4197.039          49.000  
  24646655.199    -1654048.895        3007.128          36.000  
  39925073.144      154181.8372       -615.485          36.000  
  20241098.262      878397.948       -1793.833          45.000  
  22687018.781      996708.612       -2003.481          45.000  
 19 10  5 11  6 51.0000000  0 14G 1G22G 3G18G23G28G32G17G 8G19S27G11
                                G14G31
  20405735.518      472744.500        -990.644          49.000  
  20715804.039      344257.355        -751.866          45.000  
  20736113.894     -429716.797         668.332          49.000  
  20903178.195     1330967.364       -2575.703          46.000  
  23739229.881    -1502973.640        2731.733          48.000  
  23908837.622     1066154.208       -2096.257          38.000  
  24075845.768     1782074.519       -3409.248          32.000  
  23437827.347    -1239703.867        2202.594          42.000  
  23504378.534     2173886.941       -4198.469          48.000  
  24646082.483    -1657057.047        3007.529          36.000  
  39925190.025      154798.3662       -616.402          36.000  
  20241439.833      880192.612       -1795.846          44.000  
  22687400.348      998713.285       -2005.777          45.000  
  25097357.817     -239193.8263       1597.739          26.000  
 19 10  5 11  6 52.0000000  0 14G 1G22G 3G18G23G28G32G17G 8G19S27G11
                                G14G31
  20405924.503      473735.427        -991.492          50.000  
  20715946.887      345009.725        -753.047          45.000  
  20735986.472     -430384.825         667.784          49.000  
  20903668.581     1333543.326       -2576.122          46.000  
  23738710.284    -1505704.880        2730.994          48.000  
  23909237.162     1068251.277       -2097.725          39.000  
  24076494.916     1785483.644       -3410.251          33.000  
  23437408.787    -1241905.693        2201.504          42.000  
  23505177.754     2178085.809       -4199.216          48.000  
  24645510.011    -1660064.032        3006.659          35.000  
  39925307.186      155415.8572       -617.118          36.000  
  20241781.299      881988.819       -1796.315          44.000  
  22687782.333     1000719.468       -2006.152          45.000  
  25097059.523     -240791.0903       1597.784          27.000  
 19 10  5 11  6 53.0000000  0 14G 1G22G 3G18G23G28G32G17G 8G19S27G11
                                G14G31
  20406112.931      474726.883        -991.569          49.000  
  20716090.641      345762.610        -753.054          45.000  
  20735859.260     -431052.333         667.012          48.000  
  20904158.339     1336119.798       -2576.798          46.000  
  23738190.965    -1508435.868        2730.938          48.000  
  23909636.946     1070348.867       -2097.467          39.000  
  24077144.693     1788893.279       -3407.506          33.000  
  23436989.877    -1244107.071        2201.589          42.000  
  23505976.695     2182284.988       -4199.366          48.000  
  24644937.644    -1663070.698        3006.777          35.000  
  39925424.661      156033.3542       -617.058          36.000  
  20242123.288      883785.716       -1797.522          44.000  
  22688163.969     1002726.291       -2006.795          44.000  
  25096757.076     -242387.9523       1596.958          27.000  
 19 10  5 11  6 54.0000000  0 14G 1G22G 3G18G23G28G32G17G 8G19S27G11
                                G14G31
  20406301.637      475718.917        -992.613          48.000  
  20716234.361      346516.067        -754.038          44.000  
  20735731.769     -431719.216         666.015          46.000  
  20904648.934     1338696.857       -2577.680          44.000  
  23737671.786    -1511166.498        2729.857          46.000  
  23910036.173     1072447.062       -2098.181          36.000  
  24077794.434     1792303.469       -3413.805          33.000  
  23436571.036    -1246307.943        2199.663          40.000  
  23506776.194     2186484.553       -4200.252          47.000  
  24644365.486    -1666076.922        3005.324          35.000  
  39925541.473      156650.9312       -617.999          35.000  
  20242465.731      885583.410       -1798.020          43.000  
  22688545.152     1004733.845       -2008.954          42.000  
  25096456.409     -243984.4873       1598.208          26.000  
 19 10  5 11  6 55.0000000  0 13G 1G22G 3G18G23G28G32G17G 8G19S27G11
                                G14
  20406491.042      476712.522        -994.645          49.000  
  20716377.488      347271.088        -756.130          44.000  
  20735605.534     -432384.493         664.163          47.000  
  20905139.774     1341275.489       -2579.875          45.000  
  23737152.468    -1513895.807        2728.865          47.000  
  23910436.550     1074546.840       -2100.955          37.000  
  24078444.001     1795715.227       -3412.664          32.000  
  23436152.022    -1248507.332        2198.305          40.000  
  23507575.798     2190685.477       -4201.818          47.000  
  24643794.375    -1669081.875        3003.475          34.000  
  39925659.436      157269.6532       -618.886          35.000  
  20242808.768      887382.848       -1800.375          44.000  
  22688927.486     1006743.149       -2009.969          43.000  
 19 10  5 11  6 56.0000000  0 13G 1G22G 3G18G23G28G32G17G 8G19S27G11
                                G14
  20406680.377      477707.401        -994.715          50.000  
  20716521.767      348027.344        -756.388          46.000  
  20735478.741     -433048.477         664.062          48.000  
  20905630.753     1343855.352       -2579.960          46.000  
  23736633.743    -1516624.124        2728.418          48.000  
  23910836.474     1076647.896       -2101.108          38.000  
  24079093.952     1799128.191       -3411.981          33.000  
  23435733.740    -1250705.558        2198.030          42.000  
  23508375.192     2194887.444       -4201.933          48.000  
  24643222.951    -1672085.702        3003.992          35.000  
  39925777.539      157889.2432       -619.446          36.000  
  20243151.315      889183.726       -1800.930          45.000  
  22689310.483     1008753.846       -2010.641          44.000  
 19 10  5 11  6 57.0000000  0 13G 1G22G 3G18G23G28G32G17G 8G19S27G11
                                G14
  20406869.572      478702.678        -995.627          50.000  
  20716665.591      348784.006        -756.751          46.000  
  20735352.820     -433712.032         663.285          49.000  
  20906121.070     1346435.610       -2580.571          46.000  
  23736114.354    -1519352.275        2727.878          48.000  
  23911236.782     1078749.353       -2102.752          39.000  
  24079743.309     1802541.488       -3415.041          33.000  
  23435315.563    -1252903.460        2197.220          42.000  
  23509174.377     2199089.594       -4202.190          49.000  
  24642652.049    -1675089.337        3002.891          36.000  
  39925895.747      158508.9662       -619.470          36.000  
  20243493.549      890985.221       -1801.863          45.000  
  22689692.922     1010765.094       -2011.702          44.000  
 19 10  5 11  6 58.0000000  0 13G 1G22G 3G18G23G28G32G17G 8G19S27G11
                                G14
  20407058.453      479698.554        -996.168          50.000  
  20716809.416      349541.244        -757.791          46.000  
  20735226.027     -434374.972         662.466          49.000  
  20906611.386     1349016.446       -2581.612          46.000  
  23735595.211    -1522080.072        2727.551          48.000  
  23911637.265     1080851.458       -2102.380          39.000  
  24080393.086     1805955.392       -3414.333          33.000  
  23434897.386    -1255100.838        2196.715          42.000  
  23509973.493     2203292.110       -4202.943          49.000  
  24642080.136    -1678092.541        3002.474          36.000  
  39926013.746      159128.9232       -620.750          37.000  
  20243837.248      892787.484       -1802.568          45.000  
  22690075.745     1012777.087       -2012.538          44.000  
 19 10  5 11  6 59.0000000  0 13G 1G22G 3G18G23G28G32G17G 8G19S27G11
                                G14
  20407248.417      480695.811        -998.237          49.000  
  20716954.078      350299.860        -759.549          45.000  
  20735100.141     -435036.496         660.293          48.000  
  20907102.505     1351598.654       -2583.587          45.000  
  23735076.904    -1524806.763        2725.820          48.000  
  23912037.398     1082954.922       -2104.558          39.000  
  24081042.792     1809370.668       -3417.897          33.000  
  23434479.523    -1257296.932        2195.019          41.000  
  23510773.655     2207495.790       -4204.819          48.000  
  24641508.851    -1681094.603        3001.588          35.000  
  39926131.988      159749.8292       -623.226          36.000  
  20244180.878      894591.306       -1805.019          44.000  
  22690459.161     1014790.616       -2014.379          44.000  
 19 10  5 11  7  0.0000000  0 13G 1G22G 3G18G23G28G32G17G 8G19S27G11
                                G14
  20407438.659      481694.449        -999.326          50.000  
  20717098.810      351059.841        -760.728          46.000  
  20734974.534     -435696.589         659.706          49.000  
  20907593.973     1354182.250       -2584.008          45.000  
  23734558.493    -1527532.301        2725.235          48.000  
  23912437.462     1085059.831       -2105.517          39.000  
  24081693.301     1812787.340       -3416.998          33.000  
  23434062.009    -1259491.716        2194.191          42.000  
  23511573.503     2211700.653       -4205.229          48.000  
  24640938.298    -1684095.461        3000.181          36.000  
  39926251.138      160371.7792       -621.683          36.000  
  20244524.054      896396.722       -1805.917          45.000  
  22690842.857     1016805.663       -2015.916          44.000  
 19 10  5 11  7  1.0000000  0 13G 1G22G 3G18G23G28G32G17G 8G19S27G11
                                G14
  20407628.482      482693.768        -999.433          49.000  
  20717244.136      351820.460        -760.636          46.000  
  20734848.858     -436356.006         659.444          49.000  
  20908085.371     1356766.500       -2584.930          46.000  
  23734039.419    -1530257.442        2724.842          49.000  
  23912838.119     1087165.355       -2105.531          39.000  
  24082343.601     1816204.554       -3416.670          33.000  
  23433645.158    -1261685.936        2193.869          42.000  
  23512373.212     2215905.954       -4205.441          48.000  
  24640367.362    -1687095.852        3000.351          35.000  
  39926368.892      160993.9582       -623.262          36.000  
  20244867.719      898202.964       -1806.653          45.000  
  22691226.343     1018821.513       -2016.111          44.000  
 19 10  5 11  7  2.0000000  0 13G 1G22G 3G18G23G28G32G17G 8G19S27G11
                                G14
  20407818.759      483693.718       -1000.319          49.000  
  20717388.658      352581.742        -761.816          46.000  
  20734723.181     -437014.730         658.164          49.000  
  20908577.641     1359351.407       -2585.884          46.000  
  23733521.008    -1532982.159        2724.016          49.000  
  23913238.846     1089271.590       -2107.225          39.000  
  24082994.215     1819622.446       -3418.759          33.000  
  23433227.470    -1263879.594        2193.015          43.000  
  23513173.374     2220111.688       -4206.173          48.000  
  24639796.845    -1690095.822        2998.741          36.000  
  39926487.344      161616.4332       -622.263          37.000  
  20245211.383      900010.087       -1807.664          45.000  
  22691610.003     1020838.183       -2017.553          44.000  
